     2.11           OBSERVATION DATA    M (Mixed)           RINEX VERSION / TYPE
RTCM3TORINEX on                         2022-01-07 13:59    PGM / RUN BY / DATE
RTCM3TORINEX                                                MARKER NAME
                                                            OBSERVER / AGENCY
                                                            REC # / TYPE / VERS
                                                            ANT # / TYPE
         .0000         .0000         .0000                  APPROX POSITION XYZ
         .0000         .0000         .0000                  ANTENNA: DELTA H/E/N
     1     1                                                WAVELENGTH FACT L1/2
     9    C1    C2    L1    L2    S1    S2    C7    L7    S7# / TYPES OF OBSERV
  2022     1     7    13    59   21.0000000     GPS         TIME OF FIRST OBS
                                                            END OF HEADER
 22  1  7 13 59 21.0000000  0  8E02E03E07E08E11E12E25E30
  23416018.619                   123052070.044 0                        49.000  
                  23416016.868    94286676.395          53.000  
  25989062.827                   136573028.447 0                        45.000  
                  25989063.113   104646803.232          49.000  
  26921264.720                   141472209.480 0                        42.000  
                  26921265.632   108400795.217          46.000  
  22680438.251                   119186790.621 0                        49.000  
                  22680436.071    91324948.295          52.000  
  25111417.330                   131961069.116 0                        38.000  
                  25111413.345   101113539.817          40.000  
  26422815.472                   138852221.22910                        34.000  
                  26422812.953   106393308.702          37.000  
  24685334.551                   129722348.655 0                        47.000  
                  24685334.176    99397671.478          50.000  
  26624325.749                   139911797.611 0                        43.000  
                  26624326.356   107205160.245          47.000  
 22  1  7 13 59 22.0000000  0  8G10G12G13G14G15G17G19G24
  24896560.287    24896556.624   130832834.304 0 101947662.435 0        40.000  
        39.000                                                  
  21727864.099    21727858.810   114180567.108 0  88971880.576 0        48.000  
        46.000                                                  
  23375220.459                   122837591.174 0                        45.000  
                                                                
  24890788.074    24890783.482   130802007.706 0 101923645.096 0        37.000  
        36.000                                                  
  22378861.000    22378857.086   117601729.051 0  91637689.601 0        47.000  
        45.000                                                  
  22593563.636    22593557.704   118730016.734 0  92516993.946 0        45.000  
        42.000                                                  
  21078900.711                   110770845.115 0                        47.000  
                                                                
  20176349.012    20176345.939   106027472.330 0  82618818.862 0        50.000  
        50.000                                                  
 22  1  7 13 59 21.0000000  0  0
 22  1  7 13 59 22.0000000  0  8E02E03E07E08E11E12E25E30
  23415922.340                   123051563.071 0                        49.000  
                  23415920.428    94286287.931          53.000  
  25989611.013                   136575909.216 0                        45.000  
                  25989611.263   104649010.579          49.000  
  26920897.887                   141470283.156 0                        42.000  
                  26920898.995   108399319.203          46.000  
  22680562.137                   119187442.327 0                        49.000  
                  22680560.118    91325447.650          52.000  
  25111135.231                   131959586.583 0                        38.000  
                  25111131.247   101112403.866          40.000  
  26423004.437                   138853210.55810                        34.000  
                  26423001.221   106394066.788          37.000  
  24685642.524                   129723966.416 0                        47.000  
                  24685642.023    99398911.063          50.000  
  26623911.098                   139909618.246 0                        43.000  
                  26623911.384   107203490.342          47.000  
 22  1  7 13 59 23.0000000  0  8G10G12G13G14G15G17G19G24
  24896764.512    24896760.867   130833907.760 0 101948498.913 0        40.000  
        39.000                                                  
  21727392.696    21727387.300   114178089.318 0  88969949.842 0        49.000  
        46.000                                                  
  23375928.394                   122841311.653 0                        45.000  
                                                                
  24891405.556    24891400.857   130805252.011 0 101926173.122 0        37.000  
        36.000                                                  
  22379454.805    22379451.035   117604849.775 0  91640121.341 0        47.000  
        45.000                                                  
  22593978.912    22593973.051   118732199.192 0  92518694.568 0        45.000  
        42.000                                                  
  21078969.400                   110771205.964 0                        47.000  
                                                                
  20176176.612    20176173.414   106026566.055 0  82618112.678 0        50.000  
        50.000                                                  
 22  1  7 13 59 22.0000000  0  0
 22  1  7 13 59 23.0000000  0  8E02E03E07E08E11E12E25E30
  23415825.705                   123051056.008 0                        49.000  
                  23415823.900    94285899.408          53.000  
  25990159.252                   136578789.864 0                        45.000  
                  25990159.413   104651217.826          49.000  
  26920531.411                   141468356.863 0                        42.000  
                  26920532.591   108397843.224          46.000  
  22680686.309                   119188094.212 0                        49.000  
                  22680684.093    91325947.146          52.000  
  25110852.937                   131958104.150 0                        38.000  
                  25110849.184   101111267.986          40.000  
  26423192.902                   138854200.09210                        34.000  
                  26423189.471   106394824.987          37.000  
  24685950.210                   129725584.007 0                        47.000  
                  24685949.800    99400150.512          50.000  
  26623496.358                   139907438.696 0                        43.000  
                  26623496.751   107201820.304          47.000  
 22  1  7 13 59 24.0000000  0  8G10G12G13G14G15G17G19G24
  24896968.826    24896965.270   130834981.756 0 101949335.825 0        40.000  
        39.000                                                  
  21726921.258    21726915.897   114175611.893 0  88968019.374 0        48.000  
        46.000                                                  
  23376636.382                   122845032.342 0                        45.000  
                                                                
  24892022.985    24892018.160   130808496.293 0 101928701.145 0        37.000  
        36.000                                                  
  22380048.682    22380044.965   117607970.837 0  91642553.331 0        47.000  
        45.000                                                  
  22594394.331    22594388.399   118734382.116 0  92520395.538 0        45.000  
        42.000                                                  
  21079038.231                   110771567.547 0                        47.000  
                                                                
  20176004.283    20176001.067   106025660.285 0  82617406.883 0        50.000  
        50.000                                                  
 22  1  7 13 59 23.0000000  0  0
 22  1  7 13 59 24.0000000  0  8E02E03E07E08E11E12E25E30
  23415729.337                   123050549.178 0                        49.000  
                  23415727.497    94285511.061          53.000  
  25990707.367                   136581670.727 0                        45.000  
                  25990707.706   104653425.245          49.000  
  26920165.150                   141466430.961 0                        42.000  
                  26920166.079   108396367.533          46.000  
  22680810.445                   119188746.584 0                        49.000  
                  22680808.194    91326447.015          52.000  
  25110570.910                   131956622.162 0                        38.000  
                  25110567.139   101110132.444          40.000  
  26423381.241                   138855190.08710                        34.000  
                  26423377.811   106395583.541          37.000  
  24686257.897                   129727201.739 0                        47.000  
                  24686257.629    99401390.077          50.000  
  26623081.850                   139905259.284 0                        43.000  
                  26623082.047   107200150.354          47.000  
 22  1  7 13 59 25.0000000  0  8G10G12G13G14G15G17G19G24
  24897173.319    24897169.638   130836056.246 0 101950173.076 0        40.000  
        39.000                                                  
  21726449.748    21726444.530   114173134.755 0  88966089.138 0        48.000  
        46.000                                                  
  23377344.442                   122848753.158 0                        45.000  
                                                                
  24892640.324    24892635.642   130811740.540 0 101931229.144 0        37.000  
        36.000                                                  
  22380642.595    22380638.949   117611092.186 0  91644985.553 0        47.000  
        45.000                                                  
  22594809.840    22594803.853   118736565.454 0  92522096.850 0        45.000  
        42.000                                                  
  21079107.152                   110771929.793 0                        47.000  
                                                                
  20175832.026    20175828.792   106024754.916 0  82616701.396 0        50.000  
        50.000                                                  
 22  1  7 13 59 24.0000000  0  0
 22  1  7 13 59 25.0000000  0  8E02E03E07E08E11E12E25E30
  23415632.969                   123050042.525 0                        49.000  
                  23415630.986    94285122.839          53.000  
  25991255.552                   136584551.727 0                        45.000  
                  25991255.856   104655632.758          49.000  
  26919798.513                   141464505.353 0                        42.000  
                  26919799.657   108394892.064          46.000  
  22680934.617                   119189399.393 0                        49.000  
                  22680932.437    91326947.222          52.000  
  25110288.954                   131955140.518 0                        38.000  
                  25110285.273   101108997.159          40.000  
  26423570.117                   138856180.50510                        34.000  
                  26423566.364   106396342.455          37.000  
  24686565.959                   129728819.542 0                        47.000  
                  24686565.512    99402629.686          50.000  
  26622666.967                   139903079.919 0                        43.000  
                  26622667.235   107198480.457          47.000  
 22  1  7 13 59 26.0000000  0  8G10G12G13G14G15G17G19G24
  24897377.991    24897374.221   130837131.366 0 101951010.832 0        40.000  
        39.000                                                  
  21725978.488    21725973.145   114170658.095 0  88964159.274 0        48.000  
        46.000                                                  
  23378052.520                   122852474.265 0                        45.000  
                                                                
  24893257.645    24893253.106   130814984.937 0 101933757.220 0        37.000  
        36.000                                                  
  22381236.632    22381232.916   117614214.002 0  91647418.130 0        47.000  
        45.000                                                  
  22595225.527    22595219.612   118738749.379 0  92523798.601 0        45.000  
        42.000                                                  
  21079176.287                   110772292.884 0                        47.000  
                                                                
  20175659.876    20175656.624   106023850.158 0  82615996.390 0        50.000  
        50.000                                                  
 22  1  7 13 59 25.0000000  0  0
 22  1  7 13 59 26.0000000  0  8E02E03E07E08E11E12E25E30
  23415536.495                   123049536.210 0                        49.000  
                  23415534.761    94284734.886          53.000  
  25991803.899                   136587433.047 0                        45.000  
                  25991804.203   104657840.521          49.000  
  26919432.056                   141462580.229 0                        42.000  
                  26919433.324   108393416.966          46.000  
  22681058.878                   119190052.810 0                        49.000  
                  22681056.913    91327447.889          52.000  
  25110007.106                   131953659.431 0                        38.000  
                  25110003.407   101107862.314          40.000  
  26423758.564                   138857171.50910                        34.000  
                  26423754.918   106397101.802          37.000  
  24686873.682                   129730437.588 0                        46.000  
                  24686873.449    99403869.489          50.000  
  26622252.245                   139900900.795 0                        43.000  
                  26622252.763   107196810.736          47.000  
 22  1  7 13 59 27.0000000  0  8G10G12G13G14G15G17G19G24
  24897582.752    24897578.875   130838207.132 0 101951849.105 0        40.000  
        39.000                                                  
  21725507.264    21725501.832   114168181.899 0  88962229.772 0        48.000  
        46.000                                                  
  23378760.705                   122856195.691 0                        45.000  
                                                                
  24893875.145    24893870.516   130818229.436 0 101936285.399 0        37.000  
        37.000                                                  
  22381830.724    22381827.096   117617336.276 0  91649851.073 0        47.000  
        45.000                                                  
  22595641.196    22595635.281   118740933.900 0  92525500.827 0        45.000  
        41.000                                                  
  21079245.548                   110772656.808 0                        47.000  
                                                                
  20175487.922    20175484.634   106022945.987 0  82615291.839 0        50.000  
        50.000                                                  
 22  1  7 13 59 26.0000000  0  0
 22  1  7 13 59 27.0000000  0  8E02E03E07E08E11E12E25E30
  23415440.163                   123049030.235 0                        49.000  
                  23415438.412    94284347.195          53.000  
  25992352.210                   136590314.667 0                        45.000  
                  25992352.585   104660048.522          49.000  
  26919065.830                   141460655.577 0                        42.000  
                  26919067.027   108391942.233          46.000  
  22681183.211                   119190706.825 0                        49.000  
                  22681181.335    91327949.020          52.000  
  25109725.401                   131952178.882 0                        38.000  
                  25109721.810   101106727.831          40.000  
  26423947.135                   138858163.09110                        34.000  
                  26423943.580   106397861.597          37.000  
  24687181.529                   129732055.889 0                        46.000  
                  24687181.350    99405109.486          50.000  
  26621837.612                   139898721.917 0                        43.000  
                  26621837.952   107195141.207          47.000  
 22  1  7 13 59 28.0000000  0  8G10G12G13G14G15G17G19G24
  24897787.603    24897783.654   130839283.306 0 101952687.654 0        40.000  
        38.000                                                  
  21725036.130    21725030.769   114165705.902 0  88960300.424 0        48.000  
        46.000                                                  
  23379468.890                   122859917.168 0                        45.000  
                                                                
  24894492.484    24894487.909   130821473.783 0 101938813.495 0        37.000  
        37.000                                                  
  22382424.905    22382421.224   117620458.740 0  91652284.171 0        47.000  
        45.000                                                  
  22596056.901    22596050.986   118743118.726 0  92527203.298 0        45.000  
        41.000                                                  
  21079314.790                   110773021.314 0                        47.000  
                                                                
  20175315.790    20175312.734   106022042.142 0  82614587.551 0        50.000  
        50.000                                                  
 22  1  7 13 59 27.0000000  0  0
 22  1  7 13 59 28.0000000  0  8E02E03E07E08E11E12E25E30
  23415343.813                   123048524.339 0                        49.000  
                  23415342.187    94283959.558          53.000  
  25992900.521                   136593196.336 0                        45.000  
                  25992900.861   104662256.554          49.000  
  26918699.711                   141458731.142 0                        42.000  
                  26918700.748   108390467.671          46.000  
  22681307.776                   119191361.177 0                        49.000  
                  22681305.792    91328450.410          52.000  
  25109443.839                   131950698.599 0                        38.000  
                  25109440.069   101105593.599          40.000  
  26424136.386                   138859155.02610                        34.000  
                  26424132.384   106398621.638          37.000  
  24687489.484                   129733674.173 0                        46.000  
                  24687489.323    99406349.475          50.000  
  26621422.980                   139896543.007 0                        43.000  
                  26621423.266   107193471.661          47.000  
 22  1  7 13 59 29.0000000  0  8G10G12G13G14G15G17G19G24
  24897992.418    24897988.433   130840359.729 0 101953526.439 0        40.000  
        38.000                                                  
  21724565.031    21724559.670   114163230.026 0  88958371.173 0        48.000  
        46.000                                                  
  23380177.075                   122863638.597 0                        44.000  
                                                                
  24895109.965    24895105.230   130824717.927 0 101941341.375 0        37.000  
        37.000                                                  
  22383019.157    22383015.333   117623581.322 0  91654717.354 0        47.000  
        45.000                                                  
  22596472.749    22596466.798   118745303.801 0  92528905.940 0        45.000  
        42.000                                                  
  21079384.265                   110773386.300 0                        47.000  
                                                                
  20175143.836    20175140.763   106021138.549 0  82613883.453 0        50.000  
        50.000                                                  
 22  1  7 13 59 28.0000000  0  0
 22  1  7 13 59 29.0000000  0  8E02E03E07E08E11E12E25E30
  23415247.606                   123048018.434 0                        49.000  
                  23415245.891    94283571.921          53.000  
  25993448.778                   136596077.979 0                        45.000  
                  25993449.225   104664464.571          49.000  
  26918333.611                   141456806.822 0                        42.000  
                  26918334.558   108388993.196          46.000  
  22681432.198                   119192015.791 0                        49.000  
                  22681430.429    91328951.999          52.000  
  25109161.955                   131949218.493 0                        38.000  
                  25109158.614   101104459.508          40.000  
  26424324.869                   138860147.19810                        34.000  
                  26424321.116   106399381.862          37.000  
  24687797.385                   129735292.369 0                        46.000  
                  24687797.296    99407589.380          50.000  
  26621008.329                   139894363.994 0                        43.000  
                  26621008.829   107191802.026          47.000  
 22  1  7 13 59 30.0000000  0  8G10G12G13G14G15G17G19G24
  24898197.393    24898193.408   130841436.909 0 101954365.776 0        40.000  
        38.000                                                  
  21724094.021    21724088.642   114160754.710 0  88956442.362 0        48.000  
        46.000                                                  
  23380885.296                   122867360.414 0                        45.000  
                                                                
  24895727.465    24895722.533   130827962.277 0 101943869.444 0        37.000  
        37.000                                                  
  22383613.409    22383609.710   117626704.450 0  91657150.962 0        47.000  
        45.000                                                  
  22596888.597    22596882.593   118747489.546 0  92530609.122 0        45.000  
        42.000                                                  
  21079453.900                   110773752.226 0                        47.000  
                                                                
  20174972.097    20174968.970   106020235.640 0  82613179.885 0        50.000  
        50.000                                                  
 22  1  7 13 59 29.0000000  0  0
 22  1  7 13 59 30.0000000  0  8E02E03E07E08E11E12E25E30
  23415151.560                   123047512.969 0                        49.000  
                  23415149.666    94283184.610          53.000  
  25993997.250                   136598960.018 0                        45.000  
                  25993997.751   104666672.884          49.000  
  26917967.475                   141454883.085 0                        42.000  
                  26917968.565   108387519.162          46.000  
  22681556.959                   119192671.098 0                        49.000  
                  22681555.047    91329454.115          52.000  
  25108880.393                   131947739.032 0                        38.000  
                  25108876.891   101103325.897          40.000  
  26424513.762                   138861140.05410                        34.000  
                  26424510.045   106400142.633          37.000  
  24688105.411                   129736910.887 0                        46.000  
                  24688105.375    99408829.550          50.000  
  26620593.821                   139892185.304 0                        43.000  
                  26620594.054   107190132.642          47.000  
 22  1  7 13 59 31.0000000  0  8G10G12G13G14G15G17G19G24
  24898402.440    24898398.545   130842514.661 0 101955205.594 0        40.000  
        38.000                                                  
  21723623.011    21723617.633   114158279.790 0  88954513.846 0        48.000  
        46.000                                                  
  23381593.571                   122871082.465 0                        45.000  
                                                                
  24896344.769    24896339.926   130831206.674 0 101946397.538 0        37.000  
        37.000                                                  
  22384207.840    22384204.088   117629827.973 0  91659584.868 0        47.000  
        45.000                                                  
  22597304.659    22597298.655   118749675.816 0  92532312.700 0        45.000  
        42.000                                                  
  21079523.750                   110774118.906 0                        47.000  
                                                                
  20174800.322    20174797.159   106019333.253 0  82612476.726 0        50.000  
        50.000                                                  
 22  1  7 13 59 30.0000000  0  0
 22  1  7 13 59 31.0000000  0  8E02E03E07E08E11E12E25E30
  23415055.014                   123047007.757 0                        49.000  
                  23415053.531    94282797.504          53.000  
  25994545.740                   136601842.301 0                        45.000  
                  25994546.205   104668881.389          49.000  
  26917601.589                   141452959.763 0                        42.000  
                  26917602.553   108386045.441          46.000  
  22681681.685                   119193326.935 0                        49.000  
                  22681679.916    91329956.639          52.000  
  25108598.795                   131946260.044 0                        38.000  
                  25108595.471   101102192.646          40.000  
  26424702.727                   138862133.42410                        34.000  
                  26424699.207   106400903.789          37.000  
  24688413.527                   129738529.588 0                        46.000  
                  24688413.294    99410069.855          50.000  
  26620179.385                   139890006.778 0                        43.000  
                  26620179.599   107188463.384          47.000  
 22  1  7 13 59 32.0000000  0  8G10G12G13G14G15G17G19G24
  24898607.666    24898603.681   130843592.916 0 101956045.772 0        40.000  
        38.000                                                  
  21723152.056    21723146.748   114155805.158 0  88952585.559 0        48.000  
        46.000                                                  
  23382301.827                   122874804.652 0                        45.000  
                                                                
  24896962.197    24896957.337   130834451.035 0 101948925.617 0        37.000  
        37.000                                                  
  22384802.360    22384798.554   117632951.776 0  91662018.993 0        47.000  
        45.000                                                  
  22597720.793    22597714.825   118751862.481 0  92534016.591 0        45.000  
        41.000                                                  
  21079593.672                   110774486.264 0                        47.000  
                                                                
  20174628.708    20174625.581   106018431.289 0  82611773.899 0        50.000  
        50.000                                                  
 22  1  7 13 59 31.0000000  0  0
 22  1  7 13 59 32.0000000  0  8E02E03E07E08E11E12E25E30
  23414959.129                   123046502.732 0                        49.000  
                  23414957.377    94282410.535          53.000  
  25995094.158                   136604724.728 0                        45.000  
                  25995094.784   104671089.997          49.000  
  26917235.470                   141451036.736 0                        42.000  
                  26917236.649   108384571.960          46.000  
  22681806.625                   119193983.213 0                        49.000  
                  22681804.785    91330459.502          52.000  
  25108317.519                   131944781.413 0                        38.000  
                  25108314.142   101101059.663          40.000  
  26424892.067                   138863127.21310                        34.000  
                  26424888.297   106401665.264          37.000  
  24688721.642                   129740148.382 0                        46.000  
                  24688721.374    99411310.219          50.000  
  26619764.681                   139887828.317 0                        43.000  
                  26619764.895   107186794.174          47.000  
 22  1  7 13 59 33.0000000  0  8G10G12G13G14G15G17G19G24
  24898812.910    24898809.014   130844671.613 0 101956886.308 0        40.000  
        38.000                                                  
  21722681.260    21722675.900   114153330.837 0  88950657.519 0        49.000  
        46.000                                                  
  23383010.137                   122878526.967 0                        45.000  
                                                                
  24897579.572    24897574.693   130837695.335 0 101951453.659 0        37.000  
        37.000                                                  
  22385396.791    22385393.092   117636075.878 0  91664453.360 0        47.000  
        45.000                                                  
  22598137.052    22598130.940   118754049.579 0  92535720.825 0        45.000  
        41.000                                                  
  21079663.701                   110774854.299 0                        47.000  
                                                                
  20174457.094    20174453.967   106017529.767 0  82611071.408 0        50.000  
        50.000                                                  
 22  1  7 13 59 32.0000000  0  0
 22  1  7 13 59 33.0000000  0  8E02E03E07E08E11E12E25E30
  23414863.011                   123045997.878 0                        49.000  
                  23414861.367    94282023.699          53.000  
  25995642.737                   136607607.301 0                        45.000  
                  25995643.237   104673298.717          49.000  
  26916869.798                   141449114.018 0                        42.000  
                  26916870.674   108383098.710          46.000  
  22681931.530                   119194639.925 0                        49.000  
                  22681929.761    91330962.694          52.000  
  25108036.117                   131943303.156 0                        38.000  
                  25108032.865   101099926.983          40.000  
  26425081.568                   138864121.44210                        34.000  
                  26425077.423   106402427.080          37.000  
  24689029.633                   129741767.238 0                        46.000  
                  24689029.472    99412550.650          50.000  
  26619350.209                   139885649.935 0                        43.000  
                  26619350.459   107185125.022          47.000  
 22  1  7 13 59 34.0000000  0  8G10G12G13G14G15G17G19G24
  24899018.225    24899014.401   130845750.906 0 101957727.302 0        40.000  
        38.000                                                  
  21722210.519    21722205.158   114150856.921 0  88948729.801 0        49.000  
        46.000                                                  
  23383718.609                   122882249.541 0                        45.000  
                                                                
  24898196.964    24898192.140   130840939.708 0 101953981.735 0        37.000  
        37.000                                                  
  22385991.311    22385987.577   117639200.364 0  91666888.027 0        47.000  
        45.000                                                  
  22598553.239    22598547.217   118756237.189 0  92537425.459 0        45.000  
        41.000                                                  
  21079733.819                   110775223.092 0                        47.000  
                                                                
  20174285.587    20174282.531   106016628.771 0  82610369.338 0        50.000  
        50.000                                                  
 22  1  7 13 59 33.0000000  0  0
 22  1  7 13 59 34.0000000  0  8E02E03E07E08E11E12E25E30
  23414767.054                   123045493.303 0                        49.000  
                  23414765.339    94281637.076          53.000  
  25996191.191                   136610490.109 0                        45.000  
                  25996191.691   104675507.631          49.000  
  26916503.912                   141447191.720 0                        42.000  
                  26916504.877   108381625.780          46.000  
  22682056.702                   119195297.182 0                        49.000  
                  22682054.862    91331466.303          52.000  
  25107755.002                   131941825.364 0                        38.000  
                  25107751.678   101098794.652          40.000  
  26425270.837                   138865116.19410                        34.000  
                  26425266.602   106403189.279          37.000  
  24689337.677                   129743386.288 0                        46.000  
                  24689337.427    99413791.218          50.000  
  26618935.594                   139883471.727 0                        43.000  
                  26618935.969   107183456.011          47.000  
 22  1  7 13 59 35.0000000  0  8G10G12G13G14G15G17G19G24
  24899223.683    24899219.948   130846830.771 0 101958568.797 0        40.000  
        38.000                                                  
  21721739.795    21721734.488   114148383.419 0  88946802.397 0        49.000  
        46.000                                                  
  23384426.954                   122885972.352 0                        45.000  
                                                                
  24898814.303    24898809.532   130844184.184 0 101956509.902 0        37.000  
        37.000                                                  
  22386585.975    22386582.133   117642325.267 0  91669323.014 0        47.000  
        45.000                                                  
  22598969.677    22598963.601   118758425.343 0  92539130.514 0        45.000  
        41.000                                                  
  21079804.115                   110775592.694 0                        47.000  
                                                                
  20174114.169    20174111.239   106015728.318 0  82609667.688 0        50.000  
        50.000                                                  
 22  1  7 13 59 34.0000000  0  0
 22  1  7 13 59 35.0000000  0  8E02E03E07E08E11E12E25E30
  23414671.044                   123044989.021 0                        49.000  
                  23414669.365    94281250.678          53.000  
  25996739.949                   136613373.205 0                        45.000  
                  25996740.503   104677716.749          49.000  
  26916138.241                   141445269.850 0                        42.000  
                  26916139.188   108380153.181          46.000  
  22682181.750                   119195954.992 0                        49.000  
                  22682179.981    91331970.343          52.000  
  25107473.851                   131940348.060 0                        38.000  
                  25107470.599   101097662.685          40.000  
  26425460.231                   138866111.45610                        34.000  
                  26425455.906   106403951.900          37.000  
  24689645.757                   129745005.543 0                        46.000  
                  24689645.650    99415031.944          50.000  
  26618521.408                   139881293.720 0                        43.000  
                  26618521.515   107181787.140          47.000  
 22  1  7 13 59 36.0000000  0  8G10G12G13G14G15G17G19G24
  24899429.284    24899425.495   130847910.977 0 101959410.502 0        40.000  
        38.000                                                  
  21721269.125    21721263.836   114145910.069 0  88944875.105 0        49.000  
        46.000                                                  
  23385135.354                   122889695.152 0                        45.000  
                                                                
  24899431.767    24899426.996   130847428.425 0 101959037.878 0        37.000  
        37.000                                                  
  22387180.638    22387176.868   117645450.311 0  91671758.111 0        47.000  
        45.000                                                  
  22599386.061    22599380.021   118760613.767 0  92540835.770 0        45.000  
        41.000                                                  
  21079874.448                   110775962.802 0                        47.000  
                                                                
  20173942.859    20173939.947   106014828.132 0  82608966.249 0        50.000  
        50.000                                                  
 22  1  7 13 59 35.0000000  0  0
 22  1  7 13 59 36.0000000  0  8E02E03E07E08E11E12E25E30
  23414574.962                   123044484.765 0                        49.000  
                  23414573.372    94280864.303          53.000  
  25997288.671                   136616256.280 0                        45.000  
                  25997289.064   104679925.857          49.000  
  26915772.587                   141443348.153 0                        42.000  
                  26915773.409   108378680.712          46.000  
  22682307.065                   119196613.089 0                        49.000  
                  22682305.189    91332474.597          52.000  
  25107192.682                   131938870.976 0                        38.000  
                  25107189.608   101096530.902          40.000  
  26425649.732                   138867107.02610                        34.000  
                  26425645.425   106404714.740          37.000  
  24689953.801                   129746624.721 0                        46.000  
                  24689953.729    99416272.620          50.000  
  26618106.846                   139879115.629 0                        43.000  
                  26618107.186   107180118.211          47.000  
 22  1  7 13 59 37.0000000  0  8G10G12G13G14G15G17G19G24
  24899635.028    24899631.043   130848991.523 0 101960252.486 0        40.000  
        38.000                                                  
  21720798.473    21720793.416   114143436.866 0  88942947.947 0        49.000  
        46.000                                                  
  23385843.736                   122893417.958 0                        44.000  
                                                                
  24900049.160    24900044.282   130850672.507 0 101961565.723 0        37.000  
        37.000                                                  
  22387775.283    22387771.549   117648575.504 0  91674193.329 0        47.000  
        45.000                                                  
  22599802.570    22599796.584   118762802.454 0  92542541.254 0        45.000  
        41.000                                                  
  21079944.977                   110776333.431 0                        47.000  
                                                                
  20173771.620    20173768.618   106013928.251 0  82608265.034 0        50.000  
        50.000                                                  
 22  1  7 13 59 36.0000000  0  0
 22  1  7 13 59 37.0000000  0  8E02E03E07E08E11E12E25E30
  23414479.184                   123043980.533 0                        49.000  
                  23414477.451    94280477.938          53.000  
  25997837.107                   136619139.349 0                        45.000  
                  25997837.714   104682134.964          49.000  
  26915406.826                   141441426.603 0                        42.000  
                  26915407.809   108377208.355          46.000  
  22682432.434                   119197271.476 0                        49.000  
                  22682430.486    91332979.071          52.000  
  25106911.781                   131937394.130 0                        38.000  
                  25106908.457   101095399.299          40.000  
  26425839.465                   138868102.86610                        34.000  
                  26425834.855   106405477.753          37.000  
  24690262.006                   129748243.847 0                        46.000  
                  24690261.934    99417513.247          50.000  
  26617692.160                   139876937.438 0                        43.000  
                  26617692.446   107178449.214          47.000  
 22  1  7 13 59 38.0000000  0  8G10G12G13G14G15G17G19G24
  24899840.861    24899836.805   130850072.941 0 101961095.144 0        40.000  
        38.000                                                  
  21720327.910    21720322.907   114140964.373 0  88941021.329 0        49.000  
        46.000                                                  
  23386552.135                   122897141.286 0                        44.000  
                                                                
  24900666.570    24900661.656   130853916.927 0 101964093.858 0        37.000  
        37.000                                                  
  22388370.089    22388366.373   117651701.381 0  91676629.077 0        47.000  
        45.000                                                  
  22600219.186    22600213.146   118764991.961 0  92544247.359 0        45.000  
        41.000                                                  
  21080015.810                   110776705.158 0                        47.000  
                                                                
  20173600.650    20173597.648   106013029.180 0  82607564.464 0        50.000  
        50.000                                                  
 22  1  7 13 59 37.0000000  0  0
 22  1  7 13 59 38.0000000  0  8E02E03E07E08E11E12E25E30
  23414383.156                   123043476.876 0                        49.000  
                  23414381.655    94280092.024          53.000  
  25998385.739                   136622022.978 0                        45.000  
                  25998386.347   104684344.496          49.000  
  26915041.083                   141439505.786 0                        42.000  
                  26915042.262   108375736.559          46.000  
  22682557.910                   119197930.709 0                        49.000  
                  22682556.034    91333484.197          52.000  
  25106630.880                   131935918.044 0                        38.000  
                  25106627.627   101094268.279          40.000  
  26426029.020                   138869099.55510                        34.000  
                  26426024.517   106406241.474          37.000  
  24690570.139                   129749863.443 0                        46.000  
                  24690570.157    99418754.235          50.000  
  26617277.652                   139874759.734 0                        43.000  
                  26617278.045   107176780.593          47.000  
 22  1  7 13 59 39.0000000  0  8G10G12G13G14G15G17G19G24
  24900046.694    24900042.656   130851154.705 0 101961938.077 0        40.000  
        38.000                                                  
  21719857.401    21719852.433   114138492.053 0  88939094.849 0        49.000  
        46.000                                                  
  23387260.624                   122900864.631 0                        44.000  
                                                                
  24901283.874    24901279.067   130857161.192 0 101966621.845 0        37.000  
        37.000                                                  
  22388964.931    22388961.197   117654827.434 0  91679064.954 0        47.000  
        45.000                                                  
  22600635.927    22600629.816   118767181.769 0  92545953.692 0        45.000  
        41.000                                                  
  21080086.642                   110777077.423 0                        47.000  
                                                                
  20173429.589    20173426.569   106012130.420 0  82606864.131 0        50.000  
        50.000                                                  
 22  1  7 13 59 38.0000000  0  0
 22  1  7 13 59 39.0000000  0  8E02E03E07E08E11E12E25E30
  23414287.575                   123042973.269 0                        49.000  
                  23414285.734    94279706.143          53.000  
  25998934.622                   136624906.614 0                        45.000  
                  25998935.105   104686554.042          49.000  
  26914675.679                   141437585.146 0                        42.000  
                  26914676.823   108374264.899          46.000  
  22682683.137                   119198590.238 0                        49.000  
                  22682681.564    91333989.560          52.000  
  25106349.907                   131934442.219 0                        38.000  
                  25106346.780   101093137.439          40.000  
  26426218.235                   138870096.51010                        34.000  
                  26426214.339   106407005.375          37.000  
  24690878.380                   129751483.009 0                        46.000  
                  24690878.362    99419995.197          50.000  
  26616863.359                   139872581.994 0                        43.000  
                  26616863.716   107175111.931          47.000  
 22  1  7 13 59 40.0000000  0  8G10G12G13G14G15G17G19G24
  24900252.778    24900248.703   130852237.387 0 101962781.719 0        40.000  
        38.000                                                  
  21719387.052    21719382.085   114136020.452 0  88937168.931 0        49.000  
        46.000                                                  
  23387969.256                   122904588.549 0                        44.000  
                                                                
  24901901.374    24901896.495   130860405.829 0 101969150.139 0        37.000  
        37.000                                                  
  22389559.988    22389556.182   117657954.201 0  91681501.402 0        47.000  
        45.000                                                  
  22601052.865    22601046.647   118769372.417 0  92547660.692 0        45.000  
        41.000                                                  
  21080157.725                   110777450.775 0                        47.000  
                                                                
  20173258.779    20173255.759   106011232.520 0  82606164.469 0        50.000  
        50.000                                                  
 22  1  7 13 59 39.0000000  0  0
 22  1  7 13 59 40.0000000  0  8E02E03E07E08E11E12E25E30
  23414191.672                   123042470.269 0                        49.000  
                  23414190.028    94279320.726          53.000  
  25999483.541                   136627790.833 0                        45.000  
                  25999483.934   104688764.030          49.000  
  26914310.472                   141435665.242 0                        42.000  
                  26914311.383   108372793.806          46.000  
  22682808.952                   119199250.642 0                        49.000  
                  22682807.165    91334495.583          52.000  
  25106069.310                   131932967.180 0                        38.000  
                  25106066.004   101092007.223          40.000  
  26426407.896                   138871094.34610                        34.000  
                  26426404.269   106407769.950          37.000  
  24691186.549                   129753103.080 0                        46.000  
                  24691186.567    99421236.548          50.000  
  26616449.066                   139870404.739 0                        43.000  
                  26616449.262   107173443.651          47.000  
 22  1  7 13 59 41.0000000  0  8G10G12G13G14G15G17G19G24
  24900458.915    24900454.876   130853320.416 0 101963625.630 0        40.000  
        38.000                                                  
  21718916.829    21718911.826   114133549.028 0  88935243.152 0        49.000  
        46.000                                                  
  23388677.852                   122908312.470 0                        44.000  
                                                                
  24902518.838    24902513.995   130863650.287 0 101971678.306 0        37.000  
        37.000                                                  
  22390155.062    22390151.149   117661081.108 0  91683937.962 0        47.000  
        45.000                                                  
  22601469.910    22601463.674   118771563.332 0  92549367.901 0        45.000  
        41.000                                                  
  21080228.934                   110777824.671 0                        47.000  
                                                                
  20173087.987    20173084.896   106010334.914 0  82605465.035 0        50.000  
        50.000                                                  
 22  1  7 13 59 40.0000000  0  0
 22  1  7 13 59 41.0000000  0  8E02E03E07E08E11E12E25E30
  23414096.126                   123041967.302 0                        49.000  
                  23414094.321    94278935.337          53.000  
  26000032.334                   136630675.047 0                        45.000  
                  26000032.852   104690974.008          49.000  
  26913945.068                   141433745.514 0                        42.000  
                  26913946.140   108371322.850          46.000  
  22682934.643                   119199911.341 0                        49.000  
                  22682932.928    91335001.832          52.000  
  25105788.605                   131931492.373 0                        38.000  
                  25105785.442   101090877.176          40.000  
  26426597.755                   138872092.41610                        34.000  
                  26426594.127   106408534.717          37.000  
  24691494.897                   129754723.086 0                        46.000  
                  24691494.772    99422477.853          50.000  
  26616034.558                   139868227.414 0                        43.000  
                  26616035.040   107171775.306          47.000  
 22  1  7 13 59 42.0000000  0  8G10G12G13G14G15G17G19G24
  24900665.069    24900660.960   130854403.676 0 101964469.727 0        40.000  
        38.000                                                  
  21718446.552    21718441.424   114131077.697 0  88933317.426 0        49.000  
        46.000                                                  
  23389386.466                   122912036.308 0                        44.000  
                                                                
  24903136.105    24903131.477   130866894.496 0 101974206.218 0        38.000  
        38.000                                                  
  22390749.975    22390746.241   117664208.106 0  91686374.575 0        47.000  
        45.000                                                  
  22601886.920    22601880.576   118773754.464 0  92551075.277 0        45.000  
        41.000                                                  
  21080300.177                   110778199.030 0                        47.000  
                                                                
  20172917.213    20172914.211   106009437.515 0  82604765.764 0        50.000  
        50.000                                                  
 22  1  7 13 59 41.0000000  0  0
 22  1  7 13 59 42.0000000  0  8E02E03E07E08E11E12E25E30
  23414000.223                   123041464.302 0                        49.000  
                  23413998.669    94278549.917          53.000  
  26000581.110                   136633559.205 0                        45.000  
                  26000581.699   104693183.944          49.000  
  26913579.808                   141431825.892 0                        42.000  
                  26913580.826   108369851.959          46.000  
  22683060.352                   119200572.273 0                        49.000  
                  22683058.726    91335508.253          52.000  
  25105508.205                   131930017.737 0                        38.000  
                  25105504.774   101089747.242          40.000  
  26426787.846                   138873090.76810                        34.000  
                  26426784.039   106409299.658          37.000  
  24691803.084                   129756342.972 0                        46.000  
                  24691803.155    99423719.065          50.000  
  26615620.300                   139866049.953 0                        43.000  
                  26615620.622   107170106.860          47.000  
 22  1  7 13 59 43.0000000  0  8G10G12G13G14G15G17G19G24
  24900871.171    24900867.293   130855487.318 0 101965314.128 0        41.000  
        38.000                                                  
  21717976.275    21717971.236   114128606.519 0  88931391.839 0        49.000  
        46.000                                                  
  23390095.044                   122915760.147 0                        44.000  
                                                                
  24903753.534    24903748.923   130870138.520 0 101976734.063 0        38.000  
        38.000                                                  
  22391345.067    22391341.422   117667335.254 0  91688811.309 0        47.000  
        45.000                                                  
  22602303.983    22602297.621   118775945.872 0  92552782.874 0        45.000  
        41.000                                                  
  21080371.528                   110778573.918 0                        47.000  
                                                                
  20172746.474    20172743.472   106008540.422 0  82604066.732 0        50.000  
        50.000                                                  
 22  1  7 13 59 42.0000000  0  0
 22  1  7 13 59 43.0000000  0  8E02E03E07E08E11E12E25E30
  23413904.606                   123040961.341 0                        49.000  
                  23413902.998    94278164.536          53.000  
  26001129.867                   136636443.377 0                        45.000  
                  26001130.475   104695393.895          49.000  
  26913214.583                   141429906.431 0                        42.000  
                  26913215.530   108368381.217          46.000  
  22683186.203                   119201233.504 0                        49.000  
                  22683184.541    91336014.915          52.000  
  25105227.607                   131928543.326 0                        38.000  
                  25105224.212   101088617.521          40.000  
  26426977.740                   138874089.34910                        34.000  
                  26426974.166   106410064.827          37.000  
  24692111.289                   129757962.805 0                        46.000  
                  24692111.396    99424960.236          50.000  
  26615206.061                   139863872.425 0                        43.000  
                  26615206.257   107168438.378          47.000  
 22  1  7 13 59 44.0000000  0  8G10G12G13G14G15G17G19G24
  24901077.558    24901073.627   130856571.826 0 101966159.208 0        40.000  
        38.000                                                  
  21717506.266    21717501.209   114126136.074 0  88929466.811 0        49.000  
        46.000                                                  
  23390803.730                   122919484.549 0                        44.000  
                                                                
  24904370.926    24904366.352   130873382.917 0 101979262.166 0        38.000  
        38.000                                                  
  22391940.249    22391936.675   117670463.129 0  91691248.610 0        47.000  
        45.000                                                  
  22602721.135    22602714.774   118778138.140 0  92554491.128 0        45.000  
        41.000                                                  
  21080443.112                   110778949.906 0                        47.000  
                                                                
  20172575.933    20172572.966   106007644.183 0  82603368.364 0        50.000  
        50.000                                                  
 22  1  7 13 59 43.0000000  0  0
 22  1  7 13 59 44.0000000  0  8E02E03E07E08E11E12E25E30
  23413808.971                   123040458.981 0                        49.000  
                  23413807.345    94277779.606          53.000  
  26001678.804                   136639328.107 0                        45.000  
                  26001679.554   104697604.270          49.000  
  26912849.411                   141427987.715 0                        42.000  
                  26912850.519   108366911.035          46.000  
  22683312.233                   119201895.595 0                        48.000  
                  22683310.411    91336522.236          52.000  
  25104947.260                   131927069.708 0                        38.000  
                  25104943.722   101087488.387          40.000  
  26427167.759                   138875088.84310                        34.000  
                  26427164.203   106410830.651          37.000  
  24692419.637                   129759583.134 0                        46.000  
                  24692419.726    99426201.789          50.000  
  26614791.642                   139861695.393 0                        43.000  
                  26614791.982   107166770.261          47.000  
 22  1  7 13 59 45.0000000  0  8G10G12G13G14G15G17G19G24
  24901283.999    24901280.103   130857656.873 0 101967004.663 0        40.000  
        38.000                                                  
  21717036.186    21717031.111   114123665.961 0  88927542.045 0        49.000  
        46.000                                                  
  23391512.522                   122923209.109 0                        44.000  
                                                                
  24904988.426    24904983.798   130876627.316 0 101981790.272 0        38.000  
        38.000                                                  
  22392535.502    22392532.035   117673591.319 0  91693686.167 0        47.000  
