     2.11           OBSERVATION DATA    M (Mixed)           RINEX VERSION / TYPE
RTCM3TORINEX on                         2022-01-16 21:59    PGM / RUN BY / DATE
RTCM3TORINEX                                                MARKER NAME
                                                            OBSERVER / AGENCY
                                                            REC # / TYPE / VERS
                                                            ANT # / TYPE
         .0000         .0000         .0000                  APPROX POSITION XYZ
         .0000         .0000         .0000                  ANTENNA: DELTA H/E/N
     1     1                                                WAVELENGTH FACT L1/2
     9    C1    C2    L1    L2    S1    S2    C7    L7    S7# / TYPES OF OBSERV
  2022     1    16    21    59   21.0000000     GPS         TIME OF FIRST OBS
                                                            END OF HEADER
 22  1 16 21 59 21.0000000  0  6E07E12E18E19E24E26
  26891981.394                   141318445.510 0                        39.000  
                  26891980.751   108282968.082          44.000  
  23350376.459                   122707321.454 0                        43.000  
                  23350372.385    94022496.927          48.000  
  17987146.982                    94523098.82610                        51.000  
                  17987144.766    72426780.800          55.000  
  27590257.085                   144987117.836 0                        29.000  
                  27590254.172   111094276.813          36.000  
  25682428.784                   134961790.670 0                        46.000  
                  25682425.854   103412281.192          50.000  
  26531825.501                   139426199.038 0                        40.000  
                  26531823.303   106833293.209          46.000  
 22  1 16 21 59 22.0000000  0  9G08G10G15G16G18G21G23G26G27
  22574932.142    22574928.783   118632135.932 0  92440626.193 0        45.000  
        45.000                                                  
  20838724.728    20838720.708   109508465.719 0  85331275.355 0        51.000  
        48.000                                                  
  24066236.340    24066231.409   126468254.673 0  98546693.604 0        37.000  
        37.000                                                  
  21619362.855                   113611207.358 0                        47.000  
                                                                
  22776065.543    22776059.414   119688621.395 0  93263872.656 0        43.000  
        42.000                                                  
  24391423.396                   128177968.194 0                        39.000  
                                                                
  20985046.849    20985042.256   110277668.482 0  85930295.336 0        46.000  
        48.000                                                  
  23478040.961    23478038.245   123378521.465 0  96139112.300 0        43.000  
        43.000                                                  
  20463824.478    20463820.511   107537760.375 0  83795659.292 0        50.000  
        49.000                                                  
 22  1 16 21 59 21.0000000  0  0
 22  1 16 21 59 22.0000000  0  6E07E12E18E19E24E26
  26892028.622                   141318693.940 0                        39.000  
                  26892027.943   108283158.429          44.000  
  23350081.781                   122705773.318 0                        43.000  
                  23350077.707    94021310.689          48.000  
  17987618.170                    94525574.54410                        51.000  
                  17987615.829    72428677.772          55.000  
  27589684.794                   144984111.755 0                        29.000  
                  27589682.149   111091973.421          36.000  
  25682398.389                   134961630.525 0                        46.000  
                  25682395.262   103412158.479          50.000  
  26532227.697                   139428311.067 0                        40.000  
                  26532225.284   106834911.514          46.000  
 22  1 16 21 59 23.0000000  0  9G08G10G15G16G18G21G23G26G27
  22574392.622    22574389.335   118629300.730 0  92438416.956 0        45.000  
        45.000                                                  
  20838508.549    20838504.617   109507329.859 0  85330390.276 0        51.000  
        48.000                                                  
  24066464.206    24066459.257   126469452.333 0  98547626.859 0        37.000  
        37.000                                                  
  21619764.801                   113613319.735 0                        47.000  
                                                                
  22776588.873    22776582.869   119691372.109 0  93266016.062 0        43.000  
        42.000                                                  
  24390926.101                   128175354.536 0                        39.000  
                                                                
  20985281.112    20985276.519   110278899.729 0  85931254.750 0        46.000  
        48.000                                                  
  23478698.380    23478695.664   123381975.719 0  96141803.924 0        43.000  
        43.000                                                  
  20463588.053    20463584.104   107536518.173 0  83794691.342 0        50.000  
        49.000                                                  
 22  1 16 21 59 22.0000000  0  0
 22  1 16 21 59 23.0000000  0  6E07E12E18E19E24E26
  26892076.064                   141318942.908 0                        39.000  
                  26892075.260   108283349.212          44.000  
  23349787.300                   122704225.394 0                        43.000  
                  23349783.207    94020124.621          48.000  
  17988089.573                    94528051.79710                        51.000  
                  17988087.232    72430575.931          55.000  
  27589112.574                   144981105.691 0                        28.000  
                  27589110.001   111089670.102          36.000  
  25682368.048                   134961470.947 0                        46.000  
                  25682364.992   103412036.200          50.000  
  26532629.714                   139430423.221 0                        40.000  
                  26532627.248   106836529.909          46.000  
 22  1 16 21 59 24.0000000  0  9G08G10G15G16G18G21G23G26G27
  22573853.246    22573849.833   118626466.097 0  92436208.148 0        45.000  
        45.000                                                  
  20838292.584    20838288.581   109506194.917 0  85329505.905 0        52.000  
        48.000                                                  
  24066692.340    24066687.337   126470650.964 0  98548560.857 0        37.000  
        37.000                                                  
  21620166.962                   113615433.002 0                        47.000  
                                                                
  22777112.507    22777106.449   119694123.280 0  93268159.841 0        43.000  
        42.000                                                  
  24390428.806                   128172741.348 0                        39.000  
                                                                
  20985515.553    20985510.979   110280131.898 0  85932214.879 0        46.000  
        48.000                                                  
  23479355.728    23479353.012   123385430.425 0  96144495.907 0        43.000  
        43.000                                                  
  20463351.896    20463347.804   107535276.755 0  83793724.006 0        50.000  
        49.000                                                  
 22  1 16 21 59 23.0000000  0  0
 22  1 16 21 59 24.0000000  0  6E07E12E18E19E24E26
  26892123.542                   141319192.720 0                        39.000  
                  26892122.756   108283540.602          44.000  
  23349492.729                   122702677.945 0                        43.000  
                  23349488.744    94018938.909          48.000  
  17988561.190                    94530530.85710                        51.000  
                  17988559.010    72432475.473          55.000  
  27588540.819                   144978099.942 0                        28.000  
                  27588538.014   111087366.971          36.000  
  25682337.831                   134961312.193 0                        46.000  
                  25682334.776   103411914.565          50.000  
  26533031.820                   139432535.745 0                        40.000  
                  26533029.229   106838148.590          46.000  
 22  1 16 21 59 25.0000000  0  9G08G10G15G16G18G21G23G26G27
  22573313.834    22573310.492   118623631.481 0  92433999.348 0        45.000  
        45.000                                                  
  20838076.708    20838072.705   109505060.398 0  85328621.862 0        52.000  
        48.000                                                  
  24066920.563    24066915.560   126471850.068 0  98549495.196 0        37.000  
        37.000                                                  
  21620569.175                   113617546.635 0                        47.000  
                                                                
  22777635.962    22777629.904   119696874.396 0  93270303.566 0        43.000  
        42.000                                                  
  24389931.547                   128170128.099 0                        39.000  
                                                                
  20985750.120    20985745.492   110281364.487 0  85933175.343 0        46.000  
        48.000                                                  
  23480013.129    23480010.342   123388885.116 0  96147187.874 0        43.000  
        43.000                                                  
  20463115.721    20463111.701   107534035.624 0  83792756.886 0        50.000  
        49.000                                                  
 22  1 16 21 59 24.0000000  0  0
 22  1 16 21 59 25.0000000  0  6E07E12E18E19E24E26
  26892171.146                   141319442.808 0                        39.000  
                  26892170.449   108283732.244          44.000  
  23349198.462                   122701130.463 0                        43.000  
                  23349194.262    94017753.177          48.000  
  17989033.146                    94533011.22610                        51.000  
                  17989031.002    72434376.015          55.000  
  27587969.439                   144975094.016 0                        28.000  
                  27587965.990   111085063.731          36.000  
  25682307.650                   134961153.762 0                        46.000  
                  25682304.488   103411793.172          50.000  
  26533433.838                   139434648.137 0                        40.000  
                  26533431.175   106839767.176          46.000  
 22  1 16 21 59 26.0000000  0  9G08G10G15G16G18G21G23G26G27
  22572774.422    22572771.152   118620796.883 0  92431790.568 0        45.000  
        45.000                                                  
  20837861.011    20837856.955   109503926.280 0  85327738.134 0        52.000  
        48.000                                                  
  24067148.894    24067143.801   126473049.644 0  98550429.947 0        37.000  
        37.000                                                  
  21620971.479                   113619660.635 0                        47.000  
                                                                
  22778159.471    22778153.342   119699625.477 0  93272447.258 0        43.000  
        43.000                                                  
  24389434.199                   128167514.852 0                        39.000  
                                                                
  20985984.776    20985980.166   110282597.489 0  85934136.121 0        46.000  
        48.000                                                  
  23480670.549    23480667.725   123392339.780 0  96149879.816 0        43.000  
        43.000                                                  
  20462879.671    20462875.615   107532794.778 0  83791789.991 0        50.000  
        49.000                                                  
 22  1 16 21 59 25.0000000  0  0
 22  1 16 21 59 26.0000000  0  6E07E12E18E19E24E26
  26892218.606                   141319693.187 0                        39.000  
                  26892218.034   108283924.102          44.000  
  23348903.909                   122699582.941 0                        43.000  
                  23348899.745    94016567.415          48.000  
  17989505.389                    94535492.88310                        51.000  
                  17989503.191    72436277.545          55.000  
  27587397.291                   144972087.858 0                        28.000  
                  27587393.967   111082760.301          36.000  
  25682277.416                   134960995.651 0                        46.000  
                  25682274.593   103411672.022          50.000  
  26533835.873                   139436760.406 0                        40.000  
                  26533833.157   106841385.672          46.000  
 22  1 16 21 59 27.0000000  0  9G08G10G15G16G18G21G23G26G27
  22572235.152    22572231.811   118617962.808 0  92429582.204 0        45.000  
        45.000                                                  
  20837645.368    20837641.240   109502793.081 0  85326855.122 0        52.000  
        48.000                                                  
  24067377.295    24067372.310   126474250.174 0  98551365.423 0        37.000  
        37.000                                                  
  21621373.853                   113621775.519 0                        47.000  
                                                                
  22778683.069    22778676.940   119702376.997 0  93274591.309 0        43.000  
        42.000                                                  
  24388937.029                   128164902.051 0                        39.000  
                                                                
  20986219.521    20986214.982   110283831.407 0  85935097.611 0        46.000  
        48.000                                                  
  23481328.021    23481325.216   123395794.899 0  96152572.121 0        43.000  
        43.000                                                  
  20462643.657    20462639.619   107531554.698 0  83790823.701 0        50.000  
        49.000                                                  
 22  1 16 21 59 26.0000000  0  0
 22  1 16 21 59 27.0000000  0  6E07E12E18E19E24E26
  26892266.477                   141319944.408 0                        39.000  
                  26892265.941   108284116.582          44.000  
  23348609.463                   122698035.876 0                        43.000  
                  23348605.389    94015382.006          48.000  
  17989977.899                    94537976.33910                        51.000  
                  17989975.862    72438180.457          55.000  
  27586825.232                   144969081.944 0                        28.000  
                  27586821.998   111080457.102          36.000  
  25682247.557                   134960838.371 0                        46.000  
                  25682244.626   103411551.508          50.000  
  26534237.658                   139438873.030 0                        40.000  
                  26534235.246   106843004.449          46.000  
 22  1 16 21 59 28.0000000  0  9G08G10G15G16G18G21G23G26G27
  22571695.919    22571692.452   118615128.888 0  92427373.953 0        45.000  
        45.000                                                  
  20837429.778    20837425.757   109501660.387 0  85325972.503 0        52.000  
        48.000                                                  
  24067605.733    24067600.908   126475451.264 0  98552301.312 0        37.000  
        37.000                                                  
  21621776.389                   113623890.860 0                        47.000  
                                                                
  22779206.685    22779200.538   119705128.568 0  93276735.395 0        43.000  
        42.000                                                  
  24388439.823                   128162289.312 0                        39.000  
                                                                
  20986454.338    20986449.889   110285065.842 0  85936059.515 0        46.000  
        48.000                                                  
  23481985.619    23481982.689   123399250.104 0  96155264.486 0        43.000  
        43.000                                                  
  20462407.786    20462403.694   107530315.011 0  83789857.711 0        50.000  
        49.000                                                  
 22  1 16 21 59 27.0000000  0  0
 22  1 16 21 59 28.0000000  0  6E07E12E18E19E24E26
  26892314.205                   141320196.014 0                        39.000  
                  26892313.794   108284309.371          44.000  
  23348315.053                   122696488.885 0                        43.000  
                  23348311.068    94014196.645          48.000  
  17990450.821                    94540461.20110                        51.000  
                  17990448.730    72440084.433          55.000  
  27586252.869                   144966076.030 0                        28.000  
                  27586249.832   111078153.819          36.000  
  25682217.769                   134960681.507 0                        45.000  
                  25682214.821   103411431.305          50.000  
  26534639.764                   139440985.648 0                        40.000  
                  26534637.102   106844623.200          46.000  
 22  1 16 21 59 29.0000000  0  9G08G10G15G16G18G21G23G26G27
  22571156.685    22571153.255   118612294.900 0  92425165.644 0        45.000  
        45.000                                                  
  20837214.260    20837210.185   109500527.986 0  85325090.113 0        52.000  
        48.000                                                  
  24067834.349    24067829.578   126476652.686 0  98553237.524 0        37.000  
        37.000                                                  
  21622179.085                   113626006.453 0                        47.000  
                                                                
  22779730.283    22779724.082   119707879.989 0  93278879.346 0        43.000  
        43.000                                                  
  24387942.600                   128159676.439 0                        39.000  
                                                                
  20986689.334    20986684.831   110286300.573 0  85937021.636 0        46.000  
        48.000                                                  
  23482643.146    23482640.144   123402705.144 0  96157956.725 0        43.000  
        43.000                                                  
  20462172.022    20462167.823   107529075.473 0  83788891.833 0        50.000  
        49.000                                                  
 22  1 16 21 59 28.0000000  0  0
 22  1 16 21 59 29.0000000  0  6E07E12E18E19E24E26
  26892362.040                   141320447.775 0                        39.000  
                  26892361.772   108284502.281          44.000  
  23348020.553                   122694941.723 0                        43.000  
                  23348016.640    94013011.160          48.000  
  17990923.921                    94542947.22710                        51.000  
                  17990921.759    72441989.315          55.000  
  27585680.810                   144963069.682 0                        28.000  
                  27585677.844   111075850.294          36.000  
  25682187.999                   134960524.837 0                        45.000  
                  25682184.944   103411311.261          50.000  
  26535041.871                   139443098.004 0                        40.000  
                  26535039.155   106846241.763          46.000  
 22  1 16 21 59 30.0000000  0  9G08G10G15G16G18G21G23G26G27
  22570617.488    22570614.039   118609461.256 0  92422957.618 0        45.000  
        45.000                                                  
  20836998.938    20836994.864   109499396.311 0  85324208.288 0        52.000  
        48.000                                                  
  24068063.180    24068058.373   126477854.912 0  98554174.291 0        37.000  
        37.000                                                  
  21622581.728                   113628122.733 0                        47.000  
                                                                
  22780253.881    22780247.698   119710631.660 0  93281023.500 0        42.000  
        42.000                                                  
  24387445.430                   128157063.829 0                        39.000  
                                                                
  20986924.454    20986919.862   110287536.016 0  85937984.327 0        46.000  
        48.000                                                  
  23483300.690    23483297.688   123406160.480 0  96160649.190 0        43.000  
        43.000                                                  
  20461936.223    20461932.077   107527836.528 0  83787926.424 0        50.000  
        49.000                                                  
 22  1 16 21 59 29.0000000  0  0
 22  1 16 21 59 30.0000000  0  6E07E12E18E19E24E26
  26892410.215                   141320700.184 0                        39.000  
                  26892409.858   108284695.681          44.000  
  23347726.269                   122693394.849 0                        43.000  
                  23347722.284    94011825.897          48.000  
  17991397.290                    94545434.86510                        51.000  
                  17991395.163    72443895.427          55.000  
  27585108.609                   144960063.504 0                        28.000  
                  27585105.696   111073546.873          36.000  
  25682158.230                   134960368.794 0                        45.000  
                  25682155.263   103411191.705          50.000  
  26535444.049                   139445210.570 0                        40.000  
                  26535441.083   106847860.466          46.000  
 22  1 16 21 59 31.0000000  0  9G08G10G15G16G18G21G23G26G27
  22570078.308    22570074.913   118606628.031 0  92420749.915 0        45.000  
        45.000                                                  
  20836783.813    20836779.721   109498265.430 0  85323327.084 0        52.000  
        48.000                                                  
  24068292.029    24068287.204   126479057.965 0  98555111.767 0        37.000  
        37.000                                                  
  21622984.585                   113630239.771 0                        47.000  
                                                                
  22780777.604    22780771.511   119713383.673 0  93283167.933 0        43.000  
        42.000                                                  
  24386948.314                   128154451.565 0                        39.000  
                                                                
  20987159.682    20987155.072   110288772.282 0  85938947.644 0        46.000  
        48.000                                                  
  23483958.288    23483955.357   123409616.163 0  96163341.928 0        43.000  
        43.000                                                  
  20461700.512    20461696.367   107526598.253 0  83786961.534 0        50.000  
        49.000                                                  
 22  1 16 21 59 30.0000000  0  0
 22  1 16 21 59 31.0000000  0  6E07E12E18E19E24E26
  26892458.426                   141320953.263 0                        39.000  
                  26892457.800   108284889.605          44.000  
  23347431.859                   122691848.331 0                        43.000  
                  23347427.963    94010640.900          48.000  
  17991871.051                    94547924.19310                        51.000  
                  17991868.925    72445802.832          55.000  
  27584536.728                   144957057.476 0                        28.000  
                  27584533.673   111071243.570          36.000  
  25682128.674                   134960213.480 0                        45.000  
                  25682125.744   103411072.689          50.000  
  26535846.013                   139447323.370 0                        41.000  
                  26535843.118   106849479.372          46.000  
 22  1 16 21 59 32.0000000  0  9G08G10G15G16G18G21G23G26G27
  22569539.128    22569535.822   118603794.906 0  92418542.270 0        45.000  
        45.000                                                  
  20836568.723    20836564.631   109497135.019 0  85322446.242 0        52.000  
        48.000                                                  
  24068521.020    24068516.213   126480261.547 0  98556049.609 0        37.000  
        37.000                                                  
  21623387.531                   113632357.228 0                        47.000  
                                                                
  22781301.202    22781295.216   119716135.693 0  93285312.352 0        43.000  
        42.000                                                  
  24386451.233                   128151839.322 0                        39.000  
                                                                
  20987394.946    20987390.443   110290009.002 0  85939911.322 0        46.000  
        48.000                                                  
  23484615.832    23484612.955   123413071.878 0  96166034.702 0        43.000  
        43.000                                                  
  20461464.838    20461460.817   107525360.318 0  83785996.905 0        50.000  
        49.000                                                  
 22  1 16 21 59 31.0000000  0  0
 22  1 16 21 59 32.0000000  0  6E07E12E18E19E24E26
  26892506.601                   141321206.720 0                        39.000  
                  26892505.940   108285083.811          44.000  
  23347137.556                   122690301.835 0                        43.000  
                  23347133.678    94009455.909          48.000  
  17992344.884                    94550414.87310                        51.000  
                  17992342.829    72447711.271          55.000  
  27583964.509                   144954051.345 0                        28.000  
                  27583961.667   111068940.146          36.000  
  25682098.922                   134960058.524 0                        45.000  
                  25682096.188   103410953.958          50.000  
  26536248.084                   139449436.099 0                        41.000  
                  26536245.260   106851098.207          46.000  
 22  1 16 21 59 33.0000000  0  9G08G10G15G16G18G21G23G26G27
  22569000.055    22568996.678   118600961.993 0  92416334.816 0        45.000  
        45.000                                                  
  20836353.759    20836349.685   109496005.212 0  85321565.878 0        52.000  
        48.000                                                  
  24068750.190    24068745.491   126481465.768 0  98556987.973 0        37.000  
        37.000                                                  
  21623790.478                   113634475.239 0                        47.000  
                                                                
  22781824.890    22781818.975   119718887.827 0  93287456.886 0        43.000  
        42.000                                                  
  24385954.171                   128149227.246 0                        39.000  
                                                                
  20987630.316    20987625.867   110291246.324 0  85940875.473 0        46.000  
        48.000                                                  
  23485273.412    23485270.714   123416527.737 0  96168727.584 0        43.000  
        43.000                                                  
  20461229.324    20461225.429   107524122.843 0  83785032.644 0        50.000  
        49.000                                                  
 22  1 16 21 59 32.0000000  0  0
 22  1 16 21 59 33.0000000  0  6E07E12E18E19E24E26
  26892554.919                   141321460.644 0                        39.000  
                  26892554.400   108285278.366          44.000  
  23346843.592                   122688755.469 0                        43.000  
                  23346839.483    94008271.043          48.000  
  17992819.431                    94552907.02410                        51.000  
                  17992817.019    72449620.845          55.000  
  27583392.503                   144951045.158 0                        27.000  
                  27583389.662   111066636.700          36.000  
  25682069.706                   134959904.075 0                        45.000  
                  25682066.794   103410835.617          50.000  
  26536650.119                   139451548.884 0                        41.000  
                  26536647.171   106852717.104          46.000  
 22  1 16 21 59 34.0000000  0  9G08G10G15G16G18G21G23G26G27
  22568461.090    22568457.605   118598129.399 0  92414127.596 0        45.000  
        45.000                                                  
  20836138.866    20836134.792   109494876.057 0  85320686.014 0        52.000  
        48.000                                                  
  24068979.504    24068974.804   126482670.705 0  98557926.892 0        37.000  
        37.000                                                  
  21624193.567                   113636593.881 0                        47.000  
                                                                
  22782348.595    22782342.716   119721640.181 0  93289601.580 0        43.000  
        42.000                                                  
  24385457.126                   128146615.393 0                        39.000  
                                                                
  20987865.902    20987861.470   110292484.324 0  85941840.144 0        46.000  
        48.000                                                  
  23485931.153    23485928.419   123419983.828 0  96171420.632 0        43.000  
        43.000                                                  
  20460993.882    20460990.004   107522885.894 0  83784068.792 0        50.000  
        49.000                                                  
 22  1 16 21 59 33.0000000  0  0
 22  1 16 21 59 34.0000000  0  6E07E12E18E19E24E26
  26892603.236                   141321715.113 0                        39.000  
                  26892602.879   108285473.370          44.000  
  23346549.218                   122687209.329 0                        43.000  
                  23346545.269    94007086.335          48.000  
  17993293.550                    94555400.73010                        51.000  
                  17993291.692    72451531.602          55.000  
  27582820.623                   144948039.041 0                        27.000  
                  27582817.532   111064333.301          36.000  
  25682040.205                   134959750.201 0                        45.000  
                  25682037.614   103410717.716          50.000  
  26537052.047                   139453661.805 0                        41.000  
                  26537049.259   106854336.097          46.000  
 22  1 16 21 59 35.0000000  0  9G08G10G15G16G18G21G23G26G27
  22567922.071    22567918.550   118595296.858 0  92411920.421 0        45.000  
        45.000                                                  
  20835924.205    20835920.006   109493747.345 0  85319806.494 0        52.000  
        48.000                                                  
  24069208.852    24069204.189   126483876.150 0  98558866.179 0        37.000  
        37.000                                                  
  21624596.835                   113638712.914 0                        47.000  
                                                                
  22782872.354    22782866.421   119724392.512 0  93291746.242 0        42.000  
        42.000                                                  
  24384960.171                   128144003.514 0                        39.000  
                                                                
  20988101.594    20988097.091   110293722.758 0  85942805.157 0        46.000  
        48.000                                                  
  23486588.930    23486586.106   123423439.910 0  96174113.687 0        43.000  
        43.000                                                  
  20460758.636    20460754.705   107521649.267 0  83783105.180 0        50.000  
        49.000                                                  
 22  1 16 21 59 34.0000000  0  0
 22  1 16 21 59 35.0000000  0  6E07E12E18E19E24E26
  26892651.840                   141321969.923 0                        39.000  
                  26892651.304   108285668.603          44.000  
  23346255.112                   122685663.171 0                        43.000  
                  23346250.931    94005901.617          48.000  
  17993768.723                    94557895.74810                        51.000  
                  17993766.418    72453443.369          55.000  
  27582248.243                   144945032.752 0                        27.000  
                  27582245.580   111062029.773          36.000  
  25682011.132                   134959596.674 0                        45.000  
                  25682008.326   103410600.067          50.000  
  26537454.332                   139455774.610 0                        41.000  
                  26537451.366   106855954.993          46.000  
 22  1 16 21 59 36.0000000  0  9G08G10G15G16G18G21G23G26G27
  22567383.034    22567379.549   118592464.693 0  92409713.539 0        45.000  
        45.000                                                  
  20835709.599    20835705.328   109492619.372 0  85318927.556 0        52.000  
        48.000                                                  
  24069438.326    24069433.841   126485082.382 0  98559806.120 0        37.000  
        37.000                                                  
  21625000.300                   113640832.666 0                        47.000  
                                                                
  22783396.113    22783390.198   119727145.130 0  93293891.144 0        42.000  
        42.000                                                  
  24384463.179                   128141391.923 0                        39.000  
                                                                
  20988337.394    20988332.873   110294961.932 0  85943770.749 0        46.000  
        48.000                                                  
  23487246.635    23487243.865   123426896.297 0  96176806.967 0        43.000  
        43.000                                                  
  20460523.462    20460519.495   107520413.234 0  83782142.034 0        50.000  
        49.000                                                  
 22  1 16 21 59 35.0000000  0  0
 22  1 16 21 59 36.0000000  0  6E07E12E18E19E24E26
  26892700.229                   141322225.346 0                        39.000  
                  26892699.979   108285864.323          44.000  
  23345960.934                   122684117.315 0                        43.000  
                  23345956.806    94004717.130          48.000  
  17994243.771                    94560392.39710                        51.000  
                  17994241.591    72455356.389          55.000  
  27581676.202                   144942026.532 0                        27.000  
                  27581673.468   111059726.304          36.000  
  25681981.916                   134959443.792 0                        45.000  
                  25681979.289   103410482.926          50.000  
  26537856.492                   139457887.610 0                        41.000  
                  26537853.473   106857574.047          46.000  
 22  1 16 21 59 37.0000000  0  9G08G10G15G16G18G21G23G26G27
  22566844.122    22566840.584   118589632.663 0  92407506.753 0        45.000  
        45.000                                                  
  20835495.081    20835490.703   109491491.928 0  85318049.026 0        52.000  
        48.000                                                  
  24069668.015    24069663.476   126486289.180 0  98560746.494 0        37.000  
        37.000                                                  
  21625403.765                   113642952.872 0                        47.000  
                                                                
  22783919.997    22783914.029   119729897.801 0  93296036.082 0        42.000  
        42.000                                                  
  24383966.260                   128138780.404 0                        39.000  
                                                                
  20988573.175    20988568.780   110296201.625 0  85944736.739 0        46.000  
        48.000                                                  
  23487904.447    23487901.678   123430352.742 0  96179500.313 0        43.000  
        43.000                                                  
  20460288.377    20460284.374   107519177.587 0  83781179.191 0        50.000  
        49.000                                                  
 22  1 16 21 59 36.0000000  0  0
 22  1 16 21 59 37.0000000  0  6E07E12E18E19E24E26
  26892749.101                   141322481.198 0                        39.000  
                  26892748.690   108286060.363          44.000  
  23345666.828                   122682571.518 0                        43.000  
                  23345662.539    94003532.693          48.000  
  17994719.105                    94562890.44610                        51.000  
                  17994716.818    72457270.473          55.000  
  27581104.125                   144939020.240 0                        27.000  
                  27581101.587   111057422.788          36.000  
  25681953.022                   134959291.327 0                        45.000  
                  25681950.341   103410366.111          50.000  
  26538258.402                   139460000.598 0                        41.000  
                  26538255.561   106859193.090          46.000  
 22  1 16 21 59 38.0000000  0  9G08G10G15G16G18G21G23G26G27
  22566305.299    22566301.708   118586800.952 0  92405300.243 0        45.000  
        45.000                                                  
  20835280.706    20835276.221   109490365.188 0  85317171.049 0        52.000  
        48.000                                                  
  24069897.775    24069893.218   126487496.776 0  98561687.459 0        37.000  
        37.000                                                  
  21625807.408                   113645073.777 0                        47.000  
                                                                
  22784443.881    22784437.859   119732650.728 0  93298181.217 0        42.000  
        42.000                                                  
  24383469.358                   128136169.168 0                        39.000  
                                                                
  20988809.243    20988804.776   110297442.057 0  85945703.312 0        46.000  
        48.000                                                  
  23488562.295    23488559.526   123433809.481 0  96182193.871 0        43.000  
        43.000                                                  
  20460053.256    20460049.307   107517942.548 0  83780216.825 0        50.000  
        49.000                                                  
 22  1 16 21 59 37.0000000  0  0
 22  1 16 21 59 38.0000000  0  6E07E12E18E19E24E26
  26892798.080                   141322737.675 0                        39.000  
                  26892797.401   108286256.868          44.000  
  23345372.579                   122681026.006 0                        43.000  
                  23345368.576    94002348.469          48.000  
  17995194.886                    94565390.11210                        51.000  
                  17995192.545    72459185.802          55.000  
  27580531.923                   144936014.074 0                        27.000  
                  27580529.457   111055119.364          36.000  
  25681924.110                   134959139.519 0                        45.000  
                  25681921.394   103410249.786          50.000  
  26538660.545                   139462113.770 0                        40.000  
                  26538657.739   106860812.278          46.000  
 22  1 16 21 59 39.0000000  0  9G08G10G15G16G18G21G23G26G27
  22565766.334    22565762.796   118583969.142 0  92403093.634 0        45.000  
        45.000                                                  
  20835066.296    20835061.954   109489238.717 0  85316293.275 0        52.000  
        48.000                                                  
  24070127.606    24070123.121   126488704.659 0  98562628.697 0        37.000  
        38.000                                                  
  21626211.087                   113647194.899 0                        47.000  
                                                                
  22784967.676    22784961.672   119735403.460 0  93300326.204 0        42.000  
        42.000                                                  
  24382972.420                   128133557.755 0                        39.000  
                                                                
  20989045.275    20989040.843   110298682.727 0  85946670.073 0        46.000  
        48.000                                                  
  23489220.072    23489217.213   123437266.030 0  96184887.283 0        43.000  
        43.000                                                  
  20459818.243    20459814.365   107516707.621 0  83779254.546 0        50.000  
        49.000                                                  
 22  1 16 21 59 38.0000000  0  0
 22  1 16 21 59 39.0000000  0  6E07E12E18E19E24E26
  26892846.755                   141322994.289 0                        39.000  
                  26892846.273   108286453.493          44.000  
  23345078.419                   122679480.302 0                        43.000  
                  23345074.452    94001164.095          48.000  
  17995670.809                    94567890.91010                        51.000  
                  17995668.504    72461101.996          55.000  
  27579959.703                   144933007.494 0                        27.000  
                  27579957.219   111052815.644          36.000  
  25681895.108                   134958987.861 0                        45.000  
                  25681892.624   103410133.578          50.000  
  26539062.562                   139464226.646 0                        40.000  
                  26539059.810   106862431.238          46.000  
 22  1 16 21 59 40.0000000  0  9G08G10G15G16G18G21G23G26G27
  22565227.458    22565223.973   118581137.522 0  92400887.163 0        45.000  
        45.000                                                  
  20834852.082    20834847.722   109488112.793 0  85315415.939 0        52.000  
        48.000                                                  
  24070357.652    24070353.095   126489913.159 0  98563570.348 0        37.000  
        38.000                                                  
  21626614.838                   113649316.508 0                        47.000  
                                                                
  22785491.560    22785485.484   119738156.269 0  93302471.255 0        42.000  
        42.000                                                  
  24382475.590                   128130946.425 0                        39.000  
                                                                
  20989281.557    20989276.947   110299923.961 0  85947637.270 0        46.000  
        48.000                                                  
  23489877.741    23489874.900   123440722.681 0  96187580.768 0        43.000  
        43.000                                                  
  20459583.319    20459579.477   107515473.116 0  83778292.599 0        50.000  
        49.000                                                  
 22  1 16 21 59 39.0000000  0  0
 22  1 16 21 59 40.0000000  0  6E07E12E18E19E24E26
  26892895.574                   141323251.318 0                        39.000  
                  26892895.127   108286650.443          44.000  
  23344784.563                   122677934.696 0                        43.000  
                  23344780.364    93999979.803          48.000  
  17996146.912                    94570393.13510                        51.000  
                  17996144.624    72463019.287          55.000  
  27579387.805                   144930000.896 0                        27.000  
                  27579385.035   111050511.891          36.000  
  25681866.286                   134958836.654 0                        45.000  
                  25681863.820   103410017.728          50.000  
  26539464.794                   139466339.549 0                        40.000  
                  26539461.863   106864050.208          46.000  
 22  1 16 21 59 41.0000000  0  9G08G10G15G16G18G21G23G26G27
  22564688.742    22564685.258   118578306.367 0  92398681.079 0        45.000  
        45.000                                                  
  20834637.993    20834633.580   109486987.731 0  85314539.260 0        52.000  
        48.000                                                  
  24070587.787    24070583.266   126491122.577 0  98564512.768 0        37.000  
        38.000                                                  
  21627018.660                   113651438.951 0                        47.000  
                                                                
  22786015.497    22786009.475   119740909.486 0  93304616.611 0        42.000  
        42.000                                                  
  24381978.742                   128128335.505 0                        38.000  
                                                                
  20989517.964    20989513.300   110301166.060 0  85948605.131 0        46.000  
        48.000                                                  
  23490535.536    23490532.802   123444179.755 0  96190274.603 0        43.000  
        43.000                                                  
  20459348.484    20459344.714   107514239.336 0  83777331.210 0        50.000  
        49.000                                                  
 22  1 16 21 59 40.0000000  0  0
 22  1 16 21 59 41.0000000  0  6E07E12E18E19E24E26
  26892944.660                   141323509.115 0                        39.000  
                  26892944.267   108286847.990          44.000  
  23344490.296                   122676389.510 0                        43.000  
                  23344486.275    93998795.822          48.000  
  17996623.532                    94572897.10610                        51.000  
                  17996621.138    72464937.912          55.000  
  27578816.121                   144926994.556 0                        27.000  
                  27578813.012   111048208.324          36.000  
  25681837.749                   134958686.238 0                        45.000  
                  25681835.158   103409902.457          50.000  
  26539866.757                   139468452.772 0                        40.000  
                  26539863.988   106865669.426          46.000  
 22  1 16 21 59 42.0000000  0  9G08G10G15G16G18G21G23G26G27
  22564150.099    22564146.543   118575475.346 0  92396475.077 0        45.000  
        45.000                                                  
  20834424.047    20834419.669   109485863.163 0  85313662.975 0        52.000  
        48.000                                                  
  24070818.047    24070813.562   126492332.518 0  98565455.597 0        37.000  
        38.000                                                  
  21627422.660                   113653561.845 0                        47.000  
                                                                
  22786539.435    22786533.359   119743662.726 0  93306761.991 0        42.000  
        42.000                                                  
  24381481.858                   128125724.641 0                        38.000  
                                                                
  20989754.443    20989749.779   110302408.646 0  85949573.380 0        46.000  
        48.000                                                  
  23491193.437    23491190.704   123447636.878 0  96192968.459 0        43.000  
        44.000                                                  
  20459113.739    20459109.897   107513005.917 0  83776370.097 0        50.000  
        49.000                                                  
 22  1 16 21 59 41.0000000  0  0
 22  1 16 21 59 42.0000000  0  6E07E12E18E19E24E26
  26892993.728                   141323767.287 0                        39.000  
                  26892993.353   108287045.799          44.000  
  23344196.297                   122674844.361 0                        43.000  
                  23344192.240    93997611.871          48.000  
  17997100.295                    94575402.44710                        51.000  
                  17997097.901    72466857.589          55.000  
  27578244.188                   144923988.050 0                        27.000  
                  27578240.935   111045904.632          36.000  
  25681809.123                   134958536.202 0                        45.000  
                  25681806.585   103409787.504          50.000  
  26540268.882                   139470565.924 0                        41.000  
                  26540266.130   106867288.599          46.000  
 22  1 16 21 59 43.0000000  0  9G08G10G15G16G18G21G23G26G27
  22563611.437    22563607.881   118572644.844 0  92394269.510 0        45.000  
        45.000                                                  
  20834210.191    20834205.867   109484739.495 0  85312787.392 0        52.000  
        48.000                                                  
  24071048.468    24071044.055   126493543.424 0  98566399.158 0        37.000  
        38.000                                                  
  21627826.679                   113655685.591 0                        47.000  
                                                                
  22787063.301    22787057.440   119746416.395 0  93308907.725 0        42.000  
        42.000                                                  
  24380985.135                   128123114.209 0                        38.000  
                                                                
  20989991.118    20989986.418   110303652.136 0  85950542.331 0        46.000  
        48.000                                                  
  23491851.446    23491848.695   123451094.445 0  96195662.665 0        43.000  
        44.000                                                  
  20458879.172    20458875.348   107511773.264 0  83775409.590 0        50.000  
        49.000                                                  
 22  1 16 21 59 42.0000000  0  0
 22  1 16 21 59 43.0000000  0  6E07E12E18E19E24E26
  26893043.100                   141324026.238 0                        39.000  
                  26893042.707   108287244.234          44.000  
  23343902.351                   122673299.659 0                        43.000  
                  23343898.313    93996428.277          48.000  
  17997577.363                    94577909.57510                        51.000  
                  17997575.022    72468778.635          55.000  
  27577672.468                   144920981.839 0                        27.000  
                  27577668.859   111043601.179          36.000  
  25681780.711                   134958386.985 0                        45.000  
                  25681778.191   103409673.169          50.000  
  26540671.042                   139472679.451 0                        40.000  
                  26540668.362   106868908.060          46.000  
 22  1 16 21 59 44.0000000  0  9G08G10G15G16G18G21G23G26G27
  22563072.686    22563069.183   118569814.228 0  92392063.824 0        45.000  
        45.000                                                  
  20833996.477    20833992.082   109483616.076 0  85311911.997 0        52.000  
        48.000                                                  
  24071278.979    24071274.511   126494754.620 0  98567342.959 0        37.000  
        38.000                                                  
  21628230.769                   113657809.553 0                        47.000  
                                                                
  22787587.239    22787581.378   119749169.876 0  93311053.286 0        42.000  
        42.000                                                  
  24380488.287                   128120503.621 0                        39.000  
                                                                
  20990227.865    20990223.094   110304895.882 0  85951511.483 0        46.000  
        48.000                                                  
  23492509.294    23492506.578   123454551.841 0  96198356.735 0        43.000  
        44.000                                                  
  20458644.695    20458640.817   107510540.749 0  83774449.186 0        50.000  
        49.000                                                  
 22  1 16 21 59 43.0000000  0  0
 22  1 16 21 59 44.0000000  0  6E07E12E18E19E24E26
  26893092.472                   141324285.364 0                        39.000  
                  26893091.847   108287442.774          44.000  
  23343608.388                   122671754.768 0                        43.000  
                  23343604.278    93995244.536          48.000  
  17998054.626                    94580417.83910                        51.000  
                  17998052.268    72470700.554          55.000  
  27577100.660                   144917975.277 0                        27.000  
                  27577096.836   111041297.461          36.000  
  25681752.442                   134958237.924 0                        45.000  
                  25681749.726   103409558.954          50.000  
  26541073.167                   139474792.703 0                        40.000  
                  26541070.468   106870527.300          46.000  
 22  1 16 21 59 45.0000000  0  9G08G10G15G16G18G21G23G26G27
  22562533.953    22562530.504   118566983.554 0  92389858.106 0        45.000  
        45.000                                                  
  20833782.764    20833778.440   109482492.972 0  85311036.851 0        52.000  
        48.000                                                  
  24071509.596    24071505.093   126495966.225 0  98568287.034 0        38.000  
        38.000                                                  
  21628635.020                   113659933.789 0                        47.000  
                                                                
  22788111.212    22788105.262   119751923.216 0  93313198.744 0        42.000  
        42.000                                                  
  24379991.474                   128117892.889 0                        39.000  
                                                                
  20990464.647    20990459.840   110306139.941 0  85952480.887 0        46.000  
        48.000                                                  
  23493167.160    23493164.480   123458009.103 0  96201050.710 0        43.000  
        44.000                                                  
  20458410.110    20458406.322   107509308.409 0  83773488.927 0        50.000  
        49.000                                                  
 22  1 16 21 59 44.0000000  0  0
 22  1 16 21 59 45.0000000  0  6E07E12E18E19E24E26
  26893141.684                   141324544.667 0                        39.000  
                  26893141.326   108287641.474          44.000  
  23343314.425                   122670209.743 0                        43.000  
                  23343310.243    93994060.686          48.000  
  17998532.176                    94582927.29710                        51.000  
                  17998529.817    72472623.390          55.000  
  27576528.404                   144914968.394 0                        27.000  
                  27576524.491   111038993.468          36.000  
  25681723.905                   134958089.089 0                        45.000  
                  25681721.546   103409444.913          50.000  
  26541475.434                   139476905.714 0                        40.000  
                  26541472.575   106872146.363          46.000  
 22  1 16 21 59 46.0000000  0  9G08G10G15G16G18G21G23G26G27
  22561995.380    22561991.932   118564153.478 0  92387652.847 0        44.000  
        45.000                                                  
  20833569.301    20833564.851   109481370.854 0  85310162.479 0        52.000  
        48.000                                                  
  24071740.393    24071735.890   126497178.853 0  98569231.935 0        38.000  
        38.000                                                  
  21629039.414                   113662058.957 0                        47.000  
                                                                
  22788635.221    22788629.378   119754677.055 0  93315344.608 0        42.000  
        42.000                                                  
  24379494.823                   128115282.680 0                        39.000  
                                                                
  20990701.662    20990696.694   110307384.989 0  85953451.047 0        46.000  
        48.000                                                  
  23493825.169    23493822.453   123461466.893 0  96203745.091 0        43.000  
        44.000                                                  
  20458175.776    20458171.952   107508076.915 0  83772529.323 0        50.000  
        49.000                                                  
 22  1 16 21 59 45.0000000  0  0
 22  1 16 21 59 46.0000000  0  6E07E12E18E19E24E26
  26893191.092                   141324804.876 0                        39.000  
                  26893190.806   108287840.828          44.000  
  23343020.390                   122668665.261 0                        43.000  
                  23343016.423    93992877.240          48.000  
  17999010.172                    94585438.63910                        51.000  
                  17999007.760    72474547.649          55.000  
  27575956.274                   144911961.879 0                        27.000  
                  27575952.414   111036689.785          36.000  
