     2.11           OBSERVATION DATA    M (Mixed)           RINEX VERSION / TYPE
RTCM3TORINEX on                         2022-01-01 03:59    PGM / RUN BY / DATE
RTCM3TORINEX                                                MARKER NAME
                                                            OBSERVER / AGENCY
                                                            REC # / TYPE / VERS
                                                            ANT # / TYPE
         .0000         .0000         .0000                  APPROX POSITION XYZ
         .0000         .0000         .0000                  ANTENNA: DELTA H/E/N
     1     1                                                WAVELENGTH FACT L1/2
     9    C1    C2    L1    L2    S1    S2    C7    L7    S7# / TYPES OF OBSERV
  2022     1     1     3    59   20.0000000     GPS         TIME OF FIRST OBS
                                                            END OF HEADER
 22  1  1  3 59 20.0000000  0  6E04E07E11E12E19E26
  28664997.369                   150634848.31710                        38.000  
                  28664995.422   115421506.446          40.000  
  27344755.776                   143697380.065 0                        39.000  
                  27344755.954   110106159.889          45.000  
  27165553.313                   142755646.730 0                        33.000  
                  27165551.079   109383955.442          38.000  
  22798678.434                   119808194.475 0                        45.000  
                  22798674.646    91800915.274          50.000  
  23739119.555                   124749813.161 0                        45.000  
                  23739117.768    95587522.539          49.000  
  27140011.796                   142621882.642 0                        27.000  
                  27140012.814   109282114.603          41.000  
 22  1  1  3 59 21.0000000  0  9G01G03G04G09G17G19G21G31G32
  20159818.290    20159815.770   105940806.087 0  82550978.355 0        49.000  
        49.000                                                  
  20515512.610    20515509.483   107810344.033 0  84007051.214 0        50.000  
        49.000                                                  
  22112711.105    22112707.192   116202823.747 0  90547656.142 0        46.000  
        46.000                                                  
  25222152.415    25222148.913   132542628.419 0 103279970.361 0        39.000  
        37.000                                                  
  22590521.203    22590515.109   118713458.912 0  92504958.527 0        46.000  
        43.000                                                  
  23262154.823                   122244036.60310                        42.000  
                                                                
  21758330.747                   114341553.707 0                        48.000  
                                                                
  22619944.175    22619938.779   118868741.486 0  92624996.464 0        44.000  
        41.000                                                  
  24584884.929    24584883.052   129194200.266 0 100670720.165 0        40.000  
        37.000                                                  
 22  1  1  3 59 20.0000000  0  0
 22  1  1  3 59 21.0000000  0  6E04E07E11E12E19E26
  28664453.722                   150631990.55210                        38.000  
                  28664451.560   115419316.719          40.000  
  27345267.330                   143700067.069 0                        39.000  
                  27345267.277   110108218.747          45.000  
  27164993.405                   142752702.516 0                        33.000  
                  27164990.814   109381699.522          38.000  
  22798387.294                   119806665.959 0                        45.000  
                  22798383.667    91799744.074          50.000  
  23738841.799                   124748353.184 0                        45.000  
                  23738840.048    95586403.849          49.000  
  27140569.667                   142624813.690 0                        27.000  
                  27140570.578   109284360.488          41.000  
 22  1  1  3 59 22.0000000  0  9G01G03G04G09G17G19G21G31G32
  20160031.610    20160029.144   105941927.164 0  82551851.913 0        49.000  
        49.000                                                  
  20515335.564    20515332.455   107809413.419 0  84006326.056 0        50.000  
        49.000                                                  
  22112150.661    22112146.640   116199878.544 0  90545361.162 0        46.000  
        46.000                                                  
  25221448.090    25221444.552   132538927.002 0 103277086.138 0        38.000  
        37.000                                                  
  22590417.062    22590410.933   118712911.711 0  92504532.112 0        46.000  
        43.000                                                  
  23261770.157                   122242015.69610                        42.000  
                                                                
  21758708.409                   114343538.617 0                        48.000  
                                                                
  22619827.276    22619821.879   118868127.097 0  92624517.708 0        44.000  
        41.000                                                  
  24585526.766    24585524.711   129197572.226 0 100673347.676 0        40.000  
        37.000                                                  
 22  1  1  3 59 21.0000000  0  0
 22  1  1  3 59 22.0000000  0  6E04E07E11E12E19E26
  28663909.861                   150629132.52810                        38.000  
                  28663907.752   115417126.813          40.000  
  27345778.527                   143702753.829 0                        39.000  
                  27345778.456   110110277.438          45.000  
  27164433.264                   142749758.119 0                        33.000  
                  27164430.459   109379443.376          38.000  
  22798096.636                   119805137.478 0                        45.000  
                  22798092.866    91798572.898          50.000  
  23738563.918                   124746893.241 0                        45.000  
                  23738562.167    95585285.191          49.000  
  27141127.770                   142627744.576 0                        28.000  
                  27141128.360   109286606.252          41.000  
 22  1  1  3 59 23.0000000  0  9G01G03G04G09G17G19G21G31G32
  20160245.074    20160242.590   105943049.035 0  82552726.103 0        49.000  
        49.000                                                  
  20515158.679    20515155.426   107808483.381 0  84005601.344 0        50.000  
        49.000                                                  
  22111590.306    22111586.286   116196933.910 0  90543066.665 0        46.000  
        46.000                                                  
  25220743.783    25220740.316   132535225.897 0 103274202.153 0        38.000  
        37.000                                                  
  22590313.207    22590307.042   118712365.346 0  92504106.393 0        46.000  
        43.000                                                  
  23261385.830                   122239995.59510                        43.000  
                                                                
  21759086.214                   114345524.133 0                        48.000  
                                                                
  22619710.484    22619705.070   118867513.592 0  92624039.664 0        44.000  
        41.000                                                  
  24586168.425    24586166.477   129200944.535 0 100675975.444 0        40.000  
        37.000                                                  
 22  1  1  3 59 22.0000000  0  0
 22  1  1  3 59 23.0000000  0  6E04E07E11E12E19E26
  28663365.928                   150626274.81910                        37.000  
                  28663364.123   115414937.151          40.000  
  27346289.956                   143705440.877 0                        39.000  
                  27346289.849   110112336.351          45.000  
  27163873.035                   142746813.902 0                        33.000  
                  27163870.283   109377187.422          38.000  
  22797805.872                   119803609.529 0                        45.000  
                  22797802.137    91797402.140          50.000  
  23738286.216                   124745433.851 0                        45.000  
                  23738284.536    95584166.957          49.000  
  27141685.158                   142630675.852 0                        27.000  
                  27141686.105   109288852.306          41.000  
 22  1  1  3 59 24.0000000  0  9G01G03G04G09G17G19G21G31G32
  20160458.644    20160456.178   105944171.304 0  82553600.595 0        49.000  
        49.000                                                  
  20514981.668    20514978.452   107807553.513 0  84004876.781 0        50.000  
        49.000                                                  
  22111030.130    22111025.985   116193989.491 0  90540772.303 0        46.000  
        46.000                                                  
  25220039.386    25220036.044   132531524.689 0 103271318.113 0        38.000  
        37.000                                                  
  22590209.299    22590203.170   118711819.427 0  92503680.995 0        46.000  
        43.000                                                  
  23261001.467                   122237975.95510                        42.000  
                                                                
  21759464.126                   114347509.859 0                        48.000  
                                                                
  22619593.817    22619588.474   118866900.592 0  92623562.003 0        44.000  
        41.000                                                  
  24586810.209    24586808.100   129204316.750 0 100678603.147 0        40.000  
        37.000                                                  
 22  1  1  3 59 23.0000000  0  0
 22  1  1  3 59 24.0000000  0  6E04E07E11E12E19E26
  28662822.102                   150623417.03610                        37.000  
                  28662820.261   115412747.405          40.000  
  27346801.296                   143708127.816 0                        39.000  
                  27346801.118   110114395.171          45.000  
  27163312.609                   142743869.541 0                        34.000  
                  27163310.089   109374931.354          38.000  
  22797515.053                   119802081.746 0                        45.000  
                  22797511.372    91796231.506          50.000  
  23738008.638                   124743974.629 0                        45.000  
                  23738006.887    95583048.850          49.000  
  27142242.886                   142633607.178 0                        27.000  
                  27142243.869   109291098.342          41.000  
 22  1  1  3 59 25.0000000  0  9G01G03G04G09G17G19G21G31G32
  20160672.322    20160669.874   105945294.458 0  82554475.781 0        49.000  
        49.000                                                  
  20514804.836    20514801.584   107806624.291 0  84004152.714 0        50.000  
        49.000                                                  
  22110469.936    22110465.880   116191045.743 0  90538478.467 0        46.000  
        46.000                                                  
  25219335.257    25219331.790   132527823.865 0 103268434.343 0        38.000  
        37.000                                                  
  22590105.623    22590099.529   118711274.426 0  92503256.322 0        46.000  
        43.000                                                  
  23260617.301                   122235957.19510                        42.000  
                                                                
  21759842.199                   114349496.258 0                        48.000  
                                                                
  22619477.400    22619471.950   118866288.574 0  92623085.102 0        44.000  
        41.000                                                  
  24587451.992    24587449.848   129207689.403 0 100681231.186 0        40.000  
        37.000                                                  
 22  1  1  3 59 24.0000000  0  0
 22  1  1  3 59 25.0000000  0  6E04E07E11E12E19E26
  28662278.204                   150620559.62510                        37.000  
                  28662276.346   115410557.959          40.000  
  27347312.601                   143710815.128 0                        39.000  
                  27347312.458   110116454.275          45.000  
  27162752.397                   142740925.485 0                        34.000  
                  27162749.949   109372675.507          38.000  
  22797224.414                   119800554.609 0                        45.000  
                  22797220.733    91795061.351          50.000  
  23737731.061                   124742516.035 0                        45.000  
                  23737729.256    95581931.226          49.000  
  27142801.311                   142636538.848 0                        28.000  
                  27142801.758   109293344.711          41.000  
 22  1  1  3 59 26.0000000  0  9G01G03G04G09G17G19G21G31G32
  20160886.250    20160883.820   105946418.313 0  82555351.512 0        49.000  
        50.000                                                  
  20514628.076    20514624.788   107805695.570 0  84003429.033 0        50.000  
        49.000                                                  
  22109909.885    22109905.865   116188102.485 0  90536185.017 0        46.000  
        46.000                                                  
  25218631.092    25218627.572   132524123.253 0 103265550.751 0        38.000  
        37.000                                                  
  22590002.018    22589995.961   118710730.180 0  92502832.236 0        46.000  
        43.000                                                  
  23260233.206                   122233939.23710                        42.000  
                                                                
  21760220.361                   114351483.179 0                        48.000  
                                                                
  22619361.198    22619355.641   118865677.367 0  92622608.830 0        44.000  
        41.000                                                  
  24588093.848    24588091.757   129211062.305 0 100683859.435 0        40.000  
        37.000                                                  
 22  1  1  3 59 25.0000000  0  0
 22  1  1  3 59 26.0000000  0  6E04E07E11E12E19E26
  28661734.557                   150617702.42610                        37.000  
                  28661732.806   115408368.681          40.000  
  27347824.030                   143713502.640 0                        39.000  
                  27347823.833   110118513.542          45.000  
  27162192.328                   142737981.568 0                        34.000  
                  27162189.612   109370419.801          38.000  
  22796933.971                   119799027.924 0                        45.000  
                  22796930.272    91793891.556          50.000  
  23737453.591                   124741057.929 0                        45.000  
                  23737451.714    95580813.975          49.000  
  27143359.361                   142639470.834 0                        28.000  
                  27143359.647   109295591.314          41.000  
 22  1  1  3 59 27.0000000  0  9G01G03G04G09G17G19G21G31G32
  20161100.196    20161097.783   105947542.512 0  82556227.516 0        49.000  
        50.000                                                  
  20514451.333    20514448.135   107804766.955 0  84002705.432 0        50.000  
        49.000                                                  
  22109349.888    22109345.814   116185159.368 0  90533891.686 0        46.000  
        46.000                                                  
  25217926.856    25217923.354   132520422.515 0 103262667.050 0        38.000  
        37.000                                                  
  22589898.414    22589892.553   118710186.336 0  92502408.450 0        46.000  
        43.000                                                  
  23259849.308                   122231921.61310                        42.000  
                                                                
  21760598.469                   114353470.240 0                        48.000  
                                                                
  22619244.978    22619239.367   118865066.603 0  92622132.914 0        44.000  
        41.000                                                  
  24588735.649    24588733.648   129214435.072 0 100686487.549 0        40.000  
        37.000                                                  
 22  1  1  3 59 26.0000000  0  0
 22  1  1  3 59 27.0000000  0  6E04E07E11E12E19E26
  28661190.767                   150614845.05110                        37.000  
                  28661188.998   115406179.282          40.000  
  27348335.370                   143716189.976 0                        39.000  
                  27348335.245   110120572.665          45.000  
  27161631.938                   142735037.433 0                        34.000  
                  27161629.204   109368163.927          38.000  
  22796643.599                   119797501.336 0                        45.000  
                  22796639.721    91792721.835          50.000  
  23737176.353                   124739599.913 0                        45.000  
                  23737174.280    95579696.797          49.000  
  27143917.518                   142642402.741 0                        28.000  
                  27143917.696   109297837.836          41.000  
 22  1  1  3 59 28.0000000  0  9G01G03G04G09G17G19G21G31G32
  20161314.177    20161311.765   105948666.852 0  82557103.620 0        50.000  
        49.000                                                  
  20514274.502    20514271.410   107803838.270 0  84001981.777 0        50.000  
        49.000                                                  
  22108789.784    22108785.674   116182216.178 0  90531598.303 0        46.000  
        46.000                                                  
  25217222.513    25217219.136   132516721.412 0 103259783.065 0        38.000  
        37.000                                                  
  22589794.898    22589789.091   118709642.653 0  92501984.808 0        46.000  
        43.000                                                  
  23259465.303                   122229904.22010                        42.000  
                                                                
  21760976.596                   114355457.255 0                        48.000  
                                                                
  22619128.651    22619123.165   118864456.076 0  92621657.190 0        44.000  
        41.000                                                  
  24589377.398    24589375.325   129217807.540 0 100689115.441 0        40.000  
        37.000                                                  
 22  1  1  3 59 27.0000000  0  0
 22  1  1  3 59 28.0000000  0  6E04E07E11E12E19E26
  28660646.959                   150611987.35910                        37.000  
                  28660645.154   115403989.613          40.000  
  27348846.692                   143718876.953 0                        39.000  
                  27348846.478   110122631.522          45.000  
  27161071.565                   142732092.940 0                        34.000  
                  27161068.992   109365907.733          38.000  
  22796352.977                   119795974.657 0                        45.000  
                  22796349.153    91791552.037          50.000  
  23736898.990                   124738141.803 0                        45.000  
                  23736896.774    95578579.550          49.000  
  27144475.674                   142645334.423 0                        27.000  
                  27144475.621   109300084.162          41.000  
 22  1  1  3 59 29.0000000  0  9G01G03G04G09G17G19G21G31G32
  20161528.391    20161525.854   105949792.063 0  82557980.411 0        50.000  
        49.000                                                  
  20514097.920    20514094.936   107802910.203 0  84001258.610 0        50.000  
        49.000                                                  
  22108229.965    22108225.641   116179273.669 0  90529305.422 0        46.000  
        46.000                                                  
  25216518.313    25216514.989   132513020.662 0 103256899.368 0        38.000  
        37.000                                                  
  22589691.669    22589685.736   118709099.883 0  92501561.872 0        46.000  
        43.000                                                  
  23259081.494                   122227887.67610                        42.000  
                                                                
  21761354.865                   114357444.930 0                        48.000  
                                                                
  22619012.663    22619007.070   118863846.515 0  92621182.187 0        44.000  
        41.000                                                  
  24590019.217    24590017.091   129221180.374 0 100691743.617 0        40.000  
        37.000                                                  
 22  1  1  3 59 28.0000000  0  0
 22  1  1  3 59 29.0000000  0  6E04E07E11E12E19E26
  28660103.401                   150609130.02810                        37.000  
                  28660101.454   115401800.204          40.000  
  27349358.014                   143721564.277 0                        39.000  
                  27349357.835   110124690.647          45.000  
  27160511.747                   142729148.716 0                        35.000  
                  27160508.780   109363651.765          39.000  
  22796062.516                   119794448.589 0                        45.000  
                  22796058.782    91790382.709          50.000  
  23736621.484                   124736684.324 0                        45.000  
                  23736619.554    95577462.776          49.000  
  27145033.849                   142648266.476 0                        27.000  
                  27145033.581   109302330.826          41.000  
 22  1  1  3 59 30.0000000  0  9G01G03G04G09G17G19G21G31G32
  20161742.694    20161740.139   105950918.023 0  82558857.779 0        50.000  
        50.000                                                  
  20513921.445    20513918.497   107801982.677 0  84000535.860 0        50.000  
        49.000                                                  
  22107670.111    22107665.876   116176331.702 0  90527012.985 0        46.000  
        46.000                                                  
  25215814.202    25215810.860   132509320.173 0 103254015.884 0        38.000  
        37.000                                                  
  22589588.636    22589582.543   118708557.922 0  92501139.570 0        46.000  
        43.000                                                  
  23258697.900                   122225871.94510                        42.000  
                                                                
  21761733.206                   114359433.172 0                        48.000  
                                                                
  22618896.800    22618891.225   118863237.813 0  92620707.899 0        44.000  
        41.000                                                  
  24590661.055    24590658.982   129224553.520 0 100694372.042 0        40.000  
        37.000                                                  
 22  1  1  3 59 29.0000000  0  0
 22  1  1  3 59 30.0000000  0  6E04E07E11E12E19E26
  28659559.701                   150606272.94010                        37.000  
                  28659557.735   115399611.021          40.000  
  27349869.551                   143724251.856 0                        39.000  
                  27349869.354   110126749.946          45.000  
  27159951.231                   142726204.690 0                        35.000  
                  27159948.640   109361395.946          39.000  
  22795772.252                   119792923.025 0                        45.000  
                  22795768.589    91789213.778          50.000  
  23736344.210                   124735227.356 0                        45.000  
                  23736342.209    95576346.400          49.000  
  27145591.827                   142651198.965 0                        27.000  
                  27145591.631   109304577.732          41.000  
 22  1  1  3 59 31.0000000  0  9G01G03G04G09G17G19G21G31G32
  20161957.158    20161954.603   105952044.602 0  82559735.628 0        50.000  
        49.000                                                  
  20513744.935    20513742.094   107801055.535 0  83999813.417 0        50.000  
        49.000                                                  
  22107110.381    22107106.057   116173390.153 0  90524720.859 0        46.000  
        46.000                                                  
  25215110.073    25215106.785   132505619.798 0 103251132.473 0        38.000  
        37.000                                                  
  22589485.693    22589479.582   118708016.613 0  92500717.759 0        46.000  
        43.000                                                  
  23258314.377                   122223856.88010                        43.000  
                                                                
  21762111.636                   114361421.836 0                        47.000  
                                                                
  22618781.170    22618775.505   118862629.837 0  92620234.135 0        45.000  
        41.000                                                  
  24591303.017    24591300.891   129227926.818 0 100697000.613 0        40.000  
        37.000                                                  
 22  1  1  3 59 30.0000000  0  0
 22  1  1  3 59 31.0000000  0  6E04E07E11E12E19E26
  28659015.857                   150603415.97910                        37.000  
                  28659014.142   115397421.923          40.000  
  27350381.230                   143726939.541 0                        39.000  
                  27350380.855   110128809.340          45.000  
  27159391.395                   142723260.716 0                        35.000  
                  27159388.393   109359140.180          39.000  
  22795481.952                   119791397.845 0                        45.000  
                  22795478.199    91788045.136          50.000  
  23736067.026                   124733770.772 0                        45.000  
                  23736065.132    95575230.314          49.000  
  27146149.912                   142654131.523 0                        26.000  
                  27146149.680   109306824.802          41.000  
 22  1  1  3 59 32.0000000  0  9G01G03G04G09G17G19G21G31G32
  20162171.569    20162168.978   105953171.260 0  82560613.546 0        50.000  
        49.000                                                  
  20513568.443    20513565.637   107800128.255 0  83999090.863 0        50.000  
        49.000                                                  
  22106550.616    22106546.310   116170448.468 0  90522428.656 0        46.000  
        46.000                                                  
  25214405.801    25214402.531   132501919.036 0 103248248.773 0        38.000  
        37.000                                                  
  22589382.821    22589376.549   118707475.434 0  92500296.056 0        46.000  
        43.000                                                  
  23257930.926                   122221841.91710                        43.000  
                                                                
  21762490.066                   114363410.397 0                        47.000  
                                                                
  22618665.557    22618659.803   118862022.033 0  92619760.520 0        45.000  
        41.000                                                  
  24591944.980    24591942.782   129231299.726 0 100699628.842 0        40.000  
        37.000                                                  
 22  1  1  3 59 31.0000000  0  0
 22  1  1  3 59 32.0000000  0  6E04E07E11E12E19E26
  28658471.977                   150600558.62410                        37.000  
                  28658470.226   115395232.508          40.000  
  27350892.713                   143729626.792 0                        39.000  
                  27350892.195   110130868.416          45.000  
  27158831.522                   142720316.273 0                        35.000  
                  27158828.163   109356884.044          39.000  
  22795191.651                   119789872.504 0                        45.000  
                  22795188.024    91786876.366          50.000  
  23735789.931                   124732314.026 0                        45.000  
                  23735787.876    95574114.111          49.000  
  27146707.658                   142657063.762 0                        26.000  
                  27146707.748   109309071.596          41.000  
 22  1  1  3 59 33.0000000  0  9G01G03G04G09G17G19G21G31G32
  20162386.122    20162383.495   105954298.704 0  82561492.074 0        50.000  
        49.000                                                  
  20513392.022    20513389.252   107799201.515 0  83998368.730 0        50.000  
        49.000                                                  
  22105990.923    22105986.509   116167507.355 0  90520136.875 0        46.000  
        46.000                                                  
  25213701.708    25213698.348   132498218.553 0 103245365.257 0        38.000  
        37.000                                                  
  22589279.967    22589273.677   118706935.075 0  92499875.007 0        46.000  
        43.000                                                  
  23257547.617                   122219827.79710                        42.000  
                                                                
  21762868.532                   114365399.522 0                        47.000  
                                                                
  22618550.105    22618544.387   118861415.113 0  92619287.602 0        45.000  
        41.000                                                  
  24592586.746    24592584.655   129234672.944 0 100702257.319 0        40.000  
        37.000                                                  
 22  1  1  3 59 32.0000000  0  0
 22  1  1  3 59 33.0000000  0  6E04E07E11E12E19E26
  28657928.348                   150597701.51610                        37.000  
                  28657926.758   115393043.302          40.000  
  27351403.856                   143732314.309 0                        39.000  
                  27351403.624   110132927.674          45.000  
  27158271.346                   142717372.053 0                        35.000  
                  27158267.844   109354628.088          39.000  
  22794901.691                   119788347.691 0                        45.000  
                  22794897.938    91785708.007          50.000  
  23735512.961                   124730857.833 0                        45.000  
                  23735510.763    95572998.322          49.000  
  27147265.994                   142659996.423 0                        26.000  
                  27147265.851   109311318.657          41.000  
 22  1  1  3 59 34.0000000  0  9G01G03G04G09G17G19G21G31G32
  20162600.872    20162598.281   105955427.073 0  82562371.320 0        50.000  
        49.000                                                  
  20513215.869    20513213.117   107798275.497 0  83997647.158 0        50.000  
        49.000                                                  
  22105431.354    22105427.119   116164566.997 0  90517845.682 0        46.000  
        46.000                                                  
  25212997.650    25212994.327   132494518.504 0 103242482.125 0        38.000  
        37.000                                                  
  22589177.452    22589170.966   118706395.686 0  92499454.706 0        46.000  
        43.000                                                  
  23257164.559                   122217814.60410                        42.000  
                                                                
  21763247.177                   114367389.397 0                        48.000  
                                                                
  22618434.779    22618428.989   118860809.229 0  92618815.489 0        45.000  
        41.000                                                  
  24593228.744    24593226.689   129238046.650 0 100704886.195 0        40.000  
        37.000                                                  
 22  1  1  3 59 33.0000000  0  0
 22  1  1  3 59 34.0000000  0  6E04E07E11E12E19E26
  28657384.755                   150594844.87810                        37.000  
                  28657383.057   115390854.440          41.000  
  27351915.447                   143735002.267 0                        39.000  
                  27351915.143   110134987.273          45.000  
  27157711.403                   142714428.223 0                        36.000  
                  27157707.722   109352372.404          39.000  
  22794611.587                   119786823.574 0                        45.000  
                  22794607.853    91784540.173          50.000  
  23735235.902                   124729402.329 0                        45.000  
                  23735233.775    95571883.066          49.000  
  27147824.276                   142662929.537 0                        26.000  
                  27147823.936   109313566.124          41.000  
 22  1  1  3 59 35.0000000  0  9G01G03G04G09G17G19G21G31G32
  20162815.533    20162813.031   105956555.542 0  82563250.642 0        50.000  
        49.000                                                  
  20513039.663    20513036.786   107797349.356 0  83996925.483 0        50.000  
        49.000                                                  
  22104871.732    22104867.479   116161626.509 0  90515554.389 0        46.000  
        46.000                                                  
  25212293.450    25212290.234   132490818.062 0 103239598.652 0        38.000  
        37.000                                                  
  22589074.866    22589068.272   118705856.443 0  92499034.512 0        46.000  
        43.000                                                  
  23256781.429                   122215801.57210                        42.000  
                                                                
  21763625.804                   114369379.168 0                        47.000  
                                                                
  22618319.541    22618313.770   118860203.538 0  92618343.524 0        45.000  
        41.000                                                  
  24593870.581    24593868.580   129241419.972 0 100707514.753 0        40.000  
        37.000                                                  
 22  1  1  3 59 34.0000000  0  0
 22  1  1  3 59 35.0000000  0  6E04E07E11E12E19E26
  28656841.143                   150591987.80210                        37.000  
                  28656839.410   115388665.259          41.000  
  27352426.894                   143737689.790 0                        39.000  
                  27352426.554   110137046.555          45.000  
  27157151.244                   142711483.927 0                        35.000  
                  27157147.438   109350116.393          39.000  
  22794321.555                   119785299.313 0                        45.000  
                  22794317.731    91783372.221          50.000  
  23734958.878                   124727946.672 0                        45.000  
                  23734956.788    95570767.701          49.000  
  27148382.629                   142665862.333 0                        26.000  
                  27148381.950   109315813.331          41.000  
 22  1  1  3 59 36.0000000  0  9G01G03G04G09G17G19G21G31G32
  20163030.461    20163027.888   105957684.764 0  82564130.560 0        50.000  
        49.000                                                  
  20512863.617    20512860.669   107796423.731 0  83996204.219 0        50.000  
        49.000                                                  
  22104312.325    22104308.090   116158686.565 0  90513263.534 0        46.000  
        46.000                                                  
  25211589.303    25211586.158   132487117.884 0 103236715.392 0        38.000  
        38.000                                                  
  22588972.423    22588965.829   118705318.004 0  92498614.942 0        46.000  
        43.000                                                  
  23256398.478                   122213789.35410                        43.000  
                                                                
  21764004.573                   114371369.498 0                        47.000  
                                                                
  22618204.447    22618198.657   118859598.710 0  92617872.228 0        45.000  
        41.000                                                  
  24594512.651    24594510.489   129244793.590 0 100710143.528 0        40.000  
        37.000                                                  
 22  1  1  3 59 35.0000000  0  0
 22  1  1  3 59 36.0000000  0  6E04E07E11E12E19E26
  28656297.496                   150589131.01410                        38.000  
                  28656295.781   115386476.295          41.000  
  27352938.484                   143740377.569 0                        39.000  
                  27352938.001   110139106.022          45.000  
  27156590.979                   142708539.812 0                        36.000  
                  27156587.262   109347860.529          39.000  
  22794031.666                   119783775.542 0                        45.000  
                  22794027.753    91782204.672          50.000  
  23734681.891                   124726491.547 0                        45.000  
                  23734679.818    95569652.728          49.000  
  27148940.518                   142668795.502 0                        26.000  
                  27148940.089   109318060.788          41.000  
 22  1  1  3 59 37.0000000  0  9G01G03G04G09G17G19G21G31G32
  20163245.515    20163242.906   105958814.550 0  82565010.911 0        50.000  
        49.000                                                  
  20512687.446    20512684.498   107795498.441 0  83995483.213 0        49.000  
        49.000                                                  
  22103752.917    22103748.789   116155746.993 0  90510972.954 0        46.000  
        46.000                                                  
  25210885.192    25210882.137   132483417.761 0 103233832.186 0        38.000  
        38.000                                                  
  22588869.998    22588863.529   118704780.157 0  92498195.839 0        46.000  
        43.000                                                  
  23256015.688                   122211777.71610                        43.000  
                                                                
  21764383.271                   114373360.208 0                        47.000  
                                                                
  22618089.442    22618083.652   118858994.536 0  92617401.438 0        45.000  
        41.000                                                  
  24595154.774    24595152.433   129248167.305 0 100712772.394 0        40.000  
        37.000                                                  
 22  1  1  3 59 36.0000000  0  0
 22  1  1  3 59 37.0000000  0  6E04E07E11E12E19E26
  28655753.992                   150586274.27810                        38.000  
                  28655752.116   115384287.366          41.000  
  27353449.824                   143743065.400 0                        39.000  
                  27353449.627   110141165.516          45.000  
  27156030.803                   142705595.704 0                        36.000  
                  27156026.890   109345604.633          40.000  
  22793741.795                   119782252.111 0                        45.000  
                  22793737.846    91781037.352          50.000  
  23734405.082                   124725036.735 0                        45.000  
                  23734402.991    95568538.003          49.000  
  27149499.318                   142671728.686 0                        27.000  
                  27149498.353   109320308.358          41.000  
 22  1  1  3 59 38.0010000  0  9G01G03G04G09G17G19G21G31G32
  20163460.944    20163458.174   105959946.250 0  82565892.754 0        50.000  
        49.000                                                  
  20512511.329    20512508.309   107794572.807 0  83994761.945 0        50.000  
        49.000                                                  
  22103193.081    22103188.881   116152805.064 0  90508680.549 0        46.000  
        46.000                                                  
  25210180.456    25210177.436   132479714.264 0 103230946.329 0        38.000  
        38.000                                                  
  22588767.715    22588761.229   118704242.616 0  92497776.980 0        46.000  
        43.000                                                  
  23255632.701                   122209764.91010                        43.000  
                                                                
  21764762.595                   114375353.493 0                        47.000  
                                                                
  22617974.437    22617968.826   118858390.650 0  92616930.885 0        45.000  
        41.000                                                  
  24595797.434    24595795.200   129251544.726 0 100715404.160 0        40.000  
        37.000                                                  
 22  1  1  3 59 37.0000000  0  0
 22  1  1  3 59 38.0010000  0  6E04E07E11E12E19E26
  28655210.005                   150583414.99010                        38.000  
                  28655207.932   115382096.476          41.000  
  27353961.807                   143745756.202 0                        39.000  
                  27353961.575   110143227.308          45.000  
  27155469.805                   142702648.889 0                        36.000  
                  27155466.196   109343346.687          40.000  
  22793451.620                   119780727.686 0                        45.000  
                  22793447.778    91779869.300          50.000  
  23734128.058                   124723581.029 0                        45.000  
                  23734125.896    95567422.591          49.000  
  27150058.958                   142674665.344 0                        26.000  
                  27150057.189   109322558.453          41.000  
 22  1  1  3 59 39.0010000  0  9G01G03G04G09G17G19G21G31G32
  20163676.158    20163673.478   105961077.441 0  82566774.198 0        50.000  
        49.000                                                  
  20512335.409    20512332.407   107793648.480 0  83994041.685 0        50.000  
        49.000                                                  
  22102633.869    22102629.724   116149866.487 0  90506390.747 0        46.000  
        46.000                                                  
  25209476.488    25209473.486   132476014.565 0 103228063.448 0        38.000  
        37.000                                                  
  22588665.612    22588659.161   118703706.278 0  92497359.045 0        46.000  
        43.000                                                  
  23255250.090                   122207754.76610                        43.000  
                                                                
  21765141.615                   114377345.215 0                        48.000  
                                                                
  22617859.753    22617854.196   118857788.097 0  92616461.371 0        45.000  
        41.000                                                  
  24596439.539    24596437.180   129254918.922 0 100718033.413 0        40.000  
        37.000                                                  
 22  1  1  3 59 38.0000000  0  0
 22  1  1  3 59 39.0010000  0  6E04E07E11E12E19E26
  28654666.572                   150580558.67710                        38.000  
                  28654664.482   115379907.884          41.000  
  27354473.308                   143748444.417 0                        39.000  
                  27354473.165   110145287.103          45.000  
  27154909.593                   142699705.071 0                        36.000  
                  27154906.020   109341091.043          40.000  
  22793161.945                   119779205.177 0                        45.000  
                  22793158.049    91778702.690          50.000  
  23733851.464                   124722127.153 0                        45.000  
                  23733849.373    95566308.581          49.000  
  27150617.401                   142677599.100 0                        26.000  
                  27150615.453   109324806.456          40.000  
 22  1  1  3 59 40.0010000  0  9G01G03G04G09G17G19G21G31G32
  20163891.409    20163888.764   105962208.862 0  82567655.822 0        50.000  
        49.000                                                  
  20512159.542    20512156.504   107792724.158 0  83993321.430 0        49.000  
        49.000                                                  
  22102074.641    22102070.477   116146927.931 0  90504100.958 0        46.000  
        46.000                                                  
  25208772.484    25208769.482   132472314.601 0 103225180.355 0        38.000  
        37.000                                                  
  22588563.669    22588557.165   118703170.199 0  92496941.332 0        46.000  
        43.000                                                  
  23254867.621                   122205744.88010                        43.000  
                                                                
  21765520.635                   114379336.978 0                        48.000  
                                                                
  22617745.213    22617739.566   118857185.857 0  92615992.089 0        45.000  
        41.000                                                  
  24597081.680    24597079.179   129258292.871 0 100720662.457 0        40.000  
        37.000                                                  
 22  1  1  3 59 39.0000000  0  0
 22  1  1  3 59 40.0010000  0  6E04E07E11E12E19E26
  28654123.265                   150577702.07910                        38.000  
                  28654120.870   115377719.053          41.000  
  27354984.719                   143751132.346 0                        39.000  
                  27354984.612   110147346.693          45.000  
  27154349.346                   142696760.910 0                        35.000  
                  27154345.754   109338835.138          40.000  
  22792872.217                   119777682.635 0                        45.000  
                  22792868.375    91777536.074          50.000  
  23733574.762                   124720673.260 0                        45.000  
                  23733572.671    95565194.570          49.000  
  27151176.201                   142680532.785 0                        26.000  
                  27151173.663   109327054.298          41.000  
 22  1  1  3 59 41.0010000  0  9G01G03G04G09G17G19G21G31G32
  20164106.730    20164104.122   105963340.582 0  82568537.689 0        50.000  
        49.000                                                  
  20511983.729    20511980.673   107791799.909 0  83992601.236 0        50.000  
        49.000                                                  
  22101515.394    22101511.337   116143989.471 0  90501811.246 0        46.000  
        46.000                                                  
  25208068.445    25208065.389   132468614.440 0 103222297.115 0        38.000  
        38.000                                                  
  22588461.726    22588455.258   118702634.483 0  92496523.880 0        46.000  
        43.000                                                  
  23254485.278                   122203735.35510                        43.000  
                                                                
  21765899.655                   114381328.852 0                        47.000  
                                                                
  22617630.726    22617625.044   118856584.040 0  92615523.129 0        45.000  
        41.000                                                  
  24597723.607    24597721.195   129261666.657 0 100723291.392 0        40.000  
        37.000                                                  
 22  1  1  3 59 40.0000000  0  0
 22  1  1  3 59 41.0010000  0  6E04E07E11E12E19E26
  28653579.475                   150574845.32310                        38.000  
                  28653577.045   115375530.104          41.000  
  27355496.345                   143753820.083 0                        39.000  
                  27355496.095   110149406.120          45.000  
  27153788.973                   142693816.546 0                        36.000  
                  27153785.400   109336579.045          40.000  
  22792582.470                   119776160.158 0                        45.000  
                  22792578.593    91776369.501          50.000  
  23733298.274                   124719219.444 0                        45.000  
                  23733295.898    95564080.597          49.000  
                                                                                
                  27151731.927   109329302.049          40.000  
 22  1  1  3 59 42.0010000  0  9G01G03G04G09G17G19G21G31G32
  20164322.320    20164319.622   105964473.308 0  82569420.333 0        50.000  
        49.000                                                  
  20511807.987    20511804.895   107790876.435 0  83991881.653 0        50.000  
        49.000                                                  
  22100956.433    22100952.359   116141051.827 0  90499522.171 0        46.000  
        46.000                                                  
  25207364.459    25207361.421   132464914.787 0 103219414.276 0        38.000  
        38.000                                                  
  22588360.016    22588353.458   118702099.809 0  92496107.251 0        46.000  
        43.000                                                  
  23254102.988                   122201726.86310                        42.000  
                                                                
  21766278.835                   114383321.536 0                        47.000  
                                                                
  22617516.490    22617510.754   118855983.320 0  92615055.043 0        45.000  
        41.000                                                  
  24598365.695    24598363.211   129265041.005 0 100725920.755 0        40.000  
        37.000                                                  
 22  1  1  3 59 41.0000000  0  0
 22  1  1  3 59 42.0010000  0  6E04E07E11E12E19E26
  28653035.845                   150571989.06310                        37.000  
                  28653033.558   115373341.541          41.000  
  27356008.025                   143756508.317 0                        39.000  
                  27356007.667   110151465.933          45.000  
  27153228.762                   142690872.584 0                        35.000  
                  27153225.134   109334323.302          40.000  
  22792292.885                   119774638.450 0                        45.000  
                  22792289.168    91775203.510          50.000  
  23733021.716                   124717766.402 0                        45.000  
                  23733019.535    95562967.228          49.000  
                                                                                
                  27152290.245   109331550.251          40.000  
 22  1  1  3 59 43.0010000  0  9G01G03G04G09G17G19G21G31G32
  20164537.946    20164535.265   105965606.845 0  82570303.612 0        50.000  
        49.000                                                  
  20511632.227    20511629.332   107789953.548 0  83991162.518 0        50.000  
        49.000                                                  
  22100397.526    22100393.523   116138114.775 0  90497233.569 0        46.000  
        46.000                                                  
  25206660.526    25206657.453   132461215.484 0 103216531.706 0        38.000  
        38.000                                                  
  22588258.430    22588251.890   118701565.983 0  92495691.282 0        46.000  
        43.000                                                  
  23253720.966                   122199719.21010                        42.000  
                                                                
  21766658.177                   114385314.831 0                        48.000  
                                                                
  22617402.289    22617396.624   118855383.498 0  92614587.658 0        45.000  
        41.000                                                  
  24599007.747    24599005.352   129268415.674 0 100728550.365 0        40.000  
        37.000                                                  
 22  1  1  3 59 42.0000000  0  0
 22  1  1  3 59 43.0010000  0  6E04E07E11E12E19E26
  28652492.270                   150569133.10910                        37.000  
                  28652490.197   115371153.214          41.000  
  27356519.793                   143759196.829 0                        39.000  
                  27356519.222   110153525.971          45.000  
  27152668.461                   142687928.916 0                        35.000  
                  27152664.851   109332067.739          40.000  
  22792003.335                   119773117.297 0                        45.000  
                  22791999.511    91774037.956          50.000  
  23732745.317                   124716313.911 0                        45.000  
                  23732743.030    95561854.283          49.000  
                                                                                
                  27152848.652   109333798.758          40.000  
 22  1  1  3 59 44.0010000  0  9G01G03G04G09G17G19G21G31G32
  20164753.839    20164750.980   105966740.821 0  82571187.221 0        50.000  
        49.000                                                  
  20511456.557    20511453.680   107789030.890 0  83990443.561 0        50.000  
        49.000                                                  
  22099838.582    22099834.705   116135177.980 0  90494945.156 0        46.000  
        46.000                                                  
  25205956.576    25205953.556   132457516.122 0 103213649.061 0        38.000  
        38.000                                                  
  22588156.934    22588150.376   118701032.653 0  92495275.700 0        46.000  
        43.000                                                  
  23253339.051                   122197712.07410                        42.000  
                                                                
  21767037.572                   114387308.392 0                        48.000  
                                                                
  22617288.338    22617282.566   118854784.243 0  92614120.699 0        45.000  
        41.000                                                  
  24599649.977    24599647.547   129271790.363 0 100731179.985 0        40.000  
        37.000                                                  
 22  1  1  3 59 43.0000000  0  0
 22  1  1  3 59 44.0010000  0  6E04E07E11E12E19E26
  28651948.926                   150566277.11310                        37.000  
                  28651946.657   115368964.851          41.000  
  27357031.241                   143761885.306 0                        39.000  
                  27357030.758   110155585.970          45.000  
  27152108.374                   142684985.077 0                        35.000  
                  27152104.729   109329812.093          40.000  
  22791713.875                   119771596.366 0                        45.000  
                  22791710.194    91772872.563          50.000  
  23732468.866                   124714861.647 0                        45.000  
                  23732466.775    95560741.511          49.000  
                                                                                
                  27153406.952   109336047.272          40.000  
 22  1  1  3 59 45.0010000  0  9G01G03G04G09G17G19G21G31G32
  20164969.679    20164966.784   105967875.150 0  82572071.116 0        50.000  
        49.000                                                  
  20511280.993    20511278.117   107788108.335 0  83989724.691 0        50.000  
        49.000                                                  
  22099279.711    22099275.923   116132241.298 0  90492656.840 0        46.000  
        46.000                                                  
  25205252.573    25205249.571   132453816.595 0 103210766.304 0        37.000  
        38.000                                                  
  22588055.653    22588049.023   118700499.695 0  92494860.416 0        46.000  
        43.000                                                  
  23252957.137                   122195705.28710                        42.000  
                                                                
  21767417.038                   114389302.071 0                        48.000  
                                                                
  22617174.316    22617168.633   118854185.421 0  92613654.090 0        45.000  
        41.000                                                  
  24600292.243    24600289.760   129275164.882 0 100733809.506 0        40.000  
        37.000                                                  
 22  1  1  3 59 44.0000000  0  0
 22  1  1  3 59 45.0010000  0  6E04E07E11E12E19E26
  28651405.476                   150563420.94410                        37.000  
                  28651403.278   115366776.363          41.000  
  27357542.545                   143764573.572 0                        39.000  
                  27357542.438   110157645.821          45.000  
  27151548.109                   142682041.036 0                        35.000  
                  27151544.445   109327556.283          40.000  
  22791424.468                   119770075.512 0                        45.000  
                  22791420.805    91771707.240          50.000  
