     2.11           OBSERVATION DATA    M (Mixed)           RINEX VERSION / TYPE
RTCM3TORINEX on                         2022-01-06 03:59    PGM / RUN BY / DATE
RTCM3TORINEX                                                MARKER NAME
                                                            OBSERVER / AGENCY
                                                            REC # / TYPE / VERS
                                                            ANT # / TYPE
         .0000         .0000         .0000                  APPROX POSITION XYZ
         .0000         .0000         .0000                  ANTENNA: DELTA H/E/N
     1     1                                                WAVELENGTH FACT L1/2
     9    C1    C2    L1    L2    S1    S2    C7    L7    S7# / TYPES OF OBSERV
  2022     1     6     3    59   20.0010000     GPS         TIME OF FIRST OBS
                                                            END OF HEADER
 22  1  6  3 59 20.0010000  0  7E03E05E08E09E13E15E18
  23999896.538                   126119645.977 0                        48.000  
                  23999895.806    96637134.009          53.000  
  23922052.963                   125711236.703 0                        47.000  
                  23922052.409    96323964.320          52.000  
  26090104.950                   137104476.424 0                        36.000  
                  26090103.146   105054079.410          41.000  
  26096458.460                   137137594.177 0                        35.000  
                  26096458.139   105079395.395          42.000  
  27654013.026                   145322456.047 0                        40.000  
                  27654011.275   111350972.489          42.000  
  23703080.917                   124560330.239 0                        48.000  
                  23703080.524    95442333.431          53.000  
  20805130.679                   109331698.168 0                        46.000  
                  20805130.375    83773630.336          51.000  
 22  1  6  3 59 21.0010000  0  9G01G03G04G09G17G19G21G31G32
  20503040.658    20503037.566   107743930.114 0  83957128.337 0        49.000  
        48.000                                                  
  20351034.044    20351031.488   106946084.045 0  83334615.543 0        50.000  
        49.000                                                  
  21478627.413    21478622.374   112871516.857 0  87951833.336 0        47.000  
        47.000                                                  
  24364295.682    24364292.698   128034906.63210  99767460.621 0        38.000  
        39.000                                                  
  22553920.422    22553914.079   118521264.343 0  92353951.622 0        46.000  
        44.000                                                  
  22882195.192                   120246974.111 0                        44.000  
                                                                
  22287090.844                   117119729.380 0                        46.000  
                                                                
  22576372.385    22576365.791   118639674.941 0  92446502.277 0        44.000  
        40.000                                                  
  25366448.993    25366445.848   133301492.453 0 103871154.238 0        39.000  
        36.000                                                  
 22  1  6  3 59 20.0000000  0  0
 22  1  6  3 59 21.0010000  0  7E03E05E08E09E13E15E18
  23999636.187                   126118277.920 0                        48.000  
                  23999635.401    96636085.757          53.000  
  23922301.039                   125712538.386 0                        47.000  
                  23922300.163    96324961.711          52.000  
  26089579.780                   137101716.223 0                        36.000  
                  26089577.975   105051964.437          41.000  
  26096977.841                   137140323.546 0                        35.000  
                  26096977.430   105081486.748          42.000  
  27653465.913                   145319579.037 0                        41.000  
                  27653463.840   111348768.032          43.000  
  23702873.171                   124559238.155 0                        48.000  
                  23702872.617    95441496.641          53.000  
  20805899.494                   109335737.092 0                        46.000  
                  20805899.011    83776725.097          51.000  
 22  1  6  3 59 22.0010000  0  9G01G03G04G09G17G19G21G31G32
  20503384.118    20503380.955   107745735.366 0  83958535.029 0        49.000  
        48.000                                                  
  20350937.283    20350934.817   106945575.640 0  83334219.392 0        50.000  
        49.000                                                  
  21478160.746    21478155.564   112869064.447 0  87949922.372 0        47.000  
        47.000                                                  
  24363617.910    24363614.836   128031344.46710  99764684.887 0        38.000  
        40.000                                                  
  22553958.287    22553952.033   118521463.427 0  92354106.767 0        46.000  
        44.000                                                  
  22881961.876                   120245747.867 0                        44.000  
                                                                
  22287553.205                   117122159.088 0                        46.000  
                                                                
  22576416.772    22576410.196   118639908.259 0  92446684.077 0        44.000  
        40.000                                                  
  25367104.947    25367101.820   133304939.295 0 103873840.120 0        39.000  
        36.000                                                  
 22  1  6  3 59 21.0000000  0  0
 22  1  6  3 59 22.0010000  0  7E03E05E08E09E13E15E18
  23999375.764                   126116910.352 0                        48.000  
                  23999375.156    96635037.881          53.000  
  23922548.668                   125713840.521 0                        47.000  
                  23922547.935    96325959.453          52.000  
  26089054.538                   137098956.304 0                        36.000  
                  26089052.751   105049849.698          41.000  
  26097497.437                   137143053.132 0                        35.000  
                  26097496.954   105083578.253          42.000  
  27652918.334                   145316702.303 0                        40.000  
                  27652916.744   111346563.770          43.000  
  23702665.301                   124558146.637 0                        48.000  
                  23702664.962    95440660.284          53.000  
  20806668.201                   109339777.300 0                        46.000  
                  20806667.737    83779820.840          51.000  
 22  1  6  3 59 23.0010000  0  9G01G03G04G09G17G19G21G31G32
  20503727.847    20503724.559   107747541.243 0  83959942.206 0        49.000  
        48.000                                                  
  20350840.629    20350838.038   106945067.693 0  83333823.585 0        49.000  
        49.000                                                  
  21477694.096    21477688.932   112866612.551 0  87948011.801 0        47.000  
        47.000                                                  
  24362939.906    24362937.064   128027782.49810  99761909.348 0        38.000  
        40.000                                                  
  22553996.205    22553990.004   118521663.216 0  92354262.435 0        46.000  
        44.000                                                  
  22881728.614                   120244522.403 0                        44.000  
                                                                
  22288015.655                   117124589.220 0                        46.000  
                                                                
  22576461.319    22576454.779   118640142.370 0  92446866.509 0        44.000  
        40.000                                                  
  25367760.883    25367757.845   133308386.262 0 103876526.080 0        39.000  
        36.000                                                  
 22  1  6  3 59 22.0000000  0  0
 22  1  6  3 59 23.0010000  0  7E03E05E08E09E13E15E18
  23999115.966                   126115543.199 0                        48.000  
                  23999114.965    96633990.315          53.000  
  23922796.529                   125715143.011 0                        47.000  
                  23922795.689    96326957.463          52.000  
  26088529.403                   137096196.575 0                        36.000  
                  26088527.634   105047735.094          41.000  
  26098016.871                   137145782.806 0                        35.000  
                  26098016.425   105085669.810          42.000  
  27652370.863                   145313825.719 0                        40.000  
                  27652369.255   111344359.636          43.000  
  23702457.699                   124557055.594 0                        48.000  
                  23702457.359    95439824.290          53.000  
  20807437.391                   109343818.681 0                        46.000  
                  20807436.802    83782917.485          51.000  
 22  1  6  3 59 24.0010000  0  9G01G03G04G09G17G19G21G31G32
  20504071.718    20504068.287   107749347.898 0  83961349.991 0        49.000  
        48.000                                                  
  20350744.226    20350741.403   106944560.298 0  83333428.211 0        49.000  
        49.000                                                  
  21477227.554    21477222.408   112864161.324 0  87946101.738 0        47.000  
        47.000                                                  
  24362262.080    24362259.239   128024220.89110  99759134.070 0        38.000  
        39.000                                                  
  22554034.391    22554028.173   118521863.848 0  92354418.774 0        46.000  
        44.000                                                  
  22881495.709                   120243297.840 0                        44.000  
                                                                
  22288478.213                   117127019.908 0                        46.000  
                                                                
  22576506.081    22576499.523   118640377.395 0  92447049.651 0        44.000  
        40.000                                                  
  25368416.819    25368413.817   133311833.511 0 103879212.217 0        39.000  
        36.000                                                  
 22  1  6  3 59 23.0000000  0  0
 22  1  6  3 59 24.0010000  0  7E03E05E08E09E13E15E18
  23998855.721                   126114176.564 0                        48.000  
                  23998855.025    96632943.158          53.000  
  23923044.569                   125716446.000 0                        47.000  
                  23923043.622    96327955.848          52.000  
  26088004.393                   137093437.149 0                        36.000  
                  26088002.642   105045620.745          41.000  
  26098536.449                   137148512.738 0                        35.000  
                  26098535.877   105087761.549          42.000  
  27651823.589                   145310949.449 0                        40.000  
                  27651821.909   111342155.748          43.000  
  23702250.257                   124555965.165 0                        48.000  
                  23702249.793    95438988.759          53.000  
  20808206.635                   109347861.382 0                        46.000  
                  20808206.152    83786015.137          51.000  
 22  1  6  3 59 25.0010000  0  9G01G03G04G09G17G19G21G31G32
  20504415.500    20504411.962   107751154.606 0  83962757.816 0        49.000  
        48.000                                                  
  20350647.662    20350644.856   106944052.799 0  83333032.761 0        49.000  
        49.000                                                  
  21476761.048    21476755.830   112861710.039 0  87944191.662 0        47.000  
        47.000                                                  
  24361584.111    24361581.449   128020658.97810  99756358.569 0        38.000  
        39.000                                                  
  22554072.684    22554066.359   118522064.602 0  92354575.208 0        46.000  
        43.000                                                  
  22881262.786                   120242073.488 0                        44.000  
                                                                
  22288940.627                   117129450.442 0                        46.000  
                                                                
  22576550.861    22576544.374   118640612.635 0  92447232.946 0        44.000  
        40.000                                                  
  25369072.720    25369069.753   133315280.311 0 103881898.030 0        39.000  
        36.000                                                  
 22  1  6  3 59 24.0000000  0  0
 22  1  6  3 59 25.0010000  0  7E03E05E08E09E13E15E18
  23998595.727                   126112809.786 0                        49.000  
                  23998594.887    96631895.889          53.000  
  23923292.323                   125717748.769 0                        47.000  
                  23923291.608    96328954.080          52.000  
  26087479.473                   137090677.403 0                        36.000  
                  26087477.400   105043506.096          41.000  
  26099056.044                   137151242.168 0                        35.000  
                  26099055.222   105089852.946          42.000  
  27651275.903                   145308072.774 0                        40.000  
                  27651274.509   111339951.553          43.000  
  23702042.655                   124554874.641 0                        48.000  
                  23702042.351    95438153.170          53.000  
  20808976.236                   109351904.706 0                        46.000  
                  20808975.539    83789113.268          51.000  
 22  1  6  3 59 26.0010000  0  9G01G03G04G09G17G19G21G31G32
  20504759.479    20504756.066   107752962.194 0  83964166.323 0        49.000  
        48.000                                                  
  20350551.169    20350548.346   106943545.985 0  83332637.845 0        49.000  
        49.000                                                  
  21476294.738    21476289.430   112859259.528 0  87942282.170 0        46.000  
        47.000                                                  
  24360906.393    24360903.766   128017097.50610  99753583.416 0        38.000  
        40.000                                                  
  22554111.121    22554104.759   118522266.313 0  92354732.379 0        46.000  
        43.000                                                  
  22881030.042                   120240850.155 0                        44.000  
                                                                
  22289403.274                   117131881.661 0                        46.000  
                                                                
  22576595.873    22576589.315   118640848.929 0  92447417.066 0        44.000  
        41.000                                                  
  25369728.656    25369725.654   133318727.426 0 103884584.112 0        39.000  
        36.000                                                  
 22  1  6  3 59 25.0000000  0  0
 22  1  6  3 59 26.0010000  0  7E03E05E08E09E13E15E18
  23998335.644                   126111443.657 0                        49.000  
                  23998334.839    96630849.114          53.000  
  23923540.345                   125719052.157 0                        47.000  
                  23923539.666    96329952.785          52.000  
  26086954.427                   137087918.053 0                        36.000  
                  26086952.372   105041391.798          41.000  
  26099575.568                   137153971.959 0                        35.000  
                  26099574.728   105091944.604          42.000  
  27650728.378                   145305196.531 0                        40.000  
                  27650727.235   111337747.667          43.000  
  23701835.303                   124553784.852 0                        48.000  
                  23701834.892    95437318.130          53.000  
  20809745.872                   109355949.456 0                        46.000  
                  20809745.247    83792212.492          51.000  
 22  1  6  3 59 27.0010000  0  9G01G03G04G09G17G19G21G31G32
  20505103.547    20505100.152   107754770.319 0  83965575.250 0        49.000  
        48.000                                                  
  20350454.801    20350451.996   106943039.534 0  83332243.203 0        49.000  
        49.000                                                  
  21475828.517    21475823.388   112856809.460 0  87940373.022 0        47.000  
        47.000                                                  
  24360228.692    24360225.994   128013536.23810  99750808.389 0        38.000  
        40.000                                                  
  22554149.557    22554143.285   118522468.631 0  92354890.043 0        46.000  
        44.000                                                  
  22880797.441                   120239627.508 0                        44.000  
                                                                
  22289865.921                   117134313.195 0                        46.000  
                                                                
  22576640.974    22576634.381   118641085.912 0  92447601.733 0        44.000  
        41.000                                                  
  25370384.663    25370381.625   133322174.607 0 103887270.218 0        39.000  
        37.000                                                  
 22  1  6  3 59 26.0000000  0  0
 22  1  6  3 59 27.0010000  0  7E03E05E08E09E13E15E18
  23998075.667                   126110077.841 0                        49.000  
                  23998075.006    96629802.582          53.000  
  23923788.242                   125720355.815 0                        48.000  
                  23923787.706    96330951.689          52.000  
  26086429.292                   137085158.797 0                        36.000  
                  26086427.523   105039277.590          41.000  
  26100094.931                   137156701.785 0                        35.000  
                  26100094.306   105094036.278          42.000  
  27650181.175                   145302320.369 0                        40.000  
                  27650179.960   111335543.853          43.000  
  23701627.969                   124552695.447 0                        48.000  
                  23701627.647    95436483.393          53.000  
  20810515.670                   109359995.306 0                        46.000  
                  20810515.116    83795312.564          51.000  
 22  1  6  3 59 28.0010000  0  9G01G03G04G09G17G19G21G31G32
  20505447.651    20505444.238   107756578.755 0  83966984.420 0        49.000  
        48.000                                                  
  20350358.398    20350355.575   106942533.189 0  83331848.653 0        49.000  
        49.000                                                  
  21475362.368    21475357.239   112854359.583 0  87938464.027 0        46.000  
        47.000                                                  
  24359550.938    24359548.258   128009974.89510  99748033.289 0        38.000  
        40.000                                                  
  22554188.190    22554181.900   118522671.323 0  92355047.973 0        46.000  
        44.000                                                  
  22880564.893                   120238405.304 0                        43.000  
                                                                
  22290328.693                   117136744.844 0                        46.000  
                                                                
  22576686.129    22576679.625   118641323.359 0  92447786.754 0        44.000  
        40.000                                                  
  25371040.599    25371037.508   133325621.542 0 103889956.119 0        39.000  
        36.000                                                  
 22  1  6  3 59 27.0000000  0  0
 22  1  6  3 59 28.0010000  0  7E03E05E08E09E13E15E18
  23997816.012                   126108712.120 0                        49.000  
                  23997815.083    96628756.116          53.000  
  23924036.407                   125721659.503 0                        47.000  
                  23924035.799    96331950.619          51.000  
  26085904.372                   137082399.453 0                        36.000  
                  26085902.514   105037163.267          41.000  
  26100614.241                   137159431.348 0                        35.000  
                  26100613.580   105096127.761          42.000  
  27649633.811                   145299444.032 0                        40.000  
                  27649632.578   111333339.904          43.000  
  23701420.706                   124551606.188 0                        48.000  
                  23701420.259    95435648.764          53.000  
  20811286.057                   109364042.016 0                        46.000  
                  20811285.146    83798413.281          51.000  
 22  1  6  3 59 29.0010000  0  9G01G03G04G09G17G19G21G31G32
  20505791.826    20505788.431   107758387.654 0  83968393.950 0        49.000  
        48.000                                                  
  20350261.941    20350259.332   106942027.135 0  83331454.314 0        49.000  
        49.000                                                  
  21474896.236    21474891.019   112851910.055 0  87936555.299 0        46.000  
        47.000                                                  
  24358873.202    24358870.539   128006413.58710  99745258.269 0        39.000  
        40.000                                                  
  22554226.787    22554220.550   118522874.560 0  92355206.335 0        46.000  
        44.000                                                  
  22880332.543                   120237183.729 0                        43.000  
                                                                
  22290791.447                   117139176.738 0                        46.000  
                                                                
  22576731.392    22576725.030   118641561.428 0  92447972.255 0        44.000  
        41.000                                                  
  25371696.518    25371693.444   133329068.434 0 103892642.019 0        39.000  
        36.000                                                  
 22  1  6  3 59 28.0000000  0  0
 22  1  6  3 59 29.0010000  0  7E03E05E08E09E13E15E18
  23997555.982                   126107346.618 0                        49.000  
                  23997555.375    96627709.822          53.000  
  23924284.429                   125722963.395 0                        47.000  
                  23924283.929    96332949.708          51.000  
  26085379.130                   137079640.139 0                        36.000  
                  26085377.397   105035048.973          41.000  
  26101133.658                   137162160.892 0                        35.000  
                  26101133.050   105098219.224          42.000  
  27649086.501                   145296567.720 0                        40.000  
                  27649085.250   111331135.977          43.000  
  23701213.318                   124550517.241 0                        48.000  
                  23701213.157    95434814.378          53.000  
  20812056.248                   109368089.744 0                        46.000  
                  20812055.479    83801514.789          51.000  
 22  1  6  3 59 30.0010000  0  9G01G03G04G09G17G19G21G31G32
  20506136.180    20506132.731   107760197.379 0  83969804.127 0        49.000  
        48.000                                                  
  20350165.859    20350163.072   106941521.714 0  83331060.489 0        49.000  
        49.000                                                  
  21474430.087    21474425.030   112849461.255 0  87934647.146 0        46.000  
        47.000                                                  
  24358195.591    24358192.892   128002852.73310  99742483.598 0        39.000  
        40.000                                                  
  22554265.598    22554259.451   118523078.686 0  92355365.399 0        46.000  
        44.000                                                  
  22880100.299                   120235963.113 0                        43.000  
                                                                
  22291254.344                   117141609.255 0                        46.000  
                                                                
  22576776.976    22576770.489   118641800.483 0  92448158.534 0        44.000  
        41.000                                                  
  25372352.579    25372349.380   133332515.624 0 103895328.144 0        39.000  
        36.000                                                  
 22  1  6  3 59 29.0000000  0  0
 22  1  6  3 59 30.0010000  0  7E03E05E08E09E13E15E18
  23997296.542                   126105981.739 0                        49.000  
                  23997295.523    96626664.008          53.000  
  23924532.719                   125724267.843 0                        47.000  
                  23924532.147    96333949.213          51.000  
  26084854.245                   137076881.170 0                        36.000  
                  26084852.476   105032934.995          41.000  
  26101653.182                   137164890.692 0                        35.000  
                  26101652.431   105100310.907          42.000  
  27648539.030                   145293691.756 0                        40.000  
                  27648537.922   111328932.327          43.000  
  23701006.305                   124549428.974 0                        48.000  
                  23701005.984    95433980.516          53.000  
  20812827.046                   109372138.855 0                        46.000  
                  20812825.938    83804617.352          51.000  
 22  1  6  3 59 31.0010000  0  9G01G03G04G09G17G19G21G31G32
  20506480.677    20506477.264   107762007.634 0  83971214.718 0        49.000  
        48.000                                                  
  20350069.795    20350066.990   106941016.646 0  83330666.922 0        49.000  
        49.000                                                  
  21473964.224    21473959.185   112847012.883 0  87932739.328 0        46.000  
        47.000                                                  
  24357517.962    24357515.353   127999292.04710  99739709.022 0        39.000  
        40.000                                                  
  22554304.624    22554298.388   118523283.422 0  92355524.933 0        46.000  
        44.000                                                  
  22879868.127                   120234743.180 0                        43.000  
                                                                
  22291717.223                   117144042.089 0                        46.000  
                                                                
  22576822.631    22576816.305   118642040.233 0  92448345.359 0        44.000  
        41.000                                                  
  25373008.551    25373005.388   133335962.841 0 103898014.296 0        39.000  
        36.000                                                  
 22  1  6  3 59 30.0000000  0  0
 22  1  6  3 59 31.0010000  0  7E03E05E08E09E13E15E18
  23997036.726                   126104617.161 0                        49.000  
                  23997035.779    96625618.427          53.000  
  23924781.206                   125725572.554 0                        47.000  
                  23924780.509    96334948.931          51.000  
  26084329.200                   137074122.337 0                        36.000  
                  26084327.484   105030821.056          41.000  
  26102172.652                   137167620.510 0                        35.000  
                  26102171.866   105102402.592          42.000  
  27647991.916                   145290815.908 0                        40.000  
                  27647990.773   111326728.740          43.000  
  23700799.203                   124548341.089 0                        48.000  
                  23700799.007    95433146.940          53.000  
  20813597.683                   109376189.042 0                        46.000  
                  20813596.468    83807720.742          51.000  
 22  1  6  3 59 32.0010000  0  9G01G03G04G09G17G19G21G31G32
  20506825.317    20506821.815   107763818.573 0  83972625.842 0        49.000  
        48.000                                                  
  20349973.928    20349971.087   106940512.073 0  83330273.749 0        49.000  
        49.000                                                  
  21473498.414    21473493.375   112844565.084 0  87930831.952 0        46.000  
        47.000                                                  
  24356840.422    24356837.831   127995731.64010  99736934.669 0        39.000  
        39.000                                                  
  22554343.632    22554337.503   118523488.898 0  92355685.040 0        46.000  
        44.000                                                  
  22879636.151                   120233524.073 0                        43.000  
                                                                
  22292180.174                   117146475.416 0                        46.000  
                                                                
  22576868.358    22576861.996   118642280.811 0  92448532.825 0        44.000  
        41.000                                                  
  25373664.558    25373661.395   133339410.228 0 103900700.576 0        39.000  
        36.000                                                  
 22  1  6  3 59 31.0000000  0  0
 22  1  6  3 59 32.0010000  0  7E03E05E08E09E13E15E18
  23996777.322                   126103253.054 0                        49.000  
                  23996776.250    96624573.195          53.000  
  23925029.460                   125726877.668 0                        47.000  
                  23925028.781    96335948.958          51.000  
  26083804.065                   137071363.726 0                        36.000  
                  26083802.635   105028707.316          41.000  
  26102692.373                   137170350.489 0                        35.000  
                  26102691.426   105104494.394          42.000  
  27647444.767                   145287940.260 0                        40.000  
                  27647443.462   111324525.330          43.000  
  23700592.226                   124547253.732 0                        48.000  
                  23700592.101    95432313.770          53.000  
  20814368.982                   109380240.471 0                        46.000  
                  20814367.499    83810825.083          51.000  
 22  1  6  3 59 33.0010000  0  9G01G03G04G09G17G19G21G31G32
  20507170.028    20507166.490   107765629.844 0  83974037.219 0        49.000  
        48.000                                                  
  20349877.846    20349875.094   106940007.642 0  83329880.690 0        50.000  
        49.000                                                  
  21473032.658    21473027.655   112842117.501 0  87928924.743 0        46.000  
        47.000                                                  
  24356162.936    24356160.345   127992171.14710  99734160.257 0        39.000  
        39.000                                                  
  22554382.748    22554376.654   118523694.776 0  92355845.467 0        46.000  
        44.000                                                  
  22879404.211                   120232305.434 0                        43.000  
                                                                
  22292643.303                   117148908.851 0                        46.000  
                                                                
  22576914.335    22576907.938   118642521.876 0  92448720.663 0        44.000  
        41.000                                                  
  25374320.530    25374317.331   133342857.401 0 103903386.696 0        38.000  
        36.000                                                  
 22  1  6  3 59 32.0000000  0  0
 22  1  6  3 59 33.0010000  0  7E03E05E08E09E13E15E18
  23996517.828                   126101889.037 0                        49.000  
                  23996516.702    96623528.039          53.000  
  23925277.857                   125728182.852 0                        47.000  
                  23925277.250    96336949.025          52.000  
  26083278.716                   137068605.019 0                        36.000  
                  26083277.626   105026593.501          41.000  
  26103211.825                   137173080.248 0                        35.000  
                  26103210.860   105106586.034          42.000  
  27646897.778                   145285064.486 0                        41.000  
                  27646896.223   111322321.813          43.000  
  23700385.285                   124546166.551 0                        48.000  
                  23700385.178    95431480.740          53.000  
  20815140.066                   109384292.777 0                        46.000  
                  20815138.601    83813930.090          51.000  
 22  1  6  3 59 34.0010000  0  9G01G03G04G09G17G19G21G31G32
  20507514.668    20507511.201   107767441.311 0  83975448.750 0        49.000  
        48.000                                                  
  20349781.872    20349779.156   106939503.204 0  83329487.619 0        50.000  
        49.000                                                  
  21472566.830    21472561.970   112839669.998 0  87927017.604 0        46.000  
        47.000                                                  
  24355485.360    24355482.769   127988610.49710  99731385.685 0        39.000  
        39.000                                                  
  22554421.917    22554415.841   118523900.930 0  92356006.099 0        46.000  
        44.000                                                  
  22879172.503                   120231087.131 0                        43.000  
                                                                
  22293106.343                   117151342.266 0                        46.000  
                                                                
  22576960.240    22576953.879   118642763.307 0  92448908.792 0        44.000  
        41.000                                                  
  25374976.502    25374973.160   133346304.283 0 103906072.558 0        38.000  
        36.000                                                  
 22  1  6  3 59 33.0000000  0  0
 22  1  6  3 59 34.0010000  0  7E03E05E08E09E13E15E18
  23996258.084                   126100524.991 0                        49.000  
                  23996257.226    96622482.864          53.000  
  23925526.290                   125729487.957 0                        47.000  
                  23925525.450    96337949.040          52.000  
  26082753.670                   137065846.071 0                        35.000  
                  26082752.544   105024479.491          41.000  
  26103731.313                   137175809.705 0                        36.000  
                  26103730.206   105108677.427          42.000  
  27646350.575                   145282188.445 0                        40.000  
                  27646348.895   111320118.084          44.000  
  23700178.362                   124545079.412 0                        48.000  
                  23700178.326    95430647.728          53.000  
  20815911.204                   109388345.825 0                        46.000  
                  20815909.881    83817035.682          51.000  
 22  1  6  3 59 35.0010000  0  9G01G03G04G09G17G19G21G31G32
  20507859.558    20507856.145   107769253.726 0  83976861.026 0        49.000  
        48.000                                                  
  20349685.951    20349683.217   106938999.559 0  83329095.166 0        50.000  
        49.000                                                  
  21472101.307    21472096.339   112837223.364 0  87925111.136 0        46.000  
        47.000                                                  
  24354807.910    24354805.301   127985050.38910  99728611.593 0        39.000  
        40.000                                                  
  22554461.425    22554455.224   118524108.093 0  92356167.537 0        46.000  
        44.000                                                  
  22878940.903                   120229869.930 0                        43.000  
                                                                
  22293569.526                   117153776.438 0                        46.000  
                                                                
  22577006.414    22577000.088   118643005.842 0  92449097.776 0        44.000  
        41.000                                                  
  25375632.509    25375629.186   133349751.594 0 103908758.781 0        38.000  
        36.000                                                  
 22  1  6  3 59 34.0000000  0  0
 22  1  6  3 59 35.0010000  0  7E03E05E08E09E13E15E18
  23995998.733                   126099161.678 0                        49.000  
                  23995997.768    96621438.250          53.000  
  23925774.705                   125730793.742 0                        47.000  
                  23925774.009    96338949.579          52.000  
  26082228.571                   137063087.625 0                        35.000  
                  26082227.588   105022365.883          41.000  
  26104250.730                   137178539.604 0                        35.000  
                  26104249.694   105110769.150          42.000  
  27645803.336                   145279312.897 0                        40.000  
                  27645801.799   111317914.739          44.000  
  23699971.689                   124543993.070 0                        48.000  
                  23699971.599    95429815.345          53.000  
  20816682.770                   109392400.391 0                        46.000  
                  20816681.305    83820142.427          51.000  
 22  1  6  3 59 36.0010000  0  9G01G03G04G09G17G19G21G31G32
  20508204.537    20508201.053   107771066.449 0  83978273.535 0        49.000  
        48.000                                                  
  20349590.066    20349587.332   106938496.025 0  83328702.802 0        50.000  
        49.000                                                  
  21471635.765    21471630.797   112834776.914 0  87923204.809 0        46.000  
        47.000                                                  
  24354130.388    24354127.815   127981490.16610  99725837.417 0        39.000  
        39.000                                                  
  22554500.987    22554494.840   118524315.641 0  92356329.264 0        46.000  
        44.000                                                  
  22878709.356                   120228653.205 0                        43.000  
                                                                
  22294032.709                   117156210.713 0                        46.000  
                                                                
  22577052.695    22577046.280   118643248.853 0  92449287.141 0        44.000  
        41.000                                                  
  25376288.499    25376285.229   133353198.679 0 103911444.794 0        38.000  
        36.000                                                  
 22  1  6  3 59 35.0000000  0  0
 22  1  6  3 59 36.0010000  0  7E03E05E08E09E13E15E18
  23995739.203                   126097798.454 0                        49.000  
                  23995738.256    96620393.699          53.000  
  23926023.317                   125732099.572 0                        47.000  
                  23926022.406    96339950.152          51.000  
  26081703.490                   137060329.056 0                        35.000  
                  26081702.507   105020252.185          41.000  
  26104770.361                   137181269.240 0                        35.000  
                  26104769.146   105112860.707          42.000  
  27645256.026                   145276437.208 0                        40.000  
                  27645254.632   111315711.289          44.000  
  23699765.087                   124542906.899 0                        48.000  
                  23699764.891    95428983.082          53.000  
  20817454.533                   109396455.810 0                        46.000  
                  20817453.050    83823249.826          51.000  
 22  1  6  3 59 37.0010000  0  9G01G03G04G09G17G19G21G31G32
  20508549.713    20508546.068   107772880.082 0  83979686.761 0        49.000  
        48.000                                                  
  20349494.449    20349491.679   106937993.219 0  83328311.003 0        50.000  
        49.000                                                  
  21471170.420    21471165.434   112832331.280 0  87921299.118 0        46.000  
        47.000                                                  
  24353453.045    24353450.489   127977930.50710  99723063.663 0        39.000  
        39.000                                                  
  22554540.638    22554534.491   118524524.169 0  92356491.753 0        46.000  
        44.000                                                  
  22878478.024                   120227437.510 0                        44.000  
                                                                
  22294496.053                   117158645.683 0                        46.000  
                                                                
  22577099.118    22577092.685   118643492.908 0  92449477.305 0        44.000  
        41.000                                                  
  25376944.471    25376941.272   133356646.166 0 103914131.184 0        38.000  
        36.000                                                  
 22  1  6  3 59 36.0000000  0  0
 22  1  6  3 59 37.0010000  0  7E03E05E08E09E13E15E18
  23995480.102                   126096435.916 0                        49.000  
                  23995478.994    96619349.683          53.000  
  23926271.929                   125733406.050 0                        47.000  
                  23926271.035    96340951.218          51.000  
  26081178.516                   137057570.962 0                        35.000  
                  26081177.747   105018138.845          41.000  
  26105289.671                   137183999.281 0                        35.000  
                  26105288.795   105114952.552          42.000  
  27644709.073                   145273561.974 0                        41.000  
                  27644707.429   111313508.181          44.000  
  23699558.343                   124541821.475 0                        48.000  
                  23699558.396    95428151.394          53.000  
  20818226.439                   109400512.694 0                        46.000  
                  20818225.099    83826358.348          51.000  
 22  1  6  3 59 38.0010000  0  9G01G03G04G09G17G19G21G31G32
  20508894.961    20508891.333   107774694.214 0  83981100.372 0        49.000  
        48.000                                                  
  20349398.867    20349396.080   106937490.713 0  83327919.446 0        50.000  
        49.000                                                  
  21470705.057    21470700.072   112829886.022 0  87919393.720 0        46.000  
        47.000                                                  
  24352775.612    24352773.128   127974370.95910  99720289.972 0        38.000  
        39.000                                                  
  22554580.415    22554574.196   118524733.274 0  92356654.698 0        46.000  
        44.000                                                  
  22878246.799                   120226222.466 0                        43.000  
                                                                
  22294959.397                   117161080.940 0                        46.000  
                                                                
  22577145.631    22577139.306   118643737.629 0  92449668.011 0        44.000  
        41.000                                                  
  25377600.461    25377597.333   133360093.644 0 103916817.503 0        38.000  
        36.000                                                  
 22  1  6  3 59 37.0000000  0  0
 22  1  6  3 59 38.0010000  0  7E03E05E08E09E13E15E18
  23995220.715                   126095073.648 0                        49.000  
                  23995219.822    96618305.863          53.000  
  23926520.523                   125734712.742 0                        47.000  
                  23926519.790    96341952.454          51.000  
  26080653.399                   137054812.933 0                        35.000  
                  26080652.970   105016025.559          41.000  
  26105809.070                   137186729.298 0                        35.000  
                  26105808.123   105117044.370          42.000  
  27644161.905                   145270686.772 0                        40.000  
                  27644160.315   111311305.113          44.000  
  23699351.920                   124540736.407 0                        48.000  
                  23699351.830    95427319.978          53.000  
  20818998.613                   109404570.625 0                        46.000  
                  20818997.291    83829467.674          51.000  
 22  1  6  3 59 39.0010000  0  9G01G03G04G09G17G19G21G31G32
  20509240.190    20509236.616   107776508.666 0  83982514.235 0        49.000  
        48.000                                                  
  20349303.214    20349300.534   106936988.361 0  83327527.999 0        50.000  
        49.000                                                  
  21470239.837    21470234.798   112827441.007 0  87917488.518 0        46.000  
        47.000                                                  
  24352098.233    24352095.696   127970811.34410  99717516.243 0        38.000  
        40.000                                                  
  22554620.281    22554613.991   118524942.768 0  92356817.939 0        46.000  
        44.000                                                  
  22878015.752                   120225007.887 0                        43.000  
                                                                
  22295422.865                   117163516.327 0                        46.000  
                                                                
  22577192.412    22577185.980   118643982.838 0  92449859.082 0        44.000  
        41.000                                                  
  25378256.540    25378253.287   133363540.902 0 103919503.710 0        38.000  
        36.000                                                  
 22  1  6  3 59 38.0000000  0  0
 22  1  6  3 59 39.0010000  0  7E03E05E08E09E13E15E18
  23994961.579                   126093711.489 0                        49.000  
                  23994960.525    96617262.133          53.000  
  23926769.170                   125736019.499 0                        47.000  
                  23926768.455    96342953.740          51.000  
  26080128.353                   137052054.839 0                        35.000  
                  26080128.139   105013912.190          41.000  
  26106328.469                   137189459.074 0                        35.000  
                  26106327.539   105119136.046          42.000  
  27643614.667                   145267811.444 0                        40.000  
                  27643613.291   111309101.933          44.000  
  23699145.568                   124539651.509 0                        48.000  
                  23699145.425    95426488.699          53.000  
  20819770.752                   109408629.431 0                        46.000  
                  20819769.554    83832577.672          51.000  
 22  1  6  3 59 40.0010000  0  9G01G03G04G09G17G19G21G31G32
  20509585.384    20509582.007   107778323.481 0  83983928.368 0        49.000  
        48.000                                                  
  20349207.561    20349204.917   106936486.160 0  83327136.669 0        50.000  
        49.000                                                  
  21469774.581    21469769.596   112824996.210 0  87915583.474 0        46.000  
        47.000                                                  
  24351420.836    24351418.371   127967251.67710  99714742.469 0        38.000  
        40.000                                                  
  22554660.254    22554653.839   118525152.704 0  92356981.508 0        46.000  
        44.000                                                  
  22877784.652                   120223793.811 0                        43.000  
                                                                
  22295886.299                   117165951.852 0                        46.000  
                                                                
  22577239.211    22577232.814   118644228.554 0  92450050.551 0        44.000  
        41.000                                                  
  25378912.511    25378909.259   133366988.007 0 103922189.732 0        38.000  
        36.000                                                  
 22  1  6  3 59 39.0000000  0  0
 22  1  6  3 59 40.0010000  0  7E03E05E08E09E13E15E18
  23994702.210                   126092349.456 0                        49.000  
                  23994701.352    96616218.493          53.000  
  23927017.710                   125737326.347 0                        47.000  
                  23927017.103    96343955.075          52.000  
  26079603.290                   137049296.589 0                        35.000  
                  26079603.308   105011798.746          41.000  
  26106848.046                   137192188.716 0                        35.000  
                  26106847.010   105121227.567          42.000  
  27643067.428                   145264935.978 0                        40.000  
                  27643066.195   111306898.667          44.000  
  23698938.931                   124538566.802 0                        48.000  
                  23698938.967    95425657.553          53.000  
  20820543.301                   109412689.135 0                        46.000  
                  20820542.032    83835688.350          51.000  
 22  1  6  3 59 41.0010000  0  9G01G03G04G09G17G19G21G31G32
  20509930.739    20509927.379   107780138.931 0  83985343.006 0        49.000  
        48.000                                                  
  20349112.034    20349109.443   106935984.434 0  83326745.718 0        50.000  
        49.000                                                  
  21469309.594    21469304.483   112822551.961 0  87913678.872 0        46.000  
        47.000                                                  
  24350743.404    24350741.063   127963692.27010  99711968.913 0        38.000  
        40.000                                                  
  22554700.405    22554693.937   118525363.333 0  92357145.641 0        46.000  
        44.000                                                  
  22877553.838                   120222580.517 0                        43.000  
                                                                
  22296349.910                   117168387.817 0                        46.000  
                                                                
  22577286.171    22577279.756   118644475.068 0  92450242.652 0        44.000  
        41.000                                                  
  25379568.483    25379565.213   133370435.230 0 103924875.870 0        38.000  
        36.000                                                  
 22  1  6  3 59 40.0000000  0  0
 22  1  6  3 59 41.0010000  0  7E03E05E08E09E13E15E18
  23994443.270                   126090987.843 0                        49.000  
                  23994442.251    96615175.181          53.000  
  23927266.733                   125738633.550 0                        47.000  
                  23927265.786    96344956.707          51.000  
  26079078.459                   137046538.583 0                        34.000  
                  26079078.441   105009685.444          41.000  
  26107367.356                   137194918.472 0                        35.000  
                  26107366.498   105123319.192          42.000  
  27642520.135                   145262060.729 0                        40.000  
                  27642519.170   111304695.546          44.000  
  23698732.776                   124537482.600 0                        48.000  
                  23698732.704    95424826.799          53.000  
  20821316.226                   109416750.044 0                        46.000  
                  20821314.921    83838799.956          51.000  
 22  1  6  3 59 42.0010000  0  9G01G03G04G09G17G19G21G31G32
  20510276.361    20510273.055   107781955.213 0  83986758.291 0        49.000  
        48.000                                                  
  20349016.702    20349014.111   106935483.339 0  83326355.256 0        50.000  
        49.000                                                  
  21468844.552    21468839.513   112820108.443 0  87911774.831 0        46.000  
        47.000                                                  
  24350066.150    24350063.773   127960133.31810  99709195.703 0        39.000  
        40.000                                                  
  22554740.664    22554734.213   118525574.871 0  92357310.478 0        46.000  
        44.000                                                  
  22877323.274                   120221368.205 0                        43.000  
                                                                
  22296813.504                   117170824.404 0                        46.000  
                                                                
  22577333.328    22577326.877   118644722.592 0  92450435.505 0        44.000  
        41.000                                                  
  25380224.509    25380221.274   133373882.799 0 103927562.295 0        38.000  
        36.000                                                  
 22  1  6  3 59 41.0000000  0  0
 22  1  6  3 59 42.0010000  0  7E03E05E08E09E13E15E18
  23994184.330                   126089626.840 0                        49.000  
                  23994183.222    96614132.339          53.000  
  23927515.488                   125739941.328 0                        47.000  
                  23927514.791    96345958.766          51.000  
  26078553.485                   137043780.965 0                        34.000  
                  26078553.610   105007572.475          41.000  
  26107886.612                   137197648.495 0                        35.000  
                  26107886.058   105125411.041          42.000  
  27641973.093                   145259185.847 0                        40.000  
                  27641972.003   111302492.723          44.000  
  23698526.496                   124536399.067 0                        48.000  
                  23698526.532    95423996.561          53.000  
  20822089.114                   109420812.331 0                        46.000  
                  20822087.828    83841912.615          51.000  
 22  1  6  3 59 43.0010000  0  9G01G03G04G09G17G19G21G31G32
  20510622.073    20510618.767   107783771.854 0  83988173.860 0        49.000  
        48.000                                                  
  20348921.318    20348918.726   106934982.431 0  83325964.934 0        50.000  
        49.000                                                  
  21468379.636    21468374.561   112817665.171 0  87909870.983 0        46.000  
        47.000                                                  
  24349388.878    24349386.555   127956574.30410  99706422.471 0        39.000  
        40.000                                                  
  22554780.905    22554774.508   118525786.838 0  92357475.647 0        46.000  
        44.000                                                  
  22877092.692                   120220156.392 0                        43.000  
                                                                
  22297277.241                   117173261.126 0                        46.000  
                                                                
  22577380.520    22577374.158   118644970.605 0  92450628.762 0        44.000  
        41.000                                                  
  25380880.498    25380877.300   133377330.151 0 103930248.559 0        38.000  
        36.000                                                  
 22  1  6  3 59 42.0000000  0  0
 22  1  6  3 59 43.0010000  0  7E03E05E08E09E13E15E18
  23993925.444                   126088265.969 0                        49.000  
                  23993924.318    96613089.591          53.000  
  23927764.296                   125741249.188 0                        47.000  
                  23927763.599    96346960.897          52.000  
  26078028.564                   137041023.258 0                        34.000  
                  26078028.868   105005459.452          41.000  
  26108406.154                   137200378.365 0                        35.000  
                  26108405.564   105127502.762          42.000  
  27641425.819                   145256310.874 0                        40.000  
                  27641425.104   111300289.824          45.000  
  23698320.341                   124535315.745 0                        48.000  
                  23698320.466    95423166.490          53.000  
  20822862.379                   109424875.526 0                        46.000  
                  20822861.074    83845025.977          51.000  
 22  1  6  3 59 44.0010000  0  9G01G03G04G09G17G19G21G31G32
  20510967.892    20510964.622   107785588.988 0  83989589.806 0        49.000  
        48.000                                                  
  20348826.058    20348823.574   106934481.823 0  83325574.852 0        50.000  
        49.000                                                  
  21467914.845    21467909.788   112815222.287 0  87907967.426 0        46.000  
        47.000                                                  
  24348711.553    24348709.427   127953015.40510  99703649.301 0        39.000  
        40.000                                                  
  22554821.379    22554815.035   118525999.360 0  92357641.249 0        46.000  
        44.000                                                  
  22876862.218                   120218945.205 0                        43.000  
