     2.11           OBSERVATION DATA    M (Mixed)           RINEX VERSION / TYPE
RTCM3TORINEX on                         2022-01-07 03:59    PGM / RUN BY / DATE
RTCM3TORINEX                                                MARKER NAME
                                                            OBSERVER / AGENCY
                                                            REC # / TYPE / VERS
                                                            ANT # / TYPE
         .0000         .0000         .0000                  APPROX POSITION XYZ
         .0000         .0000         .0000                  ANTENNA: DELTA H/E/N
     1     1                                                WAVELENGTH FACT L1/2
     9    C1    C2    L1    L2    S1    S2    C7    L7    S7# / TYPES OF OBSERV
  2022     1     7     3    59   20.0000000     GPS         TIME OF FIRST OBS
                                                            END OF HEADER
 22  1  7  3 59 20.0000000  0  5E04E09E11E12E19
  23562995.907                   123824535.831 0                        48.000  
                  23562993.995    94878539.219          53.000  
  23441598.286                   123187078.526 0                        47.000  
                  23441597.303    94390101.718          51.000  
  22004827.933                   115636153.469 0                        45.000  
                  22004823.734    88604315.263          50.000  
  24756048.261                   130093618.071 0                        38.000  
                  24756046.117    99682739.271          44.000  
  26442131.636                   138953808.717 0                        36.000  
                  26442129.653   106471937.599          40.000  
 22  1  7  3 59 21.0000000  0 10G01G03G04G06G09G17G19G21G31G32
  20590706.495    20590703.136   108205390.005 0  84315890.152 0        49.000  
        48.000                                                  
  20329888.467    20329884.590   106833607.518 0  83246970.205 0        50.000  
        49.000                                                  
  21366517.824    21366513.447   112282575.99010  87492918.441 0        47.000  
        48.000                                                  
  25004124.157    25004121.173   131397513.958 0 102388014.969 0        41.000  
        40.000                                                  
  24197767.574    24197762.445   127160152.82210  99085833.759 0        41.000  
        40.000                                                  
  22567309.431    22567302.998   118592527.895 0  92409727.844 0        46.000  
        44.000                                                  
  22829121.209                   119967345.00410                        44.000  
                                                                
  22405149.441                   117739461.678 0                        45.000  
                                                                
  22591517.865    22591511.200   118718733.938 0  92508107.024 0        44.000  
        41.000                                                  
  25523490.008    25523486.791   134126520.251 0 104513931.146 0        37.000  
        36.000                                                  
 22  1  7  3 59 20.0000000  0  0
 22  1  7  3 59 21.0000000  0  5E04E09E11E12E19
  23563062.844                   123824887.589 0                        48.000  
                  23563060.968    94878808.752          53.000  
  23441194.089                   123184954.138 0                        47.000  
                  23441192.963    94388473.943          51.000  
  22004958.502                   115636839.866 0                        45.000  
                  22004954.446    88604841.214          50.000  
  24756597.305                   130096502.751 0                        38.000  
                  24756595.035    99684949.615          44.000  
  26442618.352                   138956365.634 0                        36.000  
                  26442616.244   106473896.801          40.000  
 22  1  7  3 59 22.0000000  0 10G01G03G04G06G09G17G19G21G31G32
  20591074.919    20591071.613   108207326.459 0  84317399.073 0        49.000  
        48.000                                                  
  20329808.003    20329804.143   106833185.095 0  83246641.052 0        50.000  
        49.000                                                  
  21366071.438    21366067.186   112280230.87310  87491091.073 0        47.000  
        48.000                                                  
  25003449.137    25003446.135   131393966.743 0 102385250.906 0        41.000  
        40.000                                                  
  24197097.146    24197091.893   127156629.16610  99083088.032 0        41.000  
        40.000                                                  
  22567375.350    22567368.863   118592874.192 0  92409997.697 0        46.000  
        43.000                                                  
  22828919.986                   119966287.38210                        45.000  
                                                                
  22405627.331                   117741972.993 0                        45.000  
                                                                
  22591594.827    22591588.251   118719138.783 0  92508422.502 0        44.000  
        41.000                                                  
  25524146.587    25524143.371   134129970.332 0 104516619.530 0        37.000  
        36.000                                                  
 22  1  7  3 59 21.0000000  0  0
 22  1  7  3 59 22.0000000  0  5E04E09E11E12E19
  23563129.764                   123825239.515 0                        48.000  
                  23563127.995    94879078.405          53.000  
  23440789.856                   123182829.844 0                        47.000  
                  23440788.658    94386846.232          51.000  
  22005089.268                   115637526.577 0                        45.000  
                  22005085.122    88605367.389          50.000  
  24757146.080                   130099387.452 0                        38.000  
                  24757144.043    99687159.981          44.000  
  26443104.997                   138958922.478 0                        36.000  
                  26443102.800   106475855.932          40.000  
 22  1  7  3 59 23.0000000  0 10G01G03G04G06G09G17G19G21G31G32
  20591443.646    20591440.358   108209263.806 0  84318908.693 0        49.000  
        48.000                                                  
  20329727.735    20329723.929   106832763.376 0  83246312.438 0        50.000  
        49.000                                                  
  21365625.338    21365621.014   112277886.53910  87489264.333 0        47.000  
        48.000                                                  
  25002774.242    25002771.204   131390419.952 0 102382487.161 0        42.000  
        41.000                                                  
  24196426.754    24196421.518   127153106.00010  99080342.721 0        41.000  
        40.000                                                  
  22567441.465    22567434.854   118593221.458 0  92410268.291 0        46.000  
        43.000                                                  
  22828718.924                   119965230.82810                        45.000  
                                                                
  22406105.416                   117744484.978 0                        45.000  
                                                                
  22591672.111    22591665.428   118719544.682 0  92508738.777 0        44.000  
        41.000                                                  
  25524803.113    25524800.057   134133420.800 0 104519308.200 0        37.000  
        36.000                                                  
 22  1  7  3 59 22.0000000  0  0
 22  1  7  3 59 23.0000000  0  5E04E09E11E12E19
  23563196.916                   123825592.130 0                        48.000  
                  23563194.879    94879348.588          53.000  
  23440385.640                   123180706.133 0                        47.000  
                  23440384.622    94385218.978          51.000  
  22005220.051                   115638214.050 0                        45.000  
                  22005215.941    88605894.152          50.000  
  24757695.303                   130102272.698 0                        38.000  
                  24757693.033    99689370.741          44.000  
  26443591.607                   138961479.727 0                        36.000  
                  26443589.570   106477815.378          41.000  
 22  1  7  3 59 24.0000000  0 10G01G03G04G06G09G17G19G21G31G32
  20591812.499    20591809.068   108211201.894 0  84320418.888 0        49.000  
        48.000                                                  
  20329647.611    20329643.769   106832342.236 0  83245984.279 0        50.000  
        49.000                                                  
  21365179.274    21365174.950   112275542.87110  87487438.096 0        47.000  
        48.000                                                  
  25002099.436    25002096.273   131386873.404 0 102379723.617 0        42.000  
        41.000                                                  
  24195756.344    24195751.198   127149583.23210  99077597.703 0        41.000  
        40.000                                                  
  22567507.670    22567501.166   118593569.530 0  92410539.508 0        46.000  
        43.000                                                  
  22828517.951                   119964175.15710                        45.000  
                                                                
  22406583.556                   117746997.497 0                        45.000  
                                                                
  22591749.537    22591742.908   118719951.493 0  92509055.771 0        44.000  
        41.000                                                  
  25525459.675    25525456.851   134136871.482 0 104521997.055 0        37.000  
        36.000                                                  
 22  1  7  3 59 23.0000000  0  0
 22  1  7  3 59 24.0000000  0  5E04E09E11E12E19
  23563264.103                   123825945.276 0                        48.000  
                  23563262.227    94879619.183          53.000  
  23439981.586                   123178582.887 0                        47.000  
                  23439980.603    94383592.077          51.000  
  22005350.959                   115638902.182 0                        45.000  
                  22005346.814    88606421.426          50.000  
  24758244.400                   130105158.359 0                        38.000  
                  24758242.202    99691581.831          44.000  
  26444078.234                   138964037.239 0                        36.000  
                  26444076.268   106479775.051          40.000  
 22  1  7  3 59 25.0000000  0 10G01G03G04G06G09G17G19G21G31G32
  20592181.422    20592177.974   108213140.303 0  84321929.345 0        49.000  
        48.000                                                  
  20329567.486    20329563.626   106831921.237 0  83245656.225 0        50.000  
        49.000                                                  
  21364733.388    21364728.957   112273199.45010  87485612.051 0        47.000  
        48.000                                                  
  25001424.595    25001421.360   131383326.727 0 102376959.970 0        42.000  
        41.000                                                  
  24195085.934    24195080.823   127146060.39810  99074852.637 0        41.000  
        40.000                                                  
  22567573.982    22567567.478   118593918.005 0  92410811.062 0        46.000  
        43.000                                                  
  22828317.211                   119963119.98810                        45.000  
                                                                
  22407061.624                   117749510.142 0                        45.000  
                                                                
  22591827.107    22591820.424   118720358.804 0  92509373.147 0        44.000  
        41.000                                                  
  25526116.379    25526113.377   134140321.983 0 104524685.715 0        37.000  
        36.000                                                  
 22  1  7  3 59 24.0000000  0  0
 22  1  7  3 59 25.0000000  0  5E04E09E11E12E19
  23563331.255                   123826298.560 0                        48.000  
                  23563329.450    94879889.881          53.000  
  23439577.407                   123176459.690 0                        47.000  
                  23439576.495    94381965.208          51.000  
  22005481.921                   115639590.547 0                        45.000  
                  22005477.865    88606948.868          50.000  
  24758793.729                   130108044.007 0                        38.000  
                  24758791.388    99693792.901          44.000  
  26444564.825                   138966594.676 0                        36.000  
                  26444562.717   106481734.627          41.000  
 22  1  7  3 59 26.0000000  0 10G01G03G04G06G09G17G19G21G31G32
  20592550.311    20592546.898   108215078.902 0  84323439.940 0        49.000  
        48.000                                                  
  20329487.379    20329483.502   106831500.246 0  83245328.183 0        50.000  
        49.000                                                  
  21364287.395    21364283.071   112270856.11710  87483786.077 0        47.000  
        48.000                                                  
  25000749.664    25000746.304   131379779.748 0 102374196.099 0        42.000  
        41.000                                                  
  24194415.560    24194410.449   127142537.41010  99072107.439 0        41.000  
        40.000                                                  
  22567640.383    22567633.897   118594266.732 0  92411082.784 0        46.000  
        43.000                                                  
  22828116.488                   119962065.16310                        45.000  
                                                                
  22407539.673                   117752022.746 0                        45.000  
                                                                
  22591904.765    22591897.957   118720766.443 0  92509690.780 0        44.000  
        41.000                                                  
  25526772.958    25526769.885   134143772.128 0 104527374.168 0        37.000  
        36.000                                                  
 22  1  7  3 59 25.0000000  0  0
 22  1  7  3 59 26.0000000  0  5E04E09E11E12E19
  23563398.425                   123826651.803 0                        48.000  
                  23563396.584    94880160.548          53.000  
  23439173.442                   123174336.379 0                        47.000  
                  23439172.423    94380338.262          51.000  
  22005612.973                   115640279.001 0                        45.000  
                  22005608.827    88607476.387          50.000  
  24759343.023                   130110929.485 0                        38.000  
                  24759340.432    99696003.864          44.000  
  26445051.470                   138969151.786 0                        36.000  
                  26445049.165   106483693.978          41.000  
 22  1  7  3 59 27.0000000  0 10G01G03G04G06G09G17G19G21G31G32
  20592919.181    20592915.929   108217018.144 0  84324951.035 0        49.000  
        48.000                                                  
  20329407.290    20329403.395   106831079.734 0  83245000.511 0        50.000  
        49.000                                                  
  21363841.456    21363837.149   112268513.33910  87481960.545 0        47.000  
        48.000                                                  
  25000074.786    25000071.427   131376232.959 0 102371432.354 0        42.000  
        41.000                                                  
  24193745.150    24193740.075   127139014.70210  99069362.471 0        41.000  
        40.000                                                  
  22567706.838    22567700.423   118594616.195 0  92411355.093 0        46.000  
        43.000                                                  
  22827915.837                   119961011.15910                        45.000  
                                                                
  22408017.956                   117754535.793 0                        45.000  
                                                                
  22591982.406    22591975.723   118721174.903 0  92510009.075 0        44.000  
        41.000                                                  
  25527429.395    25527426.411   134147222.385 0 104530062.689 0        37.000  
        36.000                                                  
 22  1  7  3 59 26.0000000  0  0
 22  1  7  3 59 27.0000000  0  5E04E09E11E12E19
  23563465.791                   123827005.498 0                        48.000  
                  23563463.968    94880431.566          53.000  
  23438769.512                   123172213.429 0                        47.000  
                  23438768.547    94378711.583          51.000  
  22005743.971                   115640968.019 0                        45.000  
                  22005739.914    88608004.333          50.000  
  24759892.138                   130113815.266 0                        38.000  
                  24759889.476    99698215.051          44.000  
  26445537.972                   138971709.102 0                        36.000  
                  26445535.935   106485653.458          40.000  
 22  1  7  3 59 28.0000000  0 10G01G03G04G06G09G17G19G21G31G32
  20593288.444    20593285.067   108218958.193 0  84326462.757 0        49.000  
        48.000                                                  
  20329327.380    20329323.431   106830659.849 0  83244673.324 0        50.000  
        49.000                                                  
  21363395.785    21363391.460   112266171.29410  87480135.561 0        47.000  
        48.000                                                  
  24999399.856    24999396.586   131372686.467 0 102368668.849 0        42.000  
        41.000                                                  
  24193074.972    24193069.718   127135492.42510  99066617.842 0        41.000  
        40.000                                                  
  22567773.454    22567766.985   118594966.533 0  92411628.079 0        46.000  
        43.000                                                  
  22827715.435                   119959958.12910                        45.000  
                                                                
  22408496.309                   117757049.444 0                        45.000  
                                                                
  22592060.369    22592053.686   118721584.335 0  92510328.113 0        44.000  
        41.000                                                  
  25528086.081    25528082.990   134150672.962 0 104532751.418 0        37.000  
        36.000                                                  
 22  1  7  3 59 27.0000000  0  0
 22  1  7  3 59 28.0000000  0  5E04E09E11E12E19
  23563533.175                   123827359.795 0                        48.000  
                  23563531.334    94880703.037          53.000  
  23438365.547                   123170091.004 0                        47.000  
                  23438364.547    94377085.305          51.000  
  22005875.326                   115641657.743 0                        45.000  
                  22005871.270    88608532.817          50.000  
  24760441.307                   130116701.513 0                        38.000  
                  24760438.752    99700426.584          44.000  
  26446024.832                   138974266.753 0                        36.000  
                  26446022.723   106487613.236          41.000  
 22  1  7  3 59 29.0000000  0 10G01G03G04G06G09G17G19G21G31G32
  20593657.850    20593654.438   108220899.032 0  84327975.105 0        49.000  
        48.000                                                  
  20329247.595    20329243.646   106830240.584 0  83244346.630 0        50.000  
        49.000                                                  
  21362950.292    21362945.985   112263829.93010  87478311.135 0        47.000  
        47.000                                                  
  24998724.996    24998721.780   131369140.315 0 102365905.635 0        42.000  
        41.000                                                  
  24192404.687    24192399.523   127131970.57310  99063873.526 0        41.000  
        40.000                                                  
  22567840.284    22567833.690   118595317.740 0  92411901.760 0        46.000  
        43.000                                                  
  22827515.159                   119958906.03210                        45.000  
                                                                
  22408974.735                   117759563.662 0                        45.000  
                                                                
  22592138.546    22592131.827   118721994.735 0  92510647.914 0        44.000  
        41.000                                                  
  25528742.679    25528739.623   134154123.759 0 104535440.378 0        37.000  
        36.000                                                  
 22  1  7  3 59 28.0000000  0  0
 22  1  7  3 59 29.0000000  0  5E04E09E11E12E19
  23563600.631                   123827714.681 0                        48.000  
                  23563598.915    94880974.963          53.000  
  23437961.618                   123167969.075 0                        47.000  
                  23437960.707    94375459.416          51.000  
  22006006.913                   115642348.169 0                        45.000  
                  22006002.553    88609061.851          50.000  
  24760990.851                   130119588.224 0                        38.000  
                  24760988.081    99702638.472          45.000  
  26446511.494                   138976824.747 0                        36.000  
                  26446509.511   106489573.257          41.000  
 22  1  7  3 59 30.0000000  0 10G01G03G04G06G09G17G19G21G31G32
  20594027.328    20594024.023   108222840.339 0  84329487.810 0        49.000  
        48.000                                                  
  20329167.774    20329163.896   106829821.607 0  83244020.156 0        50.000  
        49.000                                                  
  21362504.799    21362500.457   112261488.96410  87476486.997 0        47.000  
        47.000                                                  
  24998050.137    24998046.920   131365594.140 0 102363142.383 0        42.000  
        41.000                                                  
  24191734.563    24191729.327   127128448.81510  99061129.304 0        41.000  
        40.000                                                  
  22567907.186    22567900.610   118595669.486 0  92412175.848 0        46.000  
        43.000                                                  
  22827315.008                   119957854.58410                        45.000  
                                                                
  22409453.160                   117762078.144 0                        46.000  
                                                                
  22592216.723    22592210.058   118722405.760 0  92510968.187 0        44.000  
        41.000                                                  
  25529399.365    25529396.292   134157574.529 0 104538129.267 0        37.000  
        36.000                                                  
 22  1  7  3 59 29.0000000  0  0
 22  1  7  3 59 30.0000000  0  5E04E09E11E12E19
  23563668.068                   123828069.834 0                        48.000  
                  23563666.478    94881247.094          53.000  
  23437557.832                   123165847.331 0                        47.000  
                  23437557.153    94373833.664          51.000  
  22006138.358                   115643038.970 0                        45.000  
                  22006133.998    88609591.166          50.000  
  24761540.270                   130122475.040 0                        38.000  
                  24761537.482    99704850.449          45.000  
  26446998.264                   138979382.744 0                        36.000  
                  26446996.263   106491533.276          41.000  
 22  1  7  3 59 31.0000000  0 10G01G03G04G06G09G17G19G21G31G32
  20594396.735    20594393.447   108224781.603 0  84331000.486 0        49.000  
        48.000                                                  
  20329088.024    20329084.200   106829402.418 0  83243693.513 0        50.000  
        49.000                                                  
  21362059.325    21362054.947   112259147.87010  87474662.770 0        47.000  
        47.000                                                  
  24997375.152    24997372.115   131362047.463 0 102360378.725 0        42.000  
        41.000                                                  
  24191064.242    24191059.042   127124926.65610  99058384.768 0        41.000  
        40.000                                                  
  22567974.177    22567967.601   118596021.274 0  92412449.971 0        46.000  
        43.000                                                  
  22827115.054                   119956803.24810                        45.000  
                                                                
  22409931.532                   117764592.373 0                        46.000  
                                                                
  22592295.025    22592288.252   118722816.927 0  92511288.585 0        44.000  
        41.000                                                  
  25530055.802    25530052.871   134161024.742 0 104540817.733 0        37.000  
        36.000                                                  
 22  1  7  3 59 30.0000000  0  0
 22  1  7  3 59 31.0000000  0  5E04E09E11E12E19
  23563735.649                   123828424.738 0                        48.000  
                  23563733.898    94881519.035          53.000  
  23437154.063                   123163725.267 0                        47.000  
                  23437153.241    94372207.667          51.000  
  22006269.802                   115643729.637 0                        45.000  
                  22006265.425    88610120.378          50.000  
  24762089.367                   130125361.461 0                        38.000  
                  24762086.686    99707062.137          44.000  
  26447485.070                   138981940.268 0                        36.000  
                  26447482.872   106493492.933          41.000  
 22  1  7  3 59 32.0000000  0 10G01G03G04G06G09G17G19G21G31G32
  20594766.177    20594762.924   108226723.422 0  84332513.586 0        49.000  
        48.000                                                  
  20329008.275    20329004.451   106828983.596 0  83243367.156 0        50.000  
        49.000                                                  
  21361613.939    21361609.472   112256807.23710  87472838.907 0        47.000  
        47.000                                                  
  24996700.311    24996697.166   131358500.841 0 102357615.138 0        42.000  
        41.000                                                  
  24190394.047    24190388.829   127121404.67510  99055640.377 0        41.000  
        40.000                                                  
  22568041.221    22568034.735   118596373.672 0  92412724.566 0        46.000  
        43.000                                                  
  22826915.100                   119955752.64810                        45.000  
                                                                
  22410410.082                   117767106.946 0                        46.000  
                                                                
  22592373.291    22592366.537   118723228.803 0  92511609.509 0        44.000  
        41.000                                                  
  25530712.310    25530709.540   134164474.944 0 104543506.248 0        37.000  
        36.000                                                  
 22  1  7  3 59 31.0000000  0  0
 22  1  7  3 59 32.0000000  0  5E04E09E11E12E19
  23563803.265                   123828779.992 0                        48.000  
                  23563801.550    94881791.240          53.000  
  23436750.348                   123161603.461 0                        47.000  
                  23436749.384    94370581.863          51.000  
  22006401.479                   115644420.746 0                        45.000  
                  22006396.905    88610649.921          50.000  
  24762638.625                   130128248.116 0                        38.000  
                  24762635.962    99709273.987          44.000  
  26447971.822                   138984497.860 0                        36.000  
                  26447969.642   106495452.640          41.000  
 22  1  7  3 59 33.0000000  0 10G01G03G04G06G09G17G19G21G31G32
  20595135.976    20595132.581   108228665.947 0  84334027.252 0        49.000  
        48.000                                                  
  20328928.651    20328924.862   106828565.322 0  83243041.231 0        50.000  
        49.000                                                  
  21361168.536    21361164.158   112254467.22310  87471015.522 0        47.000  
        47.000                                                  
  24996025.541    24996022.289   131354954.481 0 102354851.747 0        42.000  
        41.000                                                  
  24189723.833    24189718.758   127117883.02910  99052896.253 0        41.000  
        40.000                                                  
  22568108.409    22568102.012   118596726.868 0  92412999.784 0        46.000  
        43.000                                                  
  22826715.217                   119954702.90410                        45.000  
                                                                
  22410888.704                   117769622.024 0                        46.000  
                                                                
  22592451.825    22592445.107   118723641.554 0  92511931.156 0        44.000  
        41.000                                                  
  25531368.925    25531366.137   134167925.382 0 104546194.872 0        37.000  
        36.000                                                  
 22  1  7  3 59 32.0000000  0  0
 22  1  7  3 59 33.0000000  0  5E04E09E11E12E19
  23563870.810                   123829135.738 0                        48.000  
                  23563869.309    94882063.827          53.000  
  23436346.687                   123159482.081 0                        47.000  
                  23436345.651    94368956.392          51.000  
  22006533.192                   115645112.481 0                        45.000  
                  22006528.492    88611179.949          50.000  
  24763188.079                   130131135.149 0                        38.000  
                  24763185.363    99711486.114          45.000  
  26448458.646                   138987055.681 0                        36.000  
                  26448456.359   106497412.549          41.000  
 22  1  7  3 59 34.0000000  0 10G01G03G04G06G09G17G19G21G31G32
  20595505.704    20595502.398   108230609.162 0  84335541.441 0        49.000  
        48.000                                                  
  20328849.133    20328845.434   106828147.557 0  83242715.704 0        50.000  
        49.000                                                  
  21360723.276    21360718.951   112252127.81910  87469192.607 0        47.000  
        47.000                                                  
  24995350.628    24995347.429   131351408.329 0 102352088.507 0        43.000  
        42.000                                                  
  24189053.709    24189048.581   127114361.73510  99050152.371 0        41.000  
        40.000                                                  
  22568175.811    22568169.360   118597080.827 0  92413275.596 0        46.000  
        43.000                                                  
  22826515.620                   119953654.00910                        45.000  
                                                                
  22411367.415                   117772137.583 0                        46.000  
                                                                
  22592530.556    22592523.802   118724055.167 0  92512253.439 0        44.000  
        41.000                                                  
  25532025.450    25532022.806   134171375.956 0 104548883.619 0        37.000  
        36.000                                                  
 22  1  7  3 59 33.0000000  0  0
 22  1  7  3 59 34.0000000  0  5E04E09E11E12E19
  23563938.766                   123829491.983 0                        48.000  
                  23563937.140    94882336.794          53.000  
  23435942.812                   123157361.103 0                        47.000  
                  23435942.115    94367331.234          51.000  
  22006664.904                   115645804.814 0                        45.000  
                  22006660.330    88611710.449          50.000  
  24763737.588                   130134022.515 0                        38.000  
                  24763734.961    99713698.518          44.000  
  26448945.345                   138989613.751 0                        36.000  
                  26448943.075   106499372.633          41.000  
 22  1  7  3 59 35.0000000  0 10G01G03G04G06G09G17G19G21G31G32
  20595875.646    20595872.287   108232553.176 0  84337056.252 0        49.000  
        48.000                                                  
  20328769.795    20328766.078   106827730.413 0  83242390.655 0        50.000  
        49.000                                                  
  21360278.265    21360273.852   112249789.11610  87467370.239 0        47.000  
        47.000                                                  
  24994675.786    24994672.659   131347862.497 0 102349325.512 0        43.000  
        42.000                                                  
  24188383.710    24188378.546   127110840.85410  99047408.828 0        41.000  
        40.000                                                  
  22568243.427    22568236.976   118597435.648 0  92413552.090 0        46.000  
        43.000                                                  
  22826316.094                   119952606.09110                        45.000  
                                                                
  22411846.269                   117774653.711 0                        46.000  
                                                                
  22592609.359    22592602.729   118724469.737 0  92512576.485 0        44.000  
        41.000                                                  
  25532682.048    25532679.475   134174826.832 0 104551572.613 0        37.000  
        36.000                                                  
 22  1  7  3 59 34.0000000  0  0
 22  1  7  3 59 35.0000000  0  5E04E09E11E12E19
  23564006.597                   123829848.814 0                        48.000  
                  23564004.971    94882610.211          53.000  
  23435539.490                   123155240.641 0                        47.000  
                  23435538.614    94365706.458          51.000  
  22006796.796                   115646497.855 0                        45.000  
                  22006792.293    88612241.478          50.000  
  24764287.114                   130136910.326 0                        38.000  
                  24764284.469    99715911.254          45.000  
  26449432.276                   138992172.153 0                        36.000  
                  26449429.881   106501332.951          41.000  
 22  1  7  3 59 36.0000000  0 10G01G03G04G06G09G17G19G21G31G32
  20596245.678    20596242.301   108234497.412 0  84338571.237 0        49.000  
        48.000                                                  
  20328690.492    20328686.632   106827313.322 0  83242065.649 0        50.000  
        49.000                                                  
  21359833.255    21359828.859   112247450.55710  87465547.983 0        47.000  
        47.000                                                  
  24994001.088    24993997.943   131344316.404 0 102346562.339 0        43.000  
        42.000                                                  
  24187713.568    24187708.547   127107319.82410  99044665.185 0        41.000  
        40.000                                                  
  22568310.954    22568304.539   118597790.781 0  92413828.801 0        46.000  
        43.000                                                  
  22826116.801                   119951558.55510                        45.000  
                                                                
  22412325.123                   117777169.865 0                        46.000  
                                                                
  22592688.393    22592681.746   118724884.697 0  92512899.831 0        44.000  
        41.000                                                  
  25533338.752    25533336.054   134178277.365 0 104554261.372 0        37.000  
        36.000                                                  
 22  1  7  3 59 35.0000000  0  0
 22  1  7  3 59 36.0000000  0  5E04E09E11E12E19
  23564074.588                   123830205.661 0                        48.000  
                  23564072.873    94882883.643          53.000  
  23435136.007                   123153120.100 0                        47.000  
                  23435135.042    94364081.630          51.000  
  22006928.669                   115647191.027 0                        45.000  
                  22006924.095    88612772.606          50.000  
  24764836.765                   130139798.017 0                        38.000  
                  24764834.031    99718123.900          45.000  
  26449919.117                   138994730.320 0                        36.000  
                  26449916.758   106503293.101          41.000  
 22  1  7  3 59 37.0000000  0 10G01G03G04G06G09G17G19G21G31G32
  20596615.781    20596612.422   108236442.148 0  84340086.624 0        49.000  
        48.000                                                  
  20328611.243    20328607.330   106826896.569 0  83241740.913 0        50.000  
        49.000                                                  
  21359388.334    21359383.831   112245112.41210  87463726.057 0        47.000  
        47.000                                                  
  24993326.282    24993323.191   131340770.367 0 102343799.191 0        43.000  
        42.000                                                  
  24187043.533    24187038.655   127103798.96210  99041921.639 0        41.000  
        40.000                                                  
  22568378.642    22568372.263   118598146.475 0  92414105.974 0        46.000  
        43.000                                                  
  22825917.544                   119950511.67910                        45.000  
                                                                
  22412803.959                   117779686.319 0                        46.000  
                                                                
  22592767.482    22592760.870   118725300.339 0  92513223.707 0        44.000  
        41.000                                                  
  25533995.457    25533992.705   134181727.895 0 104556950.088 0        37.000  
        36.000                                                  
 22  1  7  3 59 36.0000000  0  0
 22  1  7  3 59 37.0000000  0  5E04E09E11E12E19
  23564142.473                   123830562.827 0                        48.000  
                  23564140.865    94883157.307          53.000  
  23434732.507                   123150999.794 0                        47.000  
                  23434731.649    94362456.982          51.000  
  22007060.793                   115647884.625 0                        45.000  
                  22007056.093    88613304.062          50.000  
  24765386.255                   130142685.887 0                        38.000  
                  24765383.450    99720336.682          44.000  
  26450405.851                   138997288.554 0                        36.000  
                  26450403.653   106505253.304          41.000  
 22  1  7  3 59 38.0000000  0 10G01G03G04G06G09G17G19G21G31G32
  20596985.831    20596982.507   108238387.091 0  84341602.162 0        49.000  
        48.000                                                  
  20328531.940    20328528.009   106826479.830 0  83241416.182 0        50.000  
        48.000                                                  
  21358943.306    21358938.803   112242774.38210  87461904.224 0        47.000  
        47.000                                                  
  24992651.458    24992648.510   131337224.048 0 102341035.827 0        43.000  
        42.000                                                  
  24186373.570    24186368.692   127100277.91410  99039177.977 0        41.000  
        40.000                                                  
  22568446.366    22568440.094   118598502.464 0  92414383.357 0        46.000  
        43.000                                                  
  22825718.304                   119949465.19310                        44.000  
                                                                
  22413282.831                   117782202.764 0                        46.000  
                                                                
  22592846.534    22592840.012   118725716.344 0  92513547.860 0        44.000  
        41.000                                                  
  25534651.965    25534649.231   134185178.114 0 104559638.574 0        37.000  
        36.000                                                  
 22  1  7  3 59 37.0000000  0  0
 22  1  7  3 59 38.0000000  0  5E04E09E11E12E19
  23564210.482                   123830919.973 0                        48.000  
                  23564208.856    94883430.969          53.000  
  23434329.096                   123148879.396 0                        47.000  
                  23434328.077    94360832.262          51.000  
  22007192.737                   115648578.308 0                        45.000  
                  22007188.163    88613835.589          50.000  
  24765935.781                   130145573.607 0                        38.000  
                  24765933.101    99722549.366          45.000  
  26450892.604                   138999846.498 0                        36.000  
                  26450890.531   106507213.292          41.000  
 22  1  7  3 59 39.0000000  0 10G01G03G04G06G09G17G19G21G31G32
  20597355.934    20597352.753   108240332.487 0  84343118.053 0        49.000  
        48.000                                                  
  20328452.620    20328448.724   106826063.370 0  83241091.663 0        50.000  
        48.000                                                  
  21358498.511    21358494.097   112240436.73010  87460082.665 0        47.000  
        47.000                                                  
  24991976.635    24991973.561   131333677.705 0 102338272.446 0        44.000  
        42.000                                                  
  24185703.482    24185698.639   127096756.94310  99036434.361 0        41.000  
        40.000                                                  
  22568514.268    22568507.924   118598858.962 0  92414661.151 0        46.000  
        43.000                                                  
  22825519.225                   119948419.31710                        44.000  
                                                                
  22413761.846                   117784719.444 0                        45.000  
                                                                
  22592925.873    22592919.261   118726132.950 0  92513872.500 0        44.000  
        41.000                                                  
  25535308.437    25535305.846   134188628.256 0 104562326.981 0        36.000  
        36.000                                                  
 22  1  7  3 59 38.0000000  0  0
 22  1  7  3 59 39.0000000  0  5E04E09E11E12E19
  23564278.385                   123831277.374 0                        48.000  
                  23564276.884    94883704.821          53.000  
  23433925.310                   123146759.166 0                        47.000  
                  23433924.577    94359207.666          51.000  
  22007324.879                   115649272.343 0                        45.000  
                  22007320.144    88614367.380          50.000  
  24766485.218                   130148461.442 0                        38.000  
                  24766482.645    99724762.107          45.000  
  26451379.391                   139002404.457 0                        36.000  
                  26451377.247   106509173.277          41.000  
 22  1  7  3 59 40.0000000  0 10G01G03G04G06G09G17G19G21G31G32
  20597726.502    20597723.143   108242279.109 0  84344634.903 0        49.000  
        48.000                                                  
  20328373.531    20328369.725   106825647.970 0  83240767.979 0        50.000  
        48.000                                                  
  21358053.822    21358049.426   112238100.21010  87458261.996 0        47.000  
        47.000                                                  
  24991301.972    24991298.898   131330132.120 0 102335509.643 0        44.000  
        42.000                                                  
  24185033.590    24185028.837   127093236.86610  99033691.431 0        41.000  
        40.000                                                  
  22568582.420    22568576.023   118599216.768 0  92414939.964 0        46.000  
        43.000                                                  
  22825320.379                   119947374.82410                        44.000  
                                                                
  22414240.932                   117787237.151 0                        45.000  
                                                                
  22593005.336    22592998.850   118726550.983 0  92514198.226 0        44.000  
        41.000                                                  
  25535965.052    25535962.443   134192079.109 0 104565015.955 0        36.000  
        36.000                                                  
 22  1  7  3 59 39.0000000  0  0
 22  1  7  3 59 40.0000000  0  5E04E09E11E12E19
  23564346.644                   123831635.797 0                        48.000  
                  23564344.983    94883979.457          53.000  
  23433522.184                   123144639.884 0                        47.000  
                  23433521.148    94357583.794          51.000  
  22007457.181                   115649967.514 0                        46.000  
                  22007452.410    88614900.042          50.000  
  24767034.851                   130151350.133 0                        38.000  
                  24767032.350    99726975.531          45.000  
  26451866.144                   139004963.146 0                        36.000  
                  26451864.017   106511133.836          41.000  
 22  1  7  3 59 41.0000000  0 10G01G03G04G06G09G17G19G21G31G32
  20598096.963    20598093.603   108244226.303 0  84346152.195 0        49.000  
        48.000                                                  
  20328294.586    20328290.762   106825232.980 0  83240444.606 0        50.000  
        48.000                                                  
  21357609.366    21357604.863   112235764.18710  87456441.716 0        47.000  
        47.000                                                  
  24990627.327    24990624.253   131326586.640 0 102332746.936 0        44.000  
        42.000                                                  
  24184363.698    24184359.052   127089716.99310  99030948.683 0        41.000  
        40.000                                                  
  22568650.662    22568644.176   118599575.234 0  92415219.288 0        46.000  
        43.000                                                  
  22825121.693                   119946331.09310                        44.000  
                                                                
  22414720.108                   117789755.225 0                        45.000  
                                                                
  22593085.014    22593078.546   118726969.740 0  92514524.537 0        44.000  
        41.000                                                  
  25536621.774    25536619.147   134195530.003 0 104567704.979 0        36.000  
        36.000                                                  
 22  1  7  3 59 40.0000000  0  0
 22  1  7  3 59 41.0000000  0  5E04E09E11E12E19
  23564414.833                   123831994.612 0                        48.000  
                  23564413.332    94884254.393          53.000  
  23433119.041                   123142520.896 0                        47.000  
                  23433118.148    94355960.157          51.000  
  22007589.716                   115650663.193 0                        46.000  
                  22007584.712    88615433.098          50.000  
  24767584.556                   130154239.112 0                        38.000  
                  24767582.001    99729189.158          45.000  
  26452353.253                   139007521.991 0                        36.000  
                  26452350.948   106513094.529          41.000  
 22  1  7  3 59 42.0000000  0 10G01G03G04G06G09G17G19G21G31G32
  20598467.602    20598464.082   108246173.735 0  84347669.670 0        49.000  
        48.000                                                  
  20328215.569    20328211.710   106824818.043 0  83240121.274 0        50.000  
        48.000                                                  
  21357164.910    21357160.246   112233428.31010  87454621.550 0        47.000  
        47.000                                                  
  24989952.557    24989949.555   131323040.914 0 102329984.016 0        44.000  
        42.000                                                  
  24183693.771    24183689.214   127086196.98110  99028205.817 0        41.000  
        40.000                                                  
  22568718.975    22568712.471   118599933.994 0  92415498.846 0        46.000  
        43.000                                                  
  22824923.150                   119945287.74410                        44.000  
                                                                
  22415199.248                   117792273.325 0                        45.000  
                                                                
  22593164.746    22593158.295   118727388.894 0  92514851.139 0        44.000  
        41.000                                                  
  25537278.532    25537275.727   134198980.635 0 104570393.759 0        36.000  
        36.000                                                  
 22  1  7  3 59 41.0000000  0  0
 22  1  7  3 59 42.0000000  0  5E04E09E11E12E19
  23564483.092                   123832353.434 0                        47.000  
                  23564481.645    94884529.332          53.000  
  23432715.684                   123140401.839 0                        47.000  
                  23432714.773    94354336.469          51.000  
  22007722.107                   115651359.009 0                        46.000  
                  22007717.211    88615966.254          50.000  
  24768134.368                   130157127.957 0                        38.000  
                  24768131.777    99731402.679          45.000  
  26452840.184                   139010080.619 0                        36.000  
                  26452838.022   106515055.003          41.000  
 22  1  7  3 59 43.0000000  0 10G01G03G04G06G09G17G19G21G31G32
  20598838.223    20598834.739   108248121.508 0  84349187.415 0        49.000  
        48.000                                                  
  20328136.660    20328132.711   106824403.274 0  83239798.081 0        50.000  
        48.000                                                  
  21356720.561    21356715.736   112231092.69210  87452801.590 0        47.000  
        47.000                                                  
  24989277.787    24989274.874   131319495.070 0 102327221.035 0        44.000  
        42.000                                                  
  24183023.986    24183019.501   127082676.96610  99025462.948 0        41.000  
        40.000                                                  
  22568787.289    22568780.856   118600293.194 0  92415778.724 0        46.000  
        43.000                                                  
  22824724.894                   119944244.91510                        44.000  
                                                                
  22415678.495                   117794791.560 0                        45.000  
                                                                
  22593244.603    22593238.170   118727808.579 0  92515178.175 0        44.000  
        41.000                                                  
  25537935.165    25537932.288   134202431.048 0 104573082.380 0        36.000  
        35.000                                                  
 22  1  7  3 59 42.0000000  0  0
 22  1  7  3 59 43.0000000  0  5E04E09E11E12E19
  23564551.423                   123832712.411 0                        48.000  
                  23564549.922    94884804.395          53.000  
  23432312.487                   123138282.860 0                        47.000  
                  23432311.612    94352712.838          51.000  
  22007854.481                   115652055.081 0                        46.000  
                  22007849.585    88616499.603          50.000  
  24768683.823                   130160016.815 0                        38.000  
                  24768681.482    99733616.224          44.000  
  26453327.151                   139012639.120 0                        36.000  
                  26453324.828   106517015.420          41.000  
 22  1  7  3 59 44.0000000  0 10G01G03G04G06G09G17G19G21G31G32
  20599208.916    20599205.557   108250069.887 0  84350705.635 0        49.000  
        48.000                                                  
  20328057.804    20328053.926   106823988.938 0  83239475.213 0        50.000  
        48.000                                                  
  21356276.158    21356271.351   112228757.59310  87450982.032 0        47.000  
        47.000                                                  
  24988603.106    24988600.158   131315949.364 0 102324458.143 0        44.000  
        42.000                                                  
  24182354.166    24182349.645   127079157.18010  99022720.256 0        41.000  
        40.000                                                  
  22568855.834    22568849.384   118600653.066 0  92416059.152 0        46.000  
        43.000                                                  
  22824526.619                   119943202.85410                        44.000  
                                                                
  22416157.725                   117797310.176 0                        45.000  
                                                                
  22593324.602    22593318.223   118728229.021 0  92515505.804 0        44.000  
        41.000                                                  
  25538591.923    25538588.868   134205881.578 0 104575771.100 0        36.000  
        35.000                                                  
 22  1  7  3 59 43.0000000  0  0
 22  1  7  3 59 44.0000000  0  5E04E09E11E12E19
  23564619.987                   123833071.778 0                        47.000  
                  23564618.325    94885079.754          53.000  
  23431909.291                   123136164.197 0                        47.000  
                  23431908.415    94351089.444          51.000  
  22007987.230                   115652751.657 0                        46.000  
                  22007982.137    88617033.348          49.000  
  24769233.795                   130162905.924 0                        38.000  
                  24769231.276    99735829.948          44.000  
  26453814.046                   139015197.760 0                        36.000  
                  26453811.705   106518975.944          41.000  
 22  1  7  3 59 45.0000000  0 10G01G03G04G06G09G17G19G21G31G32
  20599579.788    20599576.375   108252018.725 0  84352224.210 0        49.000  
        48.000                                                  
  20327979.037    20327975.088   106823574.888 0  83239152.581 0        50.000  
        48.000                                                  
  21355831.899    21355827.074   112226422.86310  87449162.767 0        47.000  
        47.000                                                  
  24987928.354    24987925.352   131312403.623 0 102321695.232 0        44.000  
        42.000                                                  
  24181684.310    24181679.860   127075637.47410  99019977.634 0        41.000  
        40.000                                                  
  22568924.344    22568918.018   118601013.466 0  92416339.995 0        46.000  
        43.000                                                  
  22824328.416                   119942161.40110                        44.000  
                                                                
  22416637.025                   117799829.045 0                        45.000  
                                                                
  22593404.834    22593398.312   118728650.105 0  92515833.915 0        44.000  
        41.000                                                  
  25539248.574    25539245.519   134209332.020 0 104578459.786 0        36.000  
        35.000                                                  
 22  1  7  3 59 44.0000000  0  0
 22  1  7  3 59 45.0000000  0  5E04E09E11E12E19
  23564688.318                   123833431.406 0                        47.000  
                  23564686.745    94885355.313          53.000  
  23431506.237                   123134045.710 0                        47.000  
                  23431505.308    94349466.186          51.000  
  22008119.657                   115653448.600 0                        46.000  
                  22008114.708    88617567.365          49.000  
  24769783.464                   130165795.149 0                        38.000  
                  24769781.070    99738043.774          44.000  
