     2.11           OBSERVATION DATA    M (Mixed)           RINEX VERSION / TYPE
RTCM3TORINEX on                         2022-01-08 21:59    PGM / RUN BY / DATE
RTCM3TORINEX                                                MARKER NAME
                                                            OBSERVER / AGENCY
                                                            REC # / TYPE / VERS
                                                            ANT # / TYPE
         .0000         .0000         .0000                  APPROX POSITION XYZ
         .0000         .0000         .0000                  ANTENNA: DELTA H/E/N
     1     1                                                WAVELENGTH FACT L1/2
     9    C1    C2    L1    L2    S1    S2    C7    L7    S7# / TYPES OF OBSERV
  2022     1     8    21    59   20.0010000     GPS         TIME OF FIRST OBS
                                                            END OF HEADER
 22  1  8 21 59 20.0010000  0  6E02E04E09E11E25E30
  24691075.118                   129752714.967 0                        47.000  
                  24691073.367    99420913.420          52.000  
  27331619.060                   143627939.609 0                        39.000  
                  27331617.344   110052582.180          44.000  
  25106244.301                   131934712.323 0                        40.000  
                  25106243.854   101092831.828          46.000  
  25080359.878                   131797899.622 0                        38.000  
                  25080355.482   100988048.167          42.000  
  27873291.294                   146475007.222 0                        40.000  
                  27873291.562   112234102.334          44.000  
  25088853.775                   131843154.610 0                        47.000  
                  25088852.327   101023001.280          51.000  
 22  1  8 21 59 21.0010000  0  9G08G10G13G15G16G18G23G26G27
  23686140.851    23686138.295   124471771.411 0  96990992.855 0        42.000  
        43.000                                                  
  21467232.838    21467230.050   112810608.269 0  87904645.427 0        50.000  
        47.000                                                  
  25119829.923                   132005300.474 0                        36.000  
                                                                
  23865267.084    23865262.474   125412703.964 0  97724188.616 0        40.000  
        38.000                                                  
  21046764.453                   110600740.865 0                        49.000  
                                                                
  21791133.109    21791127.266   114512876.114 0  89230820.655 0        46.000  
        44.000                                                  
  20754378.758    20754373.612   109064913.282 0  84986251.705 0        47.000  
        49.000                                                  
  22266034.970    22266032.611   117008244.238 0  91175644.237 0        45.000  
        45.000                                                  
  21091621.829    21091618.113   110837810.422 0  86367127.890 0        48.000  
        48.000                                                  
 22  1  8 21 59 20.0000000  0  0
 22  1  8 21 59 21.0010000  0  6E02E04E09E11E25E30
  24691480.727                   129754846.177 0                        47.000  
                  24691478.886    99422546.432          52.000  
  27331588.808                   143627779.937 0                        39.000  
                  27331586.949   110052459.829          44.000  
  25105801.953                   131932388.354 0                        40.000  
                  25105801.596   101091051.125          46.000  
  25080783.248                   131800125.272 0                        38.000  
                  25080779.014   100989753.528          42.000  
  27873908.115                   146478248.159 0                        40.000  
                  27873908.276   112236585.633          44.000  
  25088746.168                   131842587.809 0                        47.000  
                  25088744.452   101022566.972          51.000  
 22  1  8 21 59 22.0010000  0  9G08G10G13G15G16G18G23G26G27
  23685546.044    23685543.650   124468645.983 0  96988557.459 0        43.000  
        43.000                                                  
  21466811.486    21466808.770   112808394.600 0  87902920.495 0        50.000  
        47.000                                                  
  25119898.897                   132005663.037 0                        36.000  
                                                                
  23865250.466    23865245.928   125412616.565 0  97724120.501 0        40.000  
        37.000                                                  
  21046933.208                   110601627.086 0                        49.000  
                                                                
  21791592.808    21791587.054   114515291.898 0  89232703.078 0        46.000  
        44.000                                                  
  20754376.632    20754371.450   109064901.826 0  84986242.782 0        47.000  
        49.000                                                  
  22266600.828    22266598.559   117011217.767 0  91177961.294 0        46.000  
        45.000                                                  
  21091236.359    21091232.714   110835784.825 0  86365549.500 0        48.000  
        48.000                                                  
 22  1  8 21 59 21.0000000  0  0
 22  1  8 21 59 22.0010000  0  6E02E04E09E11E25E30
  24691886.371                   129756977.441 0                        47.000  
                  24691884.442    99424179.478          52.000  
  27331558.394                   143627620.405 0                        39.000  
                  27331556.679   110052337.589          44.000  
  25105359.606                   131930064.312 0                        40.000  
                  25105359.391   101089270.363          46.000  
  25081206.762                   131802350.620 0                        38.000  
                  25081202.456   100991458.683          42.000  
  27874524.775                   146481488.749 0                        39.000  
                  27874524.829   112239068.694          44.000  
  25088638.417                   131842021.170 0                        47.000  
                  25088636.666   101022132.798          51.000  
 22  1  8 21 59 23.0010000  0  9G08G10G13G15G16G18G23G26G27
  23684951.417    23684949.094   124465520.978 0  96986122.392 0        43.000  
        43.000                                                  
  21466390.581    21466387.526   112806181.768 0  87901196.206 0        50.000  
        47.000                                                  
  25119967.961                   132006026.568 0                        36.000  
                                                                
  23865234.027    23865229.524   125412530.136 0  97724053.180 0        40.000  
        37.000                                                  
  21047102.070                   110602514.305 0                        49.000  
                                                                
  21792052.614    21792046.860   114517708.220 0  89234585.926 0        46.000  
        44.000                                                  
  20754374.738    20754369.466   109064891.368 0  84986234.631 0        47.000  
        49.000                                                  
  22267166.776    22267164.542   117014191.995 0  91180278.862 0        46.000  
        45.000                                                  
  21090851.067    21090847.440   110833759.891 0  86363971.635 0        48.000  
        48.000                                                  
 22  1  8 21 59 22.0000000  0  0
 22  1  8 21 59 23.0010000  0  6E02E04E09E11E25E30
  24692292.034                   129759109.382 0                        47.000  
                  24692290.176    99425813.041          52.000  
  27331528.232                   143627461.672 0                        39.000  
                  27331526.409   110052215.971          44.000  
  25104917.580                   131927740.816 0                        40.000  
                  25104917.222   101087490.031          46.000  
  25081630.115                   131804576.352 0                        38.000  
                  25081626.005   100993164.091          42.000  
  27875141.578                   146484729.663 0                        40.000  
                  27875141.614   112241551.989          44.000  
  25088530.667                   131841455.332 0                        47.000  
                  25088528.898   101021699.236          51.000  
 22  1  8 21 59 24.0010000  0  9G08G10G13G15G16G18G23G26G27
  23684356.682    23684354.377   124462395.746 0  96983687.139 0        43.000  
        43.000                                                  
  21465969.498    21465966.478   112803969.091 0  87899472.047 0        50.000  
        47.000                                                  
  25120037.186                   132006390.407 0                        36.000  
                                                                
  23865217.677    23865213.191   125412444.069 0  97723986.089 0        40.000  
        37.000                                                  
  21047270.897                   110603401.870 0                        49.000  
                                                                
  21792512.455    21792506.648   114520124.445 0  89236468.703 0        46.000  
        44.000                                                  
  20754372.719    20754367.608   109064881.250 0  84986226.744 0        47.000  
        49.000                                                  
  22267732.724    22267730.579   117017166.229 0  91182596.440 0        46.000  
        45.000                                                  
  21090465.650    21090462.166   110831734.972 0  86362393.773 0        48.000  
        48.000                                                  
 22  1  8 21 59 23.0000000  0  0
 22  1  8 21 59 24.0010000  0  6E02E04E09E11E25E30
  24692697.643                   129761241.367 0                        47.000  
                  24692695.838    99427446.638          52.000  
  27331497.944                   143627303.074 0                        39.000  
                  27331496.174   110052094.454          44.000  
  25104475.411                   131925417.261 0                        40.000  
                  25104474.982   101085709.640          46.000  
  25082053.593                   131806801.762 0                        38.000  
                  25082049.465   100994869.289          42.000  
  27875758.309                   146487970.265 0                        39.000  
                  27875758.363   112244035.053          44.000  
  25088423.078                   131840889.670 0                        47.000  
                  25088421.273   101021265.809          51.000  
 22  1  8 21 59 25.0010000  0  9G08G10G13G15G16G18G23G26G27
  23683761.965    23683759.642   124459270.729 0  96981252.068 0        42.000  
        43.000                                                  
  21465548.504    21465545.627   112801757.021 0  87897748.356 0        50.000  
        47.000                                                  
  25120106.464                   132006754.925 0                        35.000  
                                                                
  23865201.380    23865196.984   125412358.721 0  97723919.590 0        40.000  
        37.000                                                  
  21047440.009                   110604290.195 0                        49.000  
                                                                
  21792972.332    21792966.543   114522540.978 0  89238351.707 0        46.000  
        44.000                                                  
  20754371.021    20754365.803   109064871.895 0  84986219.461 0        47.000  
        49.000                                                  
  22268298.796    22268296.599   117020140.888 0  91184914.375 0        46.000  
        45.000                                                  
  21090080.358    21090076.963   110829710.491 0  86360816.255 0        48.000  
        48.000                                                  
 22  1  8 21 59 24.0000000  0  0
 22  1  8 21 59 25.0010000  0  6E02E04E09E11E25E30
  24693103.323                   129763373.796 0                        47.000  
                  24693101.644    99429080.586          52.000  
  27331467.995                   143627145.051 0                        39.000  
                  27331466.119   110051973.367          44.000  
  25104033.438                   131923094.032 0                        40.000  
                  25104032.920   101083929.506          46.000  
  25082476.910                   131809027.327 0                        38.000  
                  25082472.997   100996574.596          42.000  
  27876375.005                   146491210.988 0                        39.000  
                  27876375.005   112246518.191          44.000  
  25088315.649                   131840324.586 0                        47.000  
                  25088313.719   101020832.823          51.000  
 22  1  8 21 59 26.0010000  0  9G08G10G13G15G16G18G23G26G27
  23683167.463    23683165.015   124456145.899 0  96978817.136 0        43.000  
        43.000                                                  
  21465127.795    21465124.758   112799545.553 0  87896025.135 0        50.000  
        47.000                                                  
  25120175.921                   132007120.216 0                        35.000  
                                                                
  23865185.226    23865180.831   125412274.126 0  97723853.687 0        40.000  
        37.000                                                  
  21047609.318                   110605179.277 0                        49.000  
                                                                
  21793432.227    21793426.527   114524957.813 0  89240234.959 0        46.000  
        44.000                                                  
  20754369.324    20754364.195   109064863.306 0  84986212.766 0        47.000  
        49.000                                                  
  22268864.941    22268862.761   117023116.017 0  91187232.650 0        46.000  
        45.000                                                  
  21089695.156    21089691.796   110827686.431 0  86359239.068 0        48.000  
        48.000                                                  
 22  1  8 21 59 25.0000000  0  0
 22  1  8 21 59 26.0010000  0  6E02E04E09E11E25E30
  24693509.254                   129765506.688 0                        47.000  
                  24693507.610    99430714.875          52.000  
  27331437.975                   143626987.594 0                        39.000  
                  27331436.170   110051852.726          44.000  
  25103591.609                   131920771.152 0                        40.000  
                  25103590.876   101082149.628          46.000  
  25082900.692                   131811253.021 0                        38.000  
                  25082896.618   100998279.987          42.000  
  27876991.612                   146494451.778 0                        39.000  
                  27876991.683   112249001.393          44.000  
  25088208.274                   131839760.078 0                        47.000  
                  25088206.309   101020400.273          51.000  
 22  1  8 21 59 27.0010000  0  9G08G10G13G15G16G18G23G26G27
  23682572.818    23682570.441   124453021.210 0  96976382.322 0        43.000  
        43.000                                                  
  21464707.051    21464704.032   112797334.631 0  87894302.327 0        50.000  
        47.000                                                  
  25120245.485                   132007486.148 0                        35.000  
                                                                
  23865169.252    23865164.927   125412190.239 0  97723788.306 0        40.000  
        37.000                                                  
  21047778.609                   110606069.075 0                        49.000  
                                                                
  21793892.265    21793886.440   114527374.915 0  89242118.422 0        46.000  
        44.000                                                  
  20754367.840    20754362.676   109064855.430 0  84986206.634 0        47.000  
        49.000                                                  
  22269431.210    22269428.959   117026091.521 0  91189551.225 0        46.000  
        45.000                                                  
  21089310.096    21089306.701   110825662.771 0  86357662.181 0        48.000  
        48.000                                                  
 22  1  8 21 59 26.0000000  0  0
 22  1  8 21 59 27.0010000  0  6E02E04E09E11E25E30
  24693915.042                   129767639.982 0                        47.000  
                  24693913.415    99432349.484          52.000  
  27331407.991                   143626830.684 0                        39.000  
                  27331406.347   110051732.479          44.000  
  25103149.547                   131918448.524 0                        40.000  
                  25103148.940   101080369.963          46.000  
  25083324.224                   131813478.785 0                        38.000  
                  25083320.042   100999985.447          42.000  
  27877608.450                   146497692.606 0                        39.000  
                  27877608.361   112251484.639          44.000  
  25088100.792                   131839196.097 0                        47.000  
                  25088099.023   101019968.137          51.000  
 22  1  8 21 59 28.0010000  0  9G08G10G13G15G16G18G23G26G27
  23681978.137    23681975.778   124449896.442 0  96973947.434 0        42.000  
        43.000                                                  
  21464286.397    21464283.430   112795124.015 0  87892579.770 0        50.000  
        47.000                                                  
  25120315.138                   132007852.531 0                        35.000  
                                                                
  23865153.330    23865149.042   125412106.839 0  97723723.322 0        40.000  
        37.000                                                  
  21047947.900                   110606959.346 0                        49.000  
                                                                
  21794352.268    21794346.460   114529792.047 0  89244001.899 0        46.000  
        44.000                                                  
  20754366.393    20754361.247   109064848.032 0  84986200.865 0        47.000  
        49.000                                                  
  22269997.604    22269995.192   117029067.187 0  91191869.909 0        46.000  
        45.000                                                  
  21088925.036    21088921.552   110823639.237 0  86356085.417 0        48.000  
        48.000                                                  
 22  1  8 21 59 27.0000000  0  0
 22  1  8 21 59 28.0010000  0  6E02E04E09E11E25E30
  24694321.222                   129769773.452 0                        47.000  
                  24694319.543    99433984.216          52.000  
  27331378.203                   143626674.028 0                        39.000  
                  27331376.559   110051612.445          44.000  
  25102707.664                   131916125.973 0                        40.000  
                  25102706.967   101078590.353          46.000  
  25083747.827                   131815704.376 0                        38.000  
                  25083743.502   101001690.782          42.000  
  27878224.985                   146500933.270 0                        39.000  
                  27878224.949   112253967.743          44.000  
  25087993.685                   131838632.422 0                        47.000  
                  25087991.702   101019536.223          51.000  
 22  1  8 21 59 29.0010000  0  9G08G10G13G15G16G18G23G26G27
  23681383.527    23681381.133   124446771.613 0  96971512.508 0        42.000  
        43.000                                                  
  21463865.956    21463862.865   112792913.779 0  87890857.511 0        50.000  
        47.000                                                  
  25120385.042                   132008219.393 0                        35.000  
                                                                
  23865137.534    23865133.245   125412023.950 0  97723658.742 0        40.000  
        37.000                                                  
  21048117.424                   110607850.165 0                        49.000  
                                                                
  21794812.127    21794806.462   114532209.269 0  89245885.443 0        46.000  
        45.000                                                  
  20754365.214    20754359.924   109064841.192 0  84986195.532 0        47.000  
        49.000                                                  
  22270563.892    22270561.533   117032043.061 0  91194188.783 0        46.000  
        45.000                                                  
  21088540.066    21088536.492   110821615.938 0  86354508.818 0        48.000  
        48.000                                                  
 22  1  8 21 59 28.0000000  0  0
 22  1  8 21 59 29.0010000  0  6E02E04E09E11E25E30
  24694727.153                   129771907.166 0                        47.000  
                  24694725.527    99435619.135          52.000  
  27331348.576                   143626517.728 0                        39.000  
                  27331346.754   110051492.686          44.000  
  25102265.656                   131913803.542 0                        40.000  
                  25102265.066   101076810.814          46.000  
  25084171.251                   131817929.900 0                        38.000  
                  25084167.034   101003396.035          42.000  
  27878841.502                   146504173.805 0                        39.000  
                  27878841.609   112256450.741          44.000  
  25087886.525                   131838069.105 0                        47.000  
                  25087884.523   101019104.586          51.000  
 22  1  8 21 59 30.0010000  0  9G08G10G13G15G16G18G23G26G27
  23680788.953    23680786.612   124443647.132 0  96969077.832 0        42.000  
        43.000                                                  
  21463445.427    21463442.371   112790704.272 0  87889135.822 0        50.000  
        47.000                                                  
  25120454.892                   132008587.088 0                        35.000  
                                                                
  23865121.934    23865117.592   125411941.964 0  97723594.852 0        40.000  
        37.000                                                  
  21048287.019                   110608741.876 0                        49.000  
                                                                
  21795272.165    21795266.411   114534626.944 0  89247769.342 0        46.000  
        44.000                                                  
  20754364.124    20754358.888   109064835.232 0  84986190.893 0        47.000  
        49.000                                                  
  22271130.322    22271128.052   117035019.519 0  91196508.101 0        46.000  
        45.000                                                  
  21088155.185    21088151.486   110819593.196 0  86352932.653 0        48.000  
        48.000                                                  
 22  1  8 21 59 29.0000000  0  0
 22  1  8 21 59 30.0010000  0  6E02E04E09E11E25E30
  24695133.244                   129774041.452 0                        47.000  
                  24695131.708    99437254.504          52.000  
  27331318.932                   143626362.123 0                        39.000  
                  27331317.145   110051373.468          44.000  
  25101823.791                   131911481.574 0                        40.000  
                  25101823.237   101075031.646          46.000  
  25084594.568                   131820155.679 0                        38.000  
                  25084590.637   101005101.491          42.000  
  27879458.341                   146507414.578 0                        39.000  
                  27879458.269   112258933.928          44.000  
  25087779.328                   131837506.498 0                        47.000  
                  25087777.488   101018673.504          51.000  
 22  1  8 21 59 31.0010000  0  9G08G10G13G15G16G18G23G26G27
  23680194.433    23680192.074   124440522.743 0  96966643.257 0        42.000  
        43.000                                                  
  21463025.201    21463022.020   112788495.283 0  87887414.530 0        50.000  
        47.000                                                  
  25120524.903                   132008955.447 0                        35.000  
                                                                
  23865106.478    23865102.153   125411860.660 0  97723531.498 0        40.000  
        37.000                                                  
  21048456.953                   110609634.271 0                        49.000  
                                                                
  21795732.364    21795726.538   114537044.841 0  89249653.421 0        46.000  
        44.000                                                  
  20754363.123    20754357.923   109064829.959 0  84986186.788 0        47.000  
        49.000                                                  
  22271696.770    22271694.590   117037996.338 0  91198827.696 0        46.000  
        45.000                                                  
  21087770.304    21087766.606   110817570.824 0  86351356.786 0        48.000  
        48.000                                                  
 22  1  8 21 59 30.0000000  0  0
 22  1  8 21 59 31.0010000  0  6E02E04E09E11E25E30
  24695539.461                   129776176.128 0                        47.000  
                  24695537.924    99438890.161          52.000  
  27331289.448                   143626207.034 0                        39.000  
                  27331287.732   110051254.623          44.000  
  25101381.872                   131909159.853 0                        40.000  
                  25101381.479   101073252.663          46.000  
  25085018.046                   131822381.494 0                        38.000  
                  25085014.204   101006806.994          42.000  
  27880074.894                   146510655.356 0                        39.000  
                  27880074.929   112261417.120          44.000  
  25087672.221                   131836944.387 0                        47.000  
                  25087670.524   101018242.798          51.000  
 22  1  8 21 59 32.0010000  0  9G08G10G13G15G16G18G23G26G27
  23679599.931    23679597.554   124437398.324 0  96964208.636 0        42.000  
        43.000                                                  
  21462605.082    21462601.687   112786286.680 0  87885693.535 0        50.000  
        47.000                                                  
  25120595.164                   132009324.310 0                        35.000  
                                                                
  23865091.128    23865086.732   125411779.889 0  97723468.562 0        40.000  
        37.000                                                  
  21048626.923                   110610527.212 0                        49.000  
                                                                
  21796192.491    21796186.719   114539462.844 0  89251537.581 0        46.000  
        44.000                                                  
  20754362.212    20754357.012   109064825.246 0  84986183.116 0        47.000  
        49.000                                                  
  22272263.254    22272261.074   117040973.383 0  91201147.471 0        46.000  
        45.000                                                  
  21087385.441    21087381.814   110815548.669 0  86349781.081 0        48.000  
        48.000                                                  
 22  1  8 21 59 31.0000000  0  0
 22  1  8 21 59 32.0010000  0  6E02E04E09E11E25E30
  24695945.785                   129778311.045 0                        47.000  
                  24695944.176    99440526.006          52.000  
  27331259.857                   143626052.254 0                        39.000  
                  27331258.159   110051136.038          44.000  
  25100939.917                   131906838.279 0                        40.000  
                  25100939.649   101071473.795          46.000  
  25085441.649                   131824607.249 0                        38.000  
                  25085437.754   101008512.443          42.000  
  27880691.750                   146513896.023 0                        39.000  
                  27880691.732   112263900.233          44.000  
  25087565.365                   131836382.645 0                        47.000  
                  25087563.596   101017812.375          51.000  
 22  1  8 21 59 33.0010000  0  9G08G10G13G15G16G18G23G26G27
  23679005.357    23679002.998   124434274.252 0  96961774.307 0        42.000  
        43.000                                                  
  21462184.839    21462181.497   112784078.839 0  87883973.140 0        51.000  
        47.000                                                  
  25120665.371                   132009694.030 0                        35.000  
                                                                
  23865075.975    23865071.562   125411700.037 0  97723406.330 0        40.000  
        37.000                                                  
  21048796.911                   110611421.078 0                        49.000  
                                                                
  21796652.726    21796646.918   114541881.314 0  89253422.108 0        46.000  
        44.000                                                  
  20754361.408    20754356.315   109064821.463 0  84986180.166 0        47.000  
        49.000                                                  
  22272829.934    22272827.736   117043951.041 0  91203467.722 0        46.000  
        45.000                                                  
  21087000.704    21086997.165   110813527.125 0  86348205.847 0        48.000  
        48.000                                                  
 22  1  8 21 59 32.0000000  0  0
 22  1  8 21 59 33.0010000  0  6E02E04E09E11E25E30
  24696352.001                   129780446.575 0                        47.000  
                  24696350.572    99442162.324          52.000  
  27331230.480                   143625898.219 0                        39.000  
                  27331228.943   110051018.020          44.000  
  25100498.445                   131904517.201 0                        40.000  
                  25100497.927   101069695.306          46.000  
  25085865.199                   131826833.278 0                        38.000  
                  25085861.393   101010218.104          42.000  
  27881308.357                   146517136.942 0                        39.000  
                  27881308.428   112266383.550          44.000  
  25087458.687                   131835821.664 0                        47.000  
                  25087456.792   101017382.527          51.000  
 22  1  8 21 59 34.0010000  0  9G08G10G13G15G16G18G23G26G27
  23678410.711    23678408.478   124431149.921 0  96959339.766 0        42.000  
        43.000                                                  
  21461764.899    21461761.254   112781871.112 0  87882252.834 0        51.000  
        47.000                                                  
  25120735.703                   132010064.017 0                        35.000  
                                                                
  23865060.840    23865056.498   125411620.457 0  97723344.346 0        40.000  
        37.000                                                  
  21048966.988                   110612315.233 0                        49.000  
                                                                
  21797112.871    21797107.171   114544299.637 0  89255306.506 0        46.000  
        44.000                                                  
  20754360.764    20754355.743   109064817.966 0  84986177.443 0        47.000  
        49.000                                                  
  22273396.507    22273394.434   117046928.655 0  91205787.939 0        46.000  
        45.000                                                  
  21086616.091    21086612.481   110811505.531 0  86346630.581 0        48.000  
        48.000                                                  
 22  1  8 21 59 33.0000000  0  0
 22  1  8 21 59 34.0010000  0  6E02E04E09E11E25E30
  24696758.575                   129782582.094 0                        47.000  
                  24696756.877    99443798.630          52.000  
  27331201.121                   143625744.316 0                        39.000  
                  27331199.692   110050900.086          44.000  
  25100056.687                   131902195.967 0                        40.000  
                  25100056.241   101067916.714          46.000  
  25086289.034                   131829058.975 0                        38.000  
                  25086284.906   101011923.517          42.000  
  27881925.070                   146520377.507 0                        39.000  
                  27881925.142   112268866.571          44.000  
  25087352.044                   131835260.782 0                        47.000  
                  25087350.222   101016952.763          51.000  
 22  1  8 21 59 35.0010000  0  9G08G10G13G15G16G18G23G26G27
  23677816.209    23677813.904   124428025.494 0  96956905.129 0        42.000  
        43.000                                                  
  21461344.905    21461341.117   112779663.700 0  87880532.770 0        50.000  
        47.000                                                  
  25120806.143                   132010434.356 0                        35.000  
                                                                
  23865045.794    23865041.470   125411541.353 0  97723282.683 0        40.000  
        37.000                                                  
  21049137.173                   110613209.856 0                        49.000  
                                                                
  21797573.034    21797567.334   114546717.966 0  89257190.923 0        46.000  
        44.000                                                  
  20754360.139    20754355.261   109064814.937 0  84986175.081 0        47.000  
        49.000                                                  
  22273963.152    22273960.990   117049906.395 0  91208108.263 0        46.000  
        45.000                                                  
  21086231.317    21086227.850   110809484.074 0  86345055.420 0        48.000  
        48.000                                                  
 22  1  8 21 59 34.0000000  0  0
 22  1  8 21 59 35.0010000  0  6E02E04E09E11E25E30
  24697164.917                   129784717.774 0                        47.000  
                  24697163.398    99445435.058          52.000  
  27331172.066                   143625590.647 0                        39.000  
                  27331170.386   110050782.351          45.000  
  25099614.947                   131899874.786 0                        40.000  
                  25099614.465   101066138.142          46.000  
  25086712.405                   131831284.484 0                        38.000  
                  25086708.331   101013628.766          42.000  
  27882541.641                   146523617.865 0                        39.000  
                  27882541.730   112271349.432          44.000  
  25087245.295                   131834700.191 0                        47.000  
                  25087243.472   101016523.215          51.000  
 22  1  8 21 59 36.0010000  0  9G08G10G13G15G16G18G23G26G27
  23677221.760    23677219.437   124424901.679 0  96954470.990 0        42.000  
        43.000                                                  
  21460924.930    21460921.213   112777457.315 0  87878813.511 0        51.000  
        47.000                                                  
  25120876.851                   132010805.901 0                        35.000  
                                                                
  23865030.910    23865026.621   125411463.441 0  97723221.961 0        40.000  
        37.000                                                  
  21049307.661                   110614105.669 0                        49.000  
                                                                
  21798033.429    21798027.640   114549137.046 0  89259075.918 0        46.000  
        44.000                                                  
  20754359.781    20754354.903   109064813.109 0  84986173.657 0        47.000  
        49.000                                                  
  22274529.975    22274527.849   117052885.048 0  91210429.293 0        46.000  
        45.000                                                  
  21085846.776    21085843.309   110807463.492 0  86343480.943 0        48.000  
        48.000                                                  
 22  1  8 21 59 35.0000000  0  0
 22  1  8 21 59 36.0010000  0  6E02E04E09E11E25E30
  24697571.276                   129786854.337 0                        47.000  
                  24697569.900    99447072.167          52.000  
  27331143.226                   143625438.012 0                        39.000  
                  27331141.385   110050665.388          44.000  
  25099173.511                   131897554.374 0                        40.000  
                  25099173.011   101064360.162          46.000  
  25087136.044                   131833510.568 0                        38.000  
                  25087131.862   101015334.487          42.000  
  27883158.426                   146526858.749 0                        39.000  
                  27883158.569   112273832.707          44.000  
  25087138.777                   131834140.615 0                        47.000  
                  25087136.955   101016094.449          51.000  
 22  1  8 21 59 37.0010000  0  9G08G10G13G15G16G18G23G26G27
  23676627.311    23676625.078   124421777.962 0  96952036.932 0        42.000  
        43.000                                                  
  21460505.276    21460501.398   112775251.428 0  87877094.631 0        51.000  
        47.000                                                  
  25120947.648                   132011178.063 0                        35.000  
                                                                
  23865016.203    23865011.897   125411386.183 0  97723161.764 0        40.000  
        37.000                                                  
  21049478.186                   110615002.164 0                        49.000  
                                                                
  21798493.717    21798487.981   114551556.349 0  89260961.091 0        46.000  
        44.000                                                  
  20754359.621    20754354.689   109064811.947 0  84986172.760 0        47.000  
        49.000                                                  
  22275096.834    22275094.672   117055864.027 0  91212750.571 0        46.000  
        45.000                                                  
  21085462.288    21085458.786   110805443.259 0  86341906.733 0        48.000  
        48.000                                                  
 22  1  8 21 59 36.0000000  0  0
 22  1  8 21 59 37.0010000  0  6E02E04E09E11E25E30
  24697978.225                   129788991.269 0                        47.000  
                  24697976.635    99448709.561          52.000  
  27331114.349                   143625285.852 0                        39.000  
                  27331112.509   110050548.795          45.000  
  25098731.985                   131895234.214 0                        40.000  
                  25098731.503   101062582.364          46.000  
  25087559.647                   131835736.705 0                        38.000  
                  25087555.447   101017040.202          42.000  
  27883774.961                   146530099.619 0                        39.000  
                  27883775.247   112276315.989          44.000  
  25087032.475                   131833581.526 0                        47.000  
                  25087030.563   101015666.054          51.000  
 22  1  8 21 59 38.0010000  0  9G08G10G13G15G16G18G23G26G27
  23676032.809    23676030.718   124418654.054 0  96949602.718 0        42.000  
        43.000                                                  
  21460085.604    21460081.637   112773045.706 0  87875375.887 0        51.000  
        47.000                                                  
  25121018.570                   132011550.491 0                        34.000  
                                                                
  23865001.497    23864997.209   125411309.236 0  97723101.815 0        40.000  
        37.000                                                  
  21049648.853                   110615898.975 0                        49.000  
                                                                
  21798954.041    21798948.323   114553975.520 0  89262846.162 0        46.000  
        44.000                                                  
  20754359.370    20754354.510   109064811.122 0  84986172.113 0        47.000  
        49.000                                                  
  22275663.854    22275661.549   117058843.017 0  91215071.855 0        46.000  
        45.000                                                  
  21085077.836    21085074.298   110803423.021 0  86340332.519 0        48.000  
        48.000                                                  
 22  1  8 21 59 37.0000000  0  0
 22  1  8 21 59 38.0010000  0  6E02E04E09E11E25E30
  24698384.745                   129791128.220 0                        47.000  
                  24698383.262    99450346.960          52.000  
  27331085.187                   143625133.783 0                        39.000  
                  27331083.489   110050432.295          45.000  
  25098290.388                   131892913.958 0                        40.000  
                  25098289.941   101060804.516          46.000  
  25087983.268                   131837962.505 0                        38.000  
                  25087978.979   101018745.696          42.000  
  27884391.674                   146533340.183 0                        39.000  
                  27884391.960   112278799.011          44.000  
  25086926.136                   131833022.578 0                        47.000  
                  25086924.224   101015237.771          51.000  
 22  1  8 21 59 39.0010000  0  9G08G10G13G15G16G18G23G26G27
  23675438.396    23675436.287   124415530.395 0  96947168.696 0        42.000  
        43.000                                                  
  21459665.843    21459662.037   112770840.647 0  87873657.661 0        51.000  
        47.000                                                  
  25121089.617                   132011923.709 0                        35.000  
                                                                
  23864987.005    23864982.699   125411233.096 0  97723042.501 0        40.000  
        37.000                                                  
  21049819.680                   110616796.609 0                        49.000  
                                                                
  21799414.580    21799408.879   114556395.058 0  89264731.514 0        46.000  
        44.000                                                  
  20754359.299    20754354.546   109064811.125 0  84986172.106 0        47.000  
        49.000                                                  
  22276230.749    22276228.515   117061822.492 0  91217393.530 0        46.000  
        45.000                                                  
  21084693.509    21084689.971   110801403.278 0  86338758.691 0        48.000  
        48.000                                                  
 22  1  8 21 59 38.0000000  0  0
 22  1  8 21 59 39.0010000  0  6E02E04E09E11E25E30
  24698791.426                   129793265.684 0                        47.000  
                  24698790.086    99451984.757          52.000  
  27331056.525                   143624982.383 0                        39.000  
                  27331054.774   110050316.276          45.000  
  25097848.916                   131890594.088 0                        40.000  
                  25097848.541   101059026.949          46.000  
  25088406.781                   131840188.501 0                        38.000  
                  25088402.618   101020451.331          42.000  
  27885008.352                   146536580.914 0                        39.000  
                  27885008.567   112281282.154          44.000  
  25086819.798                   131832464.270 0                        47.000  
                  25086817.975   101014809.981          51.000  
 22  1  8 21 59 40.0010000  0  9G08G10G13G15G16G18G23G26G27
  23674843.983    23674841.803   124412406.736 0  96944734.694 0        42.000  
        43.000                                                  
  21459246.385    21459242.472   112768636.005 0  87871939.760 0        51.000  
        47.000                                                  
  25121160.808                   132012297.464 0                        35.000  
                                                                
  23864972.692    23864968.279   125411157.554 0  97722983.623 0        39.000  
        37.000                                                  
  21049990.562                   110617694.826 0                        49.000  
                                                                
  21799874.921    21799869.310   114558814.748 0  89266616.982 0        46.000  
        44.000                                                  
  20754359.317    20754354.582   109064811.698 0  84986172.564 0        47.000  
        49.000                                                  
  22276797.786    22276795.499   117064802.245 0  91219715.407 0        46.000  
        45.000                                                  
  21084309.146    21084305.608   110799383.794 0  86337185.069 0        48.000  
        48.000                                                  
 22  1  8 21 59 39.0000000  0  0
 22  1  8 21 59 40.0010000  0  6E02E04E09E11E25E30
  24699198.233                   129795403.430 0                        47.000  
                  24699196.839    99453622.773          52.000  
  27331027.863                   143624831.368 0                        39.000  
                  27331025.969   110050200.554          44.000  
  25097407.462                   131888274.398 0                        40.000  
                  25097407.051   101057249.522          46.000  
  25088830.509                   131842414.462 0                        38.000  
                  25088826.149   101022156.927          42.000  
  27885625.102                   146539821.534 0                        39.000  
                  27885625.352   112283765.233          44.000  
  25086713.691                   131831906.373 0                        47.000  
                  25086711.797   101014382.501          51.000  
 22  1  8 21 59 41.0010000  0  9G08G10G13G15G16G18G23G26G27
  23674249.623    23674247.408   124409283.154 0  96942300.720 0        42.000  
        43.000                                                  
  21458827.053    21458823.050   112766431.838 0  87870222.221 0        51.000  
        47.000                                                  
  25121231.962                   132012671.817 0                        35.000  
                                                                
  23864958.486    23864954.001   125411082.638 0  97722925.229 0        39.000  
        37.000                                                  
  21050161.622                   110618593.671 0                        49.000  
                                                                
  21800335.335    21800329.742   114561234.591 0  89268502.581 0        46.000  
        44.000                                                  
  20754359.603    20754354.742   109064812.912 0  84986173.510 0        47.000  
        49.000                                                  
  22277364.788    22277362.698   117067782.298 0  91222037.542 0        46.000  
        45.000                                                  
  21083924.944    21083921.335   110797364.620 0  86335611.692 0        48.000  
        48.000                                                  
 22  1  8 21 59 40.0000000  0  0
 22  1  8 21 59 41.0010000  0  6E02E04E09E11E25E30
  24699605.128                   129797541.504 0                        47.000  
                  24699603.699    99455261.031          52.000  
  27330999.130                   143624680.778 0                        39.000  
                  27330997.486   110050085.171          45.000  
  25096966.097                   131885954.884 0                        40.000  
                  25096965.686   101055472.236          46.000  
  25089254.023                   131844640.406 0                        38.000  
                  25089249.627   101023862.533          42.000  
  27886241.833                   146543062.119 0                        39.000  
                  27886242.047   112286248.269          44.000  
  25086607.657                   131831348.927 0                        47.000  
                  25086605.673   101013955.366          51.000  
 22  1  8 21 59 42.0010000  0  9G08G10G13G15G16G18G23G26G27
  23673655.300    23673653.066   124406159.962 0  96939867.066 0        42.000  
        43.000                                                  
  21458407.774    21458403.736   112764228.466 0  87868505.313 0        51.000  
        47.000                                                  
  25121303.277                   132013047.054 0                        35.000  
                                                                
  23864944.370    23864939.938   125411008.669 0  97722867.609 0        39.000  
        37.000                                                  
  21050333.004                   110619493.487 0                        49.000  
                                                                
  21800795.873    21800790.369   114563654.980 0  89270388.589 0        46.000  
        44.000                                                  
  20754359.978    20754355.189   109064815.102 0  84986175.211 0        47.000  
        49.000                                                  
  22277932.023    22277929.860   117070763.005 0  91224360.164 0        46.000  
        45.000                                                  
  21083540.671    21083537.133   110795346.084 0  86334038.800 0        48.000  
        48.000                                                  
 22  1  8 21 59 41.0000000  0  0
 22  1  8 21 59 42.0010000  0  6E02E04E09E11E25E30
  24700012.077                   129799680.233 0                        47.000  
                  24700010.630    99456899.790          52.000  
  27330970.611                   143624530.997 0                        39.000  
                  27330968.842   110049970.378          45.000  
  25096524.768                   131883635.933 0                        40.000  
                  25096524.446   101053695.371          46.000  
  25089677.608                   131846866.719 0                        38.000  
                  25089673.338   101025568.383          42.000  
  27886858.672                   146546303.012 0                        39.000  
                  27886858.654   112288731.555          44.000  
  25086501.836                   131830792.266 0                        47.000  
                  25086499.763   101013528.830          51.000  
 22  1  8 21 59 43.0010000  0  9G08G10G13G15G16G18G23G26G27
  23673060.905    23673058.635   124403036.479 0  96937433.197 0        42.000  
        43.000                                                  
  21457988.442    21457984.564   112762025.212 0  87866788.491 0        51.000  
        47.000                                                  
  25121374.575                   132013422.575 0                        34.000  
                                                                
  23864930.468    23864925.929   125410934.979 0  97722810.175 0        39.000  
        37.000                                                  
  21050504.189                   110620393.579 0                        49.000  
                                                                
  21801256.376    21801250.854   114566075.187 0  89272274.471 0        46.000  
        45.000                                                  
  20754360.425    20754355.725   109064817.575 0  84986177.141 0        47.000  
        49.000                                                  
  22278499.239    22278497.112   117073743.680 0  91226682.754 0        46.000  
        45.000                                                  
  21083156.630    21083153.074   110793327.497 0  86332465.893 0        48.000  
        48.000                                                  
 22  1  8 21 59 42.0000000  0  0
 22  1  8 21 59 43.0010000  0  6E02E04E09E11E25E30
  24700419.044                   129801818.941 0                        47.000  
                  24700417.776    99458538.547          52.000  
  27330941.967                   143624381.258 0                        39.000  
                  27330940.466   110049855.676          45.000  
  25096083.492                   131881316.844 0                        40.000  
                  25096083.331   101051918.414          46.000  
  25090101.229                   131849092.633 0                        38.000  
                  25090096.976   101027273.973          42.000  
  27887475.367                   146549543.559 0                        39.000  
                  27887475.278   112291214.558          44.000  
  25086395.801                   131830235.721 0                        47.000  
                  25086393.943   101013102.385          51.000  
 22  1  8 21 59 44.0010000  0  9G08G10G13G15G16G18G23G26G27
  23672466.491    23672464.115   124399913.032 0  96934999.324 0        42.000  
        43.000                                                  
  21457569.306    21457565.268   112759822.404 0  87865072.012 0        51.000  
        47.000                                                  
  25121446.015                   132013798.660 0                        34.000  
                                                                
  23864916.584    23864911.991   125410861.897 0  97722753.200 0        39.000  
        37.000                                                  
  21050675.624                   110621294.282 0                        49.000  
                                                                
  21801716.896    21801711.482   114568495.552 0  89274160.466 0        46.000  
        44.000                                                  
  20754360.997    20754356.261   109064820.648 0  84986179.538 0        47.000  
        49.000                                                  
  22279066.420    22279064.454   117076724.607 0  91229005.566 0        46.000  
        45.000                                                  
  21082772.482    21082769.051   110791309.204 0  86330893.188 0        48.000  
        48.000                                                  
 22  1  8 21 59 43.0000000  0  0
 22  1  8 21 59 44.0010000  0  6E02E04E09E11E25E30
  24700826.190                   129803957.948 0                        47.000  
                  24700824.796    99460177.525          52.000  
  27330913.466                   143624231.962 0                        39.000  
                  27330912.018   110049741.276          45.000  
  25095642.145                   131878997.923 0                        40.000  
                  25095642.056   101050141.578          46.000  
  25090525.011                   131851318.539 0                        38.000  
                  25090520.490   101028979.528          42.000  
  27888091.724                   146552783.985 0                        39.000  
                  27888091.920   112293697.498          44.000  
  25086289.963                   131829679.584 0                        47.000  
                  25086288.033   101012676.252          51.000  
 22  1  8 21 59 45.0010000  0  9G08G10G13G15G16G18G23G26G27
  23671872.257    23671869.898   124396790.356 0  96932566.084 0        42.000  
        42.000                                                  
  21457150.349    21457146.239   112757620.778 0  87863356.455 0        51.000  
        47.000                                                  
  25121517.831                   132014176.042 0                        34.000  
                                                                
  23864902.949    23864898.393   125410790.141 0  97722697.327 0        39.000  
        37.000                                                  
  21050847.256                   110622196.340 0                        48.000  
                                                                
  21802177.577    21802172.324   114570916.818 0  89276047.165 0        46.000  
        44.000                                                  
  20754361.854    20754357.173   109064825.099 0  84986183.004 0        47.000  
        49.000                                                  
  22279633.868    22279631.956   117079706.582 0  91231329.176 0        46.000  
        45.000                                                  
  21082388.602    21082385.296   110789291.938 0  86329321.297 0        48.000  
        48.000                                                  
 22  1  8 21 59 44.0000000  0  0
 22  1  8 21 59 45.0010000  0  6E02E04E09E11E25E30
  24701233.514                   129806098.000 0                        47.000  
                  24701231.942    99461817.305          52.000  
  27330885.268                   143624083.817 0                        39.000  
                  27330883.857   110049627.764          45.000  
  25095201.048                   131876679.932 0                        40.000  
                  25095200.888   101048365.464          46.000  
  25090948.435                   131853545.186 0                        38.000  
                  25090944.308   101030685.652          42.000  
