     2.11           OBSERVATION DATA    M (Mixed)           RINEX VERSION / TYPE
RTCM3TORINEX on                         2022-01-19 03:59    PGM / RUN BY / DATE
RTCM3TORINEX                                                MARKER NAME
                                                            OBSERVER / AGENCY
                                                            REC # / TYPE / VERS
                                                            ANT # / TYPE
         .0000         .0000         .0000                  APPROX POSITION XYZ
         .0000         .0000         .0000                  ANTENNA: DELTA H/E/N
     1     1                                                WAVELENGTH FACT L1/2
     9    C1    C2    L1    L2    S1    S2    C7    L7    S7# / TYPES OF OBSERV
  2022     1    19     3    59   20.0010000     GPS         TIME OF FIRST OBS
                                                            END OF HEADER
 22  1 19  3 59 20.0010000  0  8E03E07E08E13E15E24E25E26
  24327240.492                   127841024.168 0                        47.000  
                  24327238.420    97956115.384          51.000  
  27391910.805                   143945637.635 0                        42.000  
                  27391909.608   110296009.164          46.000  
  21856338.425                   114855492.677 0                        48.000  
                  21856336.102    88006162.969          53.000  
  23748778.316                   124800551.382 0                        48.000  
                  23748776.404    95626398.065          53.000  
  24521714.305                   128862823.215 0                        46.000  
                  24521714.716    98739048.554          51.000  
  28672866.387                   150677226.154 0                        35.000  
                  28672863.153   115453978.815          41.000  
  28277627.168                   148599265.268 0                        34.000  
                  28277628.044   113861774.616          43.000  
  27492686.770                   144474601.832 0                        42.000  
                  27492683.589   110701319.007          44.000  
 22  1 19  3 59 21.0010000  0  9G01G03G04G06G09G17G19G21G31
  22073460.098    22073457.150   115996566.124 0  90386936.584 0        45.000  
        45.000                                                  
  20395381.403    20395378.204   107178266.90410  83515728.541 0        49.000  
        48.000                                                  
  20442383.795    20442379.006   107425047.305 0  83707835.501 0        48.000  
        50.000                                                  
  23116818.733    23116815.642   121480221.644 0  94659129.922 0        45.000  
        43.000                                                  
  22384595.044    22384590.452   117632471.398 0  91661669.955 0        47.000  
        44.000                                                  
  23221928.829    23221922.164   122031320.089 0  95090383.594 0        44.000  
        41.000                                                  
  22818100.722                   119910511.127 0                        45.000  
                                                                
  24074737.653                   126513585.803 0                        41.000  
                                                                
  23372628.896    23372622.195   122823489.846 0  95706620.257 0        42.000  
        39.000                                                  
 22  1 19  3 59 20.0000000  0  0
 22  1 19  3 59 21.0010000  0  8E03E07E08E13E15E24E25E26
  24327538.780                   127842592.387 0                        47.000  
                  24327536.832    97957317.006          51.000  
  27391436.883                   143943147.130 0                        42.000  
                  27391435.578   110294100.855          46.000  
  21856164.845                   114854581.147 0                        48.000  
                  21856162.701    88005464.525          53.000  
  23748716.650                   124800228.050 0                        48.000  
                  23748714.899    95626150.321          53.000  
  24522178.810                   128865263.106 0                        46.000  
                  24522179.007    98740918.083          51.000  
  28672802.434                   150676890.571 0                        35.000  
                  28672799.181   115453721.677          41.000  
  28277201.474                   148597029.227 0                        34.000  
                  28277202.654   113860061.277          43.000  
  27492177.234                   144471923.831 0                        42.000  
                  27492173.929   110699267.023          44.000  
 22  1 19  3 59 22.0010000  0  9G01G03G04G06G09G17G19G21G31
  22074079.224    22074076.205   115999819.635 0  90389471.792 0        45.000  
        45.000                                                  
  20395505.217    20395502.019   107178917.46510  83516235.468 0        49.000  
        48.000                                                  
  20442210.966    20442206.266   107424139.137 0  83707127.847 0        48.000  
        50.000                                                  
  23116245.298    23116242.332   121477208.537 0  94656782.044 0        45.000  
        43.000                                                  
  22384061.993    22384057.401   117629670.379 0  91659487.350 0        47.000  
        44.000                                                  
  23222289.766    23222283.172   122033216.934 0  95091861.667 0        44.000  
        41.000                                                  
  22818291.456                   119911513.558 0                        45.000  
                                                                
  24075352.508                   126516816.640 0                        41.000  
                                                                
  23373066.259    23373059.611   122825788.503 0  95708411.393 0        42.000  
        39.000                                                  
 22  1 19  3 59 21.0000000  0  0
 22  1 19  3 59 22.0010000  0  8E03E07E08E13E15E24E25E26
  24327837.211                   127844160.900 0                        47.000  
                  24327835.388    97958518.862          51.000  
  27390962.907                   143940656.846 0                        42.000  
                  27390961.728   110292192.727          46.000  
  21855991.480                   114853670.006 0                        48.000  
                  21855989.389    88004766.383          53.000  
  23748655.288                   124799905.287 0                        48.000  
                  23748653.608    95625903.012          53.000  
  24522643.065                   128867703.423 0                        46.000  
                  24522643.405    98742787.936          51.000  
  28672738.820                   150676555.530 0                        35.000  
                  28672735.443   115453464.984          41.000  
  28276776.013                   148594793.474 0                        34.000  
                  28276777.246   113858348.174          43.000  
  27491667.860                   144469246.094 0                        42.000  
                  27491664.465   110697215.257          44.000  
 22  1 19  3 59 23.0010000  0  9G01G03G04G06G09G17G19G21G31
  22074698.493    22074695.313   116003073.082 0  90392006.940 0        45.000  
        45.000                                                  
  20395629.032    20395625.833   107179567.99410  83516742.371 0        50.000  
        48.000                                                  
  20442038.226    20442033.526   107423231.095 0  83706420.273 0        48.000  
        50.000                                                  
  23115671.846    23115668.933   121474195.352 0  94654434.119 0        45.000  
        43.000                                                  
  22383528.924    22383524.404   117626869.272 0  91657304.660 0        47.000  
        44.000                                                  
  23222650.738    23222644.055   122035113.821 0  95093339.760 0        44.000  
        41.000                                                  
  22818482.243                   119912516.235 0                        45.000  
                                                                
  24075967.274                   126520047.239 0                        41.000  
                                                                
  23373503.746    23373497.009   122828087.305 0  95710202.688 0        42.000  
        39.000                                                  
 22  1 19  3 59 22.0000000  0  0
 22  1 19  3 59 23.0010000  0  8E03E07E08E13E15E24E25E26
  24328135.909                   127845729.189 0                        47.000  
                  24328133.765    97959720.537          51.000  
  27390489.074                   143938166.285 0                        42.000  
                  27390487.805   110290284.368          46.000  
  21855818.115                   114852758.740 0                        48.000  
                  21855815.899    88004068.131          53.000  
  23748593.926                   124799582.588 0                        48.000  
                  23748591.996    95625655.747          53.000  
  24523107.392                   128870143.642 0                        46.000  
                  24523107.767    98744657.715          51.000  
  28672674.902                   150676220.569 0                        35.000  
                  28672671.847   115453208.294          41.000  
  28276350.498                   148592557.521 0                        34.000  
                  28276351.677   113856634.900          43.000  
  27491158.218                   144466568.143 0                        42.000  
                  27491154.858   110695163.325          44.000  
 22  1 19  3 59 24.0010000  0  9G01G03G04G06G09G17G19G21G31
  22075317.673    22075314.546   116006326.737 0  90394542.256 0        45.000  
        45.000                                                  
  20395752.882    20395749.683   107180218.75210  83517249.458 0        50.000  
        48.000                                                  
  20441865.575    20441860.751   107422323.406 0  83705712.980 0        48.000  
        50.000                                                  
  23115098.447    23115095.498   121471182.336 0  94652086.317 0        45.000  
        43.000                                                  
  22382995.927    22382991.406   117624068.335 0  91655122.111 0        47.000  
        44.000                                                  
  23223011.692    23223005.116   122037010.988 0  95094818.073 0        44.000  
        41.000                                                  
  22818673.102                   119913519.426 0                        45.000  
                                                                
  24076582.130                   126523277.834 0                        41.000  
                                                                
  23373941.269    23373934.496   122830386.505 0  95711994.261 0        42.000  
        39.000                                                  
 22  1 19  3 59 23.0000000  0  0
 22  1 19  3 59 24.0010000  0  8E03E07E08E13E15E24E25E26
  24328434.340                   127847297.538 0                        47.000  
                  24328432.195    97960922.258          51.000  
  27390014.973                   143935675.711 0                        42.000  
                  27390013.883   110288376.006          46.000  
  21855644.714                   114851847.611 0                        48.000  
                  21855642.516    88003370.000          53.000  
  23748532.564                   124799260.222 0                        48.000  
                  23748530.759    95625408.739          53.000  
  24523571.915                   128872584.044 0                        46.000  
                  24523572.183    98746527.633          51.000  
  28672611.289                   150675885.930 0                        35.000  
                  28672608.072   115452951.892          41.000  
  28275925.054                   148590321.641 0                        34.000  
                  28275926.216   113854921.696          43.000  
  27490648.682                   144463890.248 0                        42.000  
                  27490645.144   110693111.424          44.000  
 22  1 19  3 59 25.0010000  0  9G01G03G04G06G09G17G19G21G31
  22075936.942    22075933.868   116009581.075 0  90397078.111 0        45.000  
        45.000                                                  
  20395876.875    20395873.712   107180870.24310  83517757.104 0        50.000  
        48.000                                                  
  20441692.978    20441688.154   107421416.559 0  83705006.343 0        48.000  
        50.000                                                  
  23114525.119    23114522.296   121468169.990 0  94649739.030 0        45.000  
        43.000                                                  
  22382462.948    22382458.552   117621268.055 0  91652940.080 0        47.000  
        44.000                                                  
  23223372.879    23223366.231   122038908.919 0  95096296.975 0        44.000  
        41.000                                                  
  22818864.301                   119914523.621 0                        45.000  
                                                                
  24077196.949                   126526508.929 0                        41.000  
                                                                
  23374378.917    23374372.198   122832686.593 0  95713786.535 0        42.000  
        39.000                                                  
 22  1 19  3 59 24.0000000  0  0
 22  1 19  3 59 25.0010000  0  8E03E07E08E13E15E24E25E26
  24328732.770                   127848866.417 0                        47.000  
                  24328730.751    97962124.382          51.000  
  27389541.158                   143933185.593 0                        42.000  
                  27389540.068   110286467.998          46.000  
  21855471.527                   114850937.111 0                        48.000  
                  21855469.312    88002672.342          53.000  
  23748471.309                   124798938.674 0                        48.000  
                  23748469.575    95625162.353          53.000  
  24524036.474                   128875025.100 0                        46.000  
                  24524036.688    98748398.051          51.000  
  28672547.961                   150675552.095 0                        35.000  
                  28672544.387   115452696.092          41.000  
  28275499.664                   148588086.328 0                        34.000  
                  28275500.826   113853208.919          43.000  
  27490139.219                   144461212.898 0                        42.000  
                  27490135.699   110691059.937          44.000  
 22  1 19  3 59 26.0010000  0  9G01G03G04G06G09G17G19G21G31
  22076556.371    22076553.369   116012835.880 0  90399614.311 0        45.000  
        45.000                                                  
  20396000.922    20395997.741   107181522.21310  83518265.140 0        50.000  
        48.000                                                  
  20441520.524    20441515.682   107420510.339 0  83704300.203 0        48.000  
        50.000                                                  
  23113951.952    23113949.111   121465158.061 0  94647392.085 0        45.000  
        43.000                                                  
  22381930.094    22381925.894   117618468.219 0  91650758.382 0        47.000  
        44.000                                                  
  23223734.065    23223727.561   122040807.396 0  95097776.310 0        44.000  
        41.000                                                  
  22819055.535                   119915528.587 0                        46.000  
                                                                
  24077811.858                   126529740.282 0                        41.000  
                                                                
  23374816.690    23374810.007   122834987.347 0  95715579.337 0        42.000  
        39.000                                                  
 22  1 19  3 59 25.0000000  0  0
 22  1 19  3 59 26.0010000  0  8E03E07E08E13E15E24E25E26
  24329031.362                   127850435.599 0                        47.000  
                  24329029.342    97963326.744          51.000  
  27389067.415                   143930695.737 0                        42.000  
                  27389066.235   110284560.191          46.000  
  21855298.216                   114850027.003 0                        48.000  
                  21855296.107    88001974.991          53.000  
  23748410.232                   124798617.712 0                        48.000  
                  23748408.463    95624916.431          53.000  
  24524501.211                   128877466.605 0                        46.000  
                  24524501.247    98750268.812          51.000  
  28672484.544                   150675218.848 0                        35.000  
                  28672480.881   115452440.744          41.000  
  28275074.399                   148585851.358 0                        34.000  
                  28275075.454   113851496.394          43.000  
  27489629.844                   144458535.856 0                        42.000  
                  27489626.163   110689008.704          44.000  
 22  1 19  3 59 27.0010000  0  9G01G03G04G06G09G17G19G21G31
  22077175.730    22077172.799   116016090.876 0  90402150.674 0        45.000  
        45.000                                                  
  20396124.986    20396121.806   107182174.43610  83518773.360 0        50.000  
        48.000                                                  
  20441348.213    20441343.317   107419604.487 0  83703594.342 0        48.000  
        50.000                                                  
  23113378.768    23113375.980   121462146.333 0  94645045.276 0        45.000  
        43.000                                                  
  22381397.400    22381393.129   117615668.553 0  91648576.822 0        47.000  
        44.000                                                  
  23224095.448    23224088.944   122042706.184 0  95099255.887 0        44.000  
        41.000                                                  
  22819246.984                   119916534.073 0                        46.000  
                                                                
  24078426.838                   126532971.653 0                        41.000  
                                                                
  23375254.588    23375247.816   122837288.509 0  95717372.467 0        42.000  
        39.000                                                  
 22  1 19  3 59 26.0000000  0  0
 22  1 19  3 59 27.0010000  0  8E03E07E08E13E15E24E25E26
  24329329.953                   127852004.839 0                        47.000  
                  24329327.934    97964529.151          51.000  
  27388593.510                   143928205.864 0                        42.000  
                  27388592.438   110282652.359          46.000  
  21855124.958                   114849117.039 0                        48.000  
                  21855122.992    88001277.742          53.000  
  23748349.192                   124798297.095 0                        48.000  
                  23748347.512    95624670.756          53.000  
  24524965.681                   128879908.275 0                        46.000  
                  24524965.931    98752139.704          51.000  
  28672421.091                   150674885.914 0                        35.000  
                  28672417.571   115452185.630          41.000  
  28274649.117                   148583616.406 0                        34.000  
                  28274650.117   113849783.907          43.000  
  27489120.434                   144455858.862 0                        42.000  
                  27489116.771   110686957.501          44.000  
 22  1 19  3 59 28.0010000  0  9G01G03G04G06G09G17G19G21G31
  22077795.249    22077792.264   116019346.239 0  90404687.322 0        45.000  
        45.000                                                  
  20396249.176    20396245.977   107182827.05410  83519281.894 0        50.000  
        48.000                                                  
  20441175.938    20441170.953   107418699.151 0  83702888.885 0        48.000  
        50.000                                                  
  23112805.690    23112802.867   121459134.920 0  94642698.732 0        45.000  
        43.000                                                  
  22380864.671    22380860.364   117612869.209 0  91646395.513 0        47.000  
        44.000                                                  
  23224456.778    23224450.452   122044605.403 0  95100735.789 0        44.000  
        41.000                                                  
  22819438.540                   119917540.237 0                        46.000  
                                                                
  24079041.801                   126536203.161 0                        41.000  
                                                                
  23375692.665    23375685.875   122839590.238 0  95719166.005 0        42.000  
        39.000                                                  
 22  1 19  3 59 27.0000000  0  0
 22  1 19  3 59 28.0010000  0  8E03E07E08E13E15E24E25E26
  24329628.580                   127853574.273 0                        47.000  
                  24329626.615    97965731.700          51.000  
  27388119.856                   143925716.116 0                        42.000  
                  27388118.748   110280744.642          46.000  
  21854952.057                   114848207.366 0                        48.000  
                  21854949.823    88000580.722          53.000  
  23748288.508                   124797976.958 0                        48.000  
                  23748286.561    95624425.457          53.000  
  24525430.454                   128882350.279 0                        46.000  
                  24525430.526    98754010.845          51.000  
  28672357.584                   150674553.444 0                        35.000  
                  28672354.278   115451930.885          41.000  
  28274223.816                   148581381.677 0                        34.000  
                  28274224.888   113848071.594          43.000  
  27488611.006                   144453182.061 0                        42.000  
                  27488607.218   110684906.454          44.000  
 22  1 19  3 59 29.0010000  0  9G01G03G04G06G09G17G19G21G31
  22078414.803    22078411.801   116022601.642 0  90407224.005 0        45.000  
        45.000                                                  
  20396373.401    20396370.131   107183479.72510  83519790.476 0        50.000  
        48.000                                                  
  20441003.681    20440998.713   107417794.008 0  83702183.586 0        48.000  
        50.000                                                  
  23112232.648    23112229.789   121456123.539 0  94640352.185 0        45.000  
        43.000                                                  
  22380332.013    22380327.635   117610069.863 0  91644214.206 0        47.000  
        44.000                                                  
  23224818.054    23224811.889   122046504.733 0  95102215.812 0        44.000  
        41.000                                                  
  22819630.042                   119918546.726 0                        46.000  
                                                                
  24079656.674                   126539434.520 0                        40.000  
                                                                
  23376130.778    23376123.970   122841892.204 0  95720959.761 0        42.000  
        39.000                                                  
 22  1 19  3 59 28.0000000  0  0
 22  1 19  3 59 29.0010000  0  8E03E07E08E13E15E24E25E26
  24329927.279                   127855143.592 0                        47.000  
                  24329925.260    97966934.168          51.000  
  27387646.041                   143923226.199 0                        42.000  
                  27387644.790   110278836.783          46.000  
  21854778.960                   114847297.678 0                        48.000  
                  21854776.655    87999883.688          53.000  
  23748227.557                   124797656.983 0                        48.000  
                  23748225.574    95624180.288          53.000  
  24525895.192                   128884792.291 0                        46.000  
                  24525895.317    98755882.000          51.000  
  28672294.364                   150674221.153 0                        35.000  
                  28672291.129   115451676.270          41.000  
  28273798.676                   148579146.868 0                        34.000  
                  28273799.427   113846359.224          43.000  
  27488101.489                   144450505.154 0                        42.000  
                  27488097.862   110682855.318          44.000  
 22  1 19  3 59 30.0010000  0  9G01G03G04G06G09G17G19G21G31
  22079034.304    22079031.410   116025857.586 0  90409761.097 0        45.000  
        45.000                                                  
  20396497.680    20396494.536   107184132.98910  83520299.513 0        50.000  
        48.000                                                  
  20440831.566    20440826.670   107416889.579 0  83701478.831 0        48.000  
        50.000                                                  
  23111659.643    23111656.855   121453112.637 0  94638006.032 0        45.000  
        42.000                                                  
  22379799.391    22379795.067   117607271.039 0  91642033.307 0        47.000  
        44.000                                                  
  23225179.616    23225173.415   122048404.718 0  95103696.294 0        44.000  
        41.000                                                  
  22819821.795                   119919554.090 0                        46.000  
                                                                
  24080271.636                   126542666.240 0                        40.000  
                                                                
  23376569.052    23376562.172   122844194.907 0  95722754.068 0        42.000  
        39.000                                                  
 22  1 19  3 59 29.0000000  0  0
 22  1 19  3 59 30.0010000  0  8E03E07E08E13E15E24E25E26
  24330225.834                   127856713.299 0                        47.000  
                  24330224.047    97968136.932          51.000  
  27387172.172                   143920736.621 0                        42.000  
                  27387171.065   110276929.160          46.000  
  21854605.880                   114846388.460 0                        48.000  
                  21854603.611    87999187.017          53.000  
  23748166.713                   124797337.694 0                        48.000  
                  23748164.962    95623935.629          53.000  
  24526359.911                   128887234.830 0                        46.000  
                  24526360.108    98757753.557          51.000  
  28672231.089                   150673889.525 0                        35.000  
                  28672228.123   115451422.159          41.000  
  28273373.465                   148576912.497 0                        34.000  
                  28273374.216   113844647.164          43.000  
  27487591.882                   144447828.635 0                        42.000  
                  27487588.559   110680804.486          44.000  
 22  1 19  3 59 31.0010000  0  9G01G03G04G06G09G17G19G21G31
  22079653.859    22079650.964   116029113.829 0  90412298.429 0        45.000  
        46.000                                                  
  20396622.031    20396618.868   107184786.59110  83520808.815 0        50.000  
        48.000                                                  
  20440659.577    20440654.717   107415985.619 0  83700774.443 0        48.000  
        50.000                                                  
  23111086.619    23111083.903   121450102.043 0  94635660.119 0        45.000  
        42.000                                                  
  22379266.841    22379262.481   117604472.490 0  91639852.622 0        47.000  
        44.000                                                  
  23225541.160    23225535.030   122050305.082 0  95105177.108 0        44.000  
        41.000                                                  
  22820013.547                   119920562.073 0                        46.000  
                                                                
  24080886.509                   126545898.045 0                        40.000  
                                                                
  23377007.325    23377000.481   122846498.135 0  95724548.791 0        42.000  
        39.000                                                  
 22  1 19  3 59 30.0000000  0  0
 22  1 19  3 59 31.0010000  0  8E03E07E08E13E15E24E25E26
  24330524.515                   127858283.156 0                        47.000  
                  24330522.692    97969339.821          51.000  
  27386698.357                   143918247.100 0                        42.000  
                  27386697.393   110275021.627          46.000  
  21854432.908                   114845479.491 0                        48.000  
                  21854430.710    87998490.534          53.000  
  23748106.119                   124797018.825 0                        48.000  
                  23748104.225    95623691.305          53.000  
  24526824.756                   128889677.640 0                        46.000  
                  24526824.989    98759625.322          51.000  
  28672168.065                   150673558.317 0                        35.000  
                  28672164.956   115451168.391          41.000  
  28272948.325                   148574678.258 0                        34.000  
                  28272949.272   113842935.219          43.000  
  27487082.687                   144445152.283 0                        42.000  
                  27487079.202   110678753.774          44.000  
 22  1 19  3 59 32.0010000  0  9G01G03G04G06G09G17G19G21G31
  22080273.521    22080270.787   116032370.542 0  90414836.130 0        45.000  
        45.000                                                  
  20396746.489    20396743.433   107185440.68210  83521318.496 0        50.000  
        48.000                                                  
  20440487.641    20440482.781   107415082.279 0  83700070.545 0        48.000  
        50.000                                                  
  23110513.899    23110511.093   121447091.888 0  94633314.533 0        45.000  
        42.000                                                  
  22378734.397    22378730.091   117601674.373 0  91637672.271 0        47.000  
        44.000                                                  
  23225902.793    23225896.699   122052205.985 0  95106658.334 0        44.000  
        41.000                                                  
  22820205.532                   119921570.840 0                        46.000  
                                                                
  24081501.632                   126549130.152 0                        40.000  
                                                                
  23377445.759    23377438.808   122848802.020 0  95726344.006 0        42.000  
        39.000                                                  
 22  1 19  3 59 31.0000000  0  0
 22  1 19  3 59 32.0010000  0  8E03E07E08E13E15E24E25E26
  24330823.321                   127859853.335 0                        47.000  
                  24330821.463    97970542.934          51.000  
  27386224.596                   143915757.843 0                        42.000  
                  27386223.595   110273114.272          46.000  
  21854260.115                   114844570.919 0                        48.000  
                  21854257.828    87997794.355          53.000  
  23748045.454                   124796700.555 0                        48.000  
                  23748043.703    95623447.438          53.000  
  24527289.672                   128892120.892 0                        46.000  
                  24527289.905    98761497.423          51.000  
  28672105.220                   150673227.689 0                        35.000  
                  28672101.968   115450915.054          41.000  
  28272523.275                   148572444.397 0                        34.000  
                  28272524.150   113841223.537          43.000  
  27486573.580                   144442476.248 0                        42.000  
                  27486569.917   110676703.286          44.000  
 22  1 19  3 59 33.0010000  0  9G01G03G04G06G09G17G19G21G31
  22080893.344    22080890.556   116035627.756 0  90417374.223 0        45.000  
        45.000                                                  
  20396871.072    20396868.052   107186095.32510  83521828.606 0        50.000  
        49.000                                                  
  20440315.866    20440310.917   107414179.601 0  83699367.160 0        48.000  
        51.000                                                  
  23109941.018    23109938.337   121444082.186 0  94630969.317 0        45.000  
        42.000                                                  
  22378202.044    22378197.737   117598876.735 0  91635492.295 0        47.000  
        44.000                                                  
  23226264.605    23226258.565   122054107.481 0  95108140.008 0        44.000  
        41.000                                                  
  22820397.677                   119922580.416 0                        46.000  
                                                                
  24082116.791                   126552362.532 0                        40.000  
                                                                
  23377884.319    23377877.332   122851106.613 0  95728139.786 0        42.000  
        39.000                                                  
 22  1 19  3 59 32.0000000  0  0
 22  1 19  3 59 33.0010000  0  8E03E07E08E13E15E24E25E26
  24331122.270                   127861423.858 0                        47.000  
                  24331120.358    97971746.315          51.000  
  27385750.995                   143913268.893 0                        42.000  
                  27385749.977   110271207.139          46.000  
  21854087.178                   114843662.795 0                        48.000  
                  21854085.034    87997098.513          53.000  
  23747985.110                   124796382.927 0                        48.000  
                  23747983.288    95623204.057          53.000  
  24527754.714                   128894564.624 0                        46.000  
                  24527755.000    98763369.891          51.000  
  28672042.339                   150672897.687 0                        35.000  
                  28672039.212   115450662.193          41.000  
  28272098.135                   148570210.851 0                        34.000  
                  28272099.136   113839512.127          42.000  
  27486064.277                   144439800.551 0                        42.000  
                  27486060.686   110674653.074          44.000  
 22  1 19  3 59 34.0010000  0  9G01G03G04G06G09G17G19G21G31
  22081513.238    22081510.415   116038885.264 0  90419912.536 0        45.000  
        45.000                                                  
  20396995.762    20396992.635   107186750.28210  83522338.960 0        50.000  
        48.000                                                  
  20440144.145    20440139.320   107413277.379 0  83698664.130 0        48.000  
        50.000                                                  
  23109368.262    23109365.582   121441072.768 0  94628624.318 0        45.000  
        42.000                                                  
  22377669.725    22377665.401   117596079.337 0  91633312.496 0        47.000  
        44.000                                                  
  23226626.542    23226620.502   122056009.350 0  95109621.993 0        44.000  
        41.000                                                  
  22820589.912                   119923590.594 0                        46.000  
                                                                
  24082731.807                   126555595.021 0                        40.000  
                                                                
  23378322.986    23378316.088   122853411.695 0  95729935.963 0        42.000  
        39.000                                                  
 22  1 19  3 59 33.0000000  0  0
 22  1 19  3 59 34.0010000  0  8E03E07E08E13E15E24E25E26
  24331421.147                   127862994.510 0                        47.000  
                  24331419.253    97972949.810          51.000  
  27385277.288                   143910779.962 0                        42.000  
                  27385276.233   110269300.063          46.000  
  21853914.385                   114842754.894 0                        48.000  
                  21853912.241    87996402.851          53.000  
  23747924.820                   124796065.705 0                        48.000  
                  23747922.908    95622960.985          53.000  
  24528219.952                   128897008.609 0                        46.000  
                  24528220.041    98765242.557          51.000  
  28671979.243                   150672568.105 0                        35.000  
                  28671976.384   115450409.644          41.000  
  28271673.138                   148567977.469 0                        34.000  
                  28271674.121   113837800.850          43.000  
  27485555.314                   144437124.991 0                        42.000  
                  27485551.597   110672602.967          44.000  
 22  1 19  3 59 35.0010000  0  9G01G03G04G06G09G17G19G21G31
  22082133.097    22082130.363   116042142.947 0  90422451.000 0        45.000  
        45.000                                                  
  20397120.487    20397117.396   107187405.44810  83522849.480 0        49.000  
        48.000                                                  
  20439972.513    20439967.671   107412375.491 0  83697961.365 0        48.000  
        50.000                                                  
  23108795.488    23108792.879   121438063.491 0  94626279.441 0        45.000  
        43.000                                                  
  22377137.318    22377133.101   117593282.109 0  91631132.845 0        47.000  
        45.000                                                  
  23226988.568    23226982.493   122057911.477 0  95111104.161 0        44.000  
        41.000                                                  
  22820782.183                   119924601.253 0                        46.000  
                                                                
  24083346.806                   126558827.489 0                        40.000  
                                                                
  23378761.545    23378754.933   122855717.159 0  95731732.438 0        42.000  
        39.000                                                  
 22  1 19  3 59 34.0000000  0  0
 22  1 19  3 59 35.0010000  0  8E03E07E08E13E15E24E25E26
  24331720.060                   127864565.191 0                        47.000  
                  24331718.076    97974153.315          51.000  
  27384803.741                   143908291.036 0                        42.000  
                  27384802.615   110267392.952          46.000  
  21853741.752                   114841847.105 0                        48.000  
                  21853739.536    87995707.279          53.000  
  23747864.494                   124795748.796 0                        48.000  
                  23747862.618    95622718.164          53.000  
  24528685.154                   128899452.758 0                        46.000  
                  24528685.047    98767115.342          51.000  
  28671916.523                   150672238.789 0                        35.000  
                  28671913.700   115450157.316          41.000  
  28271248.338                   148565744.116 0                        34.000  
                  28271249.035   113836089.600          42.000  
  27485046.029                   144434449.464 0                        42.000  
                  27485042.348   110670552.888          44.000  
 22  1 19  3 59 36.0010000  0  9G01G03G04G06G09G17G19G21G31
  22082753.098    22082750.400   116045400.828 0  90424989.599 0        45.000  
        46.000                                                  
  20397245.177    20397242.086   107188060.85110  83523360.182 0        50.000  
        49.000                                                  
  20439800.917    20439796.146   107411473.958 0  83697258.874 0        48.000  
        50.000                                                  
  23108222.929    23108220.142   121435054.382 0  94623934.662 0        45.000  
        43.000                                                  
  22376605.143    22376600.925   117590485.037 0  91628953.294 0        47.000  
        45.000                                                  
  23227350.577    23227344.430   122059813.883 0  95112586.564 0        44.000  
        41.000                                                  
  22820974.722                   119925612.432 0                        46.000  
                                                                
  24083961.911                   126562059.951 0                        40.000  
                                                                
  23379200.301    23379193.689   122858023.008 0  95733529.201 0        42.000  
        39.000                                                  
 22  1 19  3 59 35.0000000  0  0
 22  1 19  3 59 36.0010000  0  8E03E07E08E13E15E24E25E26
  24332019.098                   127866135.907 0                        47.000  
                  24332016.972    97975356.853          51.000  
  27384330.051                   143905802.063 0                        42.000  
                  27384329.068   110265485.824          46.000  
  21853568.959                   114840939.448 0                        48.000  
                  21853566.707    87995011.799          53.000  
  23747804.490                   124795432.201 0                        48.000  
                  23747802.292    95622475.583          53.000  
  24529150.302                   128901897.050 0                        47.000  
                  24529150.213    98768988.248          51.000  
  28671853.874                   150671909.788 0                        35.000  
                  28671851.158   115449905.242          41.000  
  28270823.520                   148563510.868 0                        34.000  
                  28270824.181   113834378.390          42.000  
  27484536.976                   144431773.968 0                        42.000  
                  27484533.277   110668502.835          44.000  
 22  1 19  3 59 37.0010000  0  9G01G03G04G06G09G17G19G21G31
  22083373.243    22083370.437   116048659.081 0  90427528.500 0        45.000  
        46.000                                                  
  20397369.993    20397366.901   107188716.65310  83523871.199 0        50.000  
        48.000                                                  
  20439629.499    20439624.639   107410572.962 0  83696556.792 0        48.000  
        50.000                                                  
  23107650.370    23107647.582   121432045.630 0  94621590.180 0        45.000  
        43.000                                                  
  22376072.949    22376068.750   117587688.302 0  91626774.023 0        47.000  
        45.000                                                  
  23227712.693    23227706.492   122061716.735 0  95114069.304 0        44.000  
        41.000                                                  
  22821167.243                   119926624.283 0                        46.000  
                                                                
  24084576.998                   126565292.577 0                        40.000  
                                                                
  23379639.236    23379632.588   122860329.446 0  95735326.414 0        42.000  
        39.000                                                  
 22  1 19  3 59 36.0000000  0  0
 22  1 19  3 59 37.0010000  0  8E03E07E08E13E15E24E25E26
  24332317.904                   127867706.838 0                        47.000  
                  24332316.045    97976560.553          51.000  
  27383856.504                   143903313.255 0                        42.000  
                  27383855.414   110263578.811          46.000  
  21853396.273                   114840032.107 0                        48.000  
                  21853394.128    87994316.562          53.000  
  23747744.093                   124795116.123 0                        48.000  
                  23747742.163    95622233.391          53.000  
  24529615.469                   128904341.719 0                        47.000  
                  24529615.487    98770861.425          51.000  
  28671791.422                   150671581.308 0                        35.000  
                  28671788.563   115449653.545          41.000  
  28270398.630                   148561277.847 0                        34.000  
                  28270399.130   113832667.369          43.000  
  27484027.941                   144429098.708 0                        42.000  
                  27484024.100   110666452.958          44.000  
 22  1 19  3 59 38.0010000  0  9G01G03G04G06G09G17G19G21G31
  22083993.405    22083990.778   116051918.085 0  90430067.979 0        45.000  
        46.000                                                  
  20397494.843    20397491.824   107189373.23610  83524382.817 0        50.000  
        48.000                                                  
  20439458.153    20439453.346   107409672.881 0  83695855.424 0        48.000  
        51.000                                                  
  23107077.989    23107075.255   121429037.586 0  94619246.247 0        45.000  
        43.000                                                  
  22375540.881    22375536.754   117584892.286 0  91624595.320 0        47.000  
        45.000                                                  
  23228074.898    23228068.769   122063620.432 0  95115552.692 0        44.000  
        41.000                                                  
  22821360.014                   119927637.213 0                        46.000  
                                                                
  24085192.282                   126568525.773 0                        40.000  
                                                                
  23380078.313    23380071.648   122862636.838 0  95737124.384 0        42.000  
        39.000                                                  
 22  1 19  3 59 37.0000000  0  0
 22  1 19  3 59 38.0010000  0  8E03E07E08E13E15E24E25E26
  24332616.870                   127869278.364 0                        47.000  
                  24332615.030    97977764.714          51.000  
  27383382.957                   143900824.977 0                        42.000  
                  27383381.920   110261672.206          46.000  
  21853223.676                   114839125.439 0                        48.000  
                  21853221.585    87993621.849          53.000  
  23747684.053                   124794800.905 0                        48.000  
                  23747682.248    95621991.855          53.000  
  24530080.724                   128906787.089 0                        47.000  
                  24530080.707    98772735.156          51.000  
  28671729.256                   150671253.704 0                        35.000  
                  28671726.325   115449402.510          41.000  
  28269973.919                   148559045.430 0                        34.000  
                  28269974.330   113830956.827          43.000  
  27483518.978                   144426424.023 0                        42.000  
                  27483515.154   110664403.531          44.000  
 22  1 19  3 59 39.0010000  0  9G01G03G04G06G09G17G19G21G31
  22084613.657    22084610.958   116055177.292 0  90432607.628 0        45.000  
        46.000                                                  
  20397619.855    20397616.782   107190030.07110  83524894.642 0        49.000  
        48.000                                                  
  20439286.986    20439282.125   107408773.165 0  83695154.355 0        48.000  
        50.000                                                  
  23106505.573    23106502.857   121426029.735 0  94616902.470 0        45.000  
        43.000                                                  
  22375008.921    22375004.668   117582096.464 0  91622416.758 0        47.000  
        45.000                                                  
  23228437.228    23228431.134   122065524.416 0  95117036.312 0        44.000  
        41.000                                                  
  22821552.749                   119928650.654 0                        46.000  
                                                                
  24085807.513                   126571758.966 0                        40.000  
                                                                
  23380517.462    23380510.762   122864944.638 0  95738922.692 0        42.000  
        39.000                                                  
 22  1 19  3 59 38.0000000  0  0
 22  1 19  3 59 39.0010000  0  8E03E07E08E13E15E24E25E26
  24332915.909                   127870849.958 0                        47.000  
                  24332914.032    97978968.920          51.000  
  27382909.481                   143898336.688 0                        42.000  
                  27382908.463   110259765.597          46.000  
  21853051.329                   114838218.941 0                        48.000  
                  21853049.077    87992927.253          53.000  
  23747624.245                   124794486.050 0                        48.000  
                  23747622.333    95621750.607          53.000  
  24530546.177                   128909232.655 0                        46.000  
                  24530546.213    98774609.027          51.000  
  28671666.821                   150670926.407 0                        35.000  
                  28671664.052   115449151.729          41.000  
  28269549.101                   148556813.122 0                        34.000  
                  28269549.530   113829246.333          42.000  
  27483009.979                   144423749.423 0                        42.000  
                  27483006.191   110662354.146          44.000  
 22  1 19  3 59 40.0010000  0  9G01G03G04G06G09G17G19G21G31
  22085233.962    22085231.317   116058436.915 0  90435147.585 0        46.000  
        46.000                                                  
  20397744.903    20397741.865   107190687.34410  83525406.802 0        49.000  
        48.000                                                  
  20439115.783    20439111.047   107407874.020 0  83694453.718 0        48.000  
        50.000                                                  
  23105933.175    23105930.530   121423022.275 0  94614558.980 0        45.000  
        43.000                                                  
  22374476.942    22374472.796   117579301.018 0  91620238.481 0        47.000  
        45.000                                                  
  23228799.719    23228793.536   122067428.897 0  95118520.334 0        44.000  
        41.000                                                  
  22821745.699                   119929664.817 0                        46.000  
                                                                
  24086422.833                   126574992.370 0                        40.000  
                                                                
  23380956.719    23380950.018   122867253.063 0  95740721.438 0        42.000  
        39.000                                                  
 22  1 19  3 59 39.0000000  0  0
 22  1 19  3 59 40.0010000  0  8E03E07E08E13E15E24E25E26
  24333215.000                   127872421.798 0                        47.000  
                  24333213.160    97980173.314          51.000  
  27382435.738                   143895848.599 0                        42.000  
                  27382434.934   110257859.142          46.000  
  21852878.714                   114837312.769 0                        48.000  
                  21852876.641    87992232.920          53.000  
  23747564.491                   124794171.727 0                        48.000  
                  23747562.579    95621509.758          53.000  
  24531011.701                   128911678.597 0                        46.000  
                  24531011.647    98776483.191          51.000  
  28671604.476                   150670599.641 0                        35.000  
                  28671601.832   115448901.355          41.000  
  28269124.372                   148554581.022 0                        34.000  
                  28269124.712   113827536.049          42.000  
  27482500.962                   144421075.060 0                        42.000  
                  27482497.209   110660304.975          44.000  
 22  1 19  3 59 41.0010000  0  9G01G03G04G06G09G17G19G21G31
  22085854.249    22085851.658   116061696.427 0  90437687.464 0        46.000  
        46.000                                                  
  20397869.950    20397866.912   107191344.53410  83525918.898 0        50.000  
        48.000                                                  
  20438944.705    20438940.023   107406974.926 0  83693753.130 0        48.000  
        50.000                                                  
  23105360.883    23105358.239   121420014.670 0  94612215.397 0        45.000  
        43.000                                                  
  22373944.963    22373940.728   117576505.430 0  91618060.101 0        47.000  
        45.000                                                  
  23229162.013    23229155.884   122069333.348 0  95120004.309 0        44.000  
        41.000                                                  
  22821938.756                   119930679.197 0                        46.000  
                                                                
  24087038.045                   126578225.493 0                        39.000  
                                                                
  23381395.993    23381389.274   122869561.558 0  95742520.283 0        42.000  
        39.000                                                  
 22  1 19  3 59 40.0000000  0  0
 22  1 19  3 59 41.0010000  0  8E03E07E08E13E15E24E25E26
  24333513.985                   127873993.365 0                        47.000  
                  24333512.269    97981377.505          51.000  
  27381962.030                   143893360.172 0                        42.000  
                  27381961.476   110255952.423          46.000  
  21852706.314                   114836406.435 0                        48.000  
                  21852704.313    87991538.450          53.000  
  23747504.648                   124793857.415 0                        48.000  
                  23747502.665    95621268.924          53.000  
  24531477.117                   128914124.404 0                        46.000  
                  24531477.099    98778357.244          51.000  
  28671542.382                   150670272.899 0                        34.000  
                  28671539.773   115448650.985          41.000  
  28268699.483                   148552348.731 0                        34.000  
                  28268699.876   113825825.586          42.000  
  27481991.873                   144418400.434 0                        42.000  
                  27481988.335   110658255.584          44.000  
 22  1 19  3 59 42.0010000  0  9G01G03G04G06G09G17G19G21G31
  22086474.608    22086472.017   116064956.344 0  90440227.666 0        45.000  
        46.000                                                  
  20397995.033    20397992.031   107192002.18810  83526431.354 0        50.000  
        48.000                                                  
  20438773.805    20438768.981   107406076.410 0  83693052.981 0        48.000  
        50.000                                                  
  23104788.610    23104785.930   121417007.445 0  94609872.114 0        45.000  
        43.000                                                  
  22373413.038    22373408.910   117573710.216 0  91615882.012 0        47.000  
        45.000                                                  
  23229524.469    23229518.536   122071238.301 0  95121488.694 0        44.000  
        41.000                                                  
  22822131.938                   119931694.288 0                        46.000  
                                                                
  24087653.240                   126581458.809 0                        39.000  
                                                                
  23381835.392    23381828.727   122871870.696 0  95744319.605 0        42.000  
        39.000                                                  
 22  1 19  3 59 41.0000000  0  0
 22  1 19  3 59 42.0010000  0  8E03E07E08E13E15E24E25E26
  24333813.202                   127875565.205 0                        47.000  
                  24333811.379    97982581.888          51.000  
  27381488.733                   143890871.953 0                        42.000  
                  27381487.929   110254045.861          46.000  
  21852534.039                   114835500.445 0                        48.000  
                  21852531.823    87990844.254          53.000  
  23747445.055                   124793543.643 0                        48.000  
                  23747442.857    95621028.499          53.000  
  24531942.766                   128916570.587 0                        46.000  
                  24531942.534    98780231.601          51.000  
  28671480.072                   150669946.671 0                        34.000  
                  28671477.642   115448401.026          41.000  
  28268274.807                   148550116.705 0                        34.000  
                  28268275.147   113824115.330          42.000  
