     2.11           OBSERVATION DATA    M (Mixed)           RINEX VERSION / TYPE
RTCM3TORINEX on                         2021-12-30 03:59    PGM / RUN BY / DATE
RTCM3TORINEX                                                MARKER NAME
                                                            OBSERVER / AGENCY
                                                            REC # / TYPE / VERS
                                                            ANT # / TYPE
         .0000         .0000         .0000                  APPROX POSITION XYZ
         .0000         .0000         .0000                  ANTENNA: DELTA H/E/N
     1     1                                                WAVELENGTH FACT L1/2
     9    C1    C2    L1    L2    S1    S2    C7    L7    S7# / TYPES OF OBSERV
  2021    12    30     3    59   20.0010000     GPS         TIME OF FIRST OBS
                                                            END OF HEADER
 21 12 30  3 59 20.0010000  0  6E03E05E08E13E15E18
  23439038.298                   123173140.844 0                        48.000  
                  23439037.655    94379629.156          53.000  
  26098925.332                   137150569.862 0                        43.000  
                  26098925.207   105089742.200          46.000  
  23333543.839                   122617959.315 0                        46.000  
                  23333541.874    93954022.906          50.000  
  24963750.279                   131185692.409 0                        46.000  
                  24963749.189   100518909.644          50.000  
  23101059.863                   121396761.139 0                        48.000  
                  23101060.024    93018301.446          53.000  
  20813679.684                   109377190.475 0                        47.000  
                  20813678.719    83808495.885          51.000  
 21 12 30  3 59 21.0010000  0  9G01G03G04G17G19G21G22G31G32
  20068109.961    20068107.531   105458641.356 0  82175963.247 0        50.000  
        50.000                                                  
  20608012.626    20608009.803   108295135.051 0  84385824.219 0        49.000  
        49.000                                                  
  22397531.001    22397527.052   117699113.892 0  91713596.549 0        45.000  
        45.000                                                  
  22653296.295    22653290.452   119044067.686 0  92761611.763 0        46.000  
        43.000                                                  
  23464523.134                   123306370.292 0                        42.000  
                                                                
  21578058.716                   113392815.192 0                        48.000  
                                                                
  20588802.319                   108194887.473 0                        44.000  
                                                                
  22692181.523    22692176.502   119247592.498 0  92920205.704 0        44.000  
        41.000                                                  
  24278231.784    24278227.299   127582957.312 0  99414810.397 0        41.000  
        38.000                                                  
 21 12 30  3 59 20.0000000  0  0
 21 12 30  3 59 21.0010000  0  6E03E05E08E13E15E18
  23439075.662                   123173337.769 0                        48.000  
                  23439075.055    94379780.054          53.000  
  26099389.999                   137153012.565 0                        43.000  
                  26099389.963   105091613.881          47.000  
  23333110.569                   122615682.339 0                        46.000  
                  23333108.622    93952278.198          50.000  
  24963347.833                   131183578.318 0                        46.000  
                  24963346.886   100517289.754          50.000  
  23101164.808                   121397312.046 0                        48.000  
                  23101164.790    93018723.570          53.000  
  20814599.564                   109382023.444 0                        47.000  
                  20814598.456    83812199.067          51.000  
 21 12 30  3 59 22.0010000  0  9G01G03G04G17G19G21G22G31G32
  20068269.925    20068267.512   105459482.357 0  82176618.570 0        50.000  
        50.000                                                  
  20607804.023    20607801.254   108294038.527 0  84384969.787 0        49.000  
        49.000                                                  
  22396937.857    22396933.801   117695996.877 0  91711167.708 0        45.000  
        45.000                                                  
  22653135.992    22653130.113   119043225.065 0  92760955.177 0        46.000  
        43.000                                                  
  23464083.878                   123304061.609 0                        42.000  
                                                                
  21578400.140                   113394609.640 0                        48.000  
                                                                
  20588861.733                   108195199.546 0                        44.000  
                                                                
  22692003.137    22691997.990   119246655.051 0  92919475.218 0        44.000  
        41.000                                                  
  24278862.078    24278857.486   127586269.591 0  99417391.389 0        41.000  
        38.000                                                  
 21 12 30  3 59 21.0000000  0  0
 21 12 30  3 59 22.0010000  0  6E03E05E08E13E15E18
  23439113.116                   123173535.084 0                        48.000  
                  23439112.562    94379931.234          53.000  
  26099855.076                   137155455.402 0                        43.000  
                  26099854.754   105093485.663          47.000  
  23332677.263                   122613405.606 0                        46.000  
                  23332675.387    93950533.695          50.000  
  24962945.476                   131181464.477 0                        46.000  
                  24962944.779   100515670.052          50.000  
  23101269.467                   121397863.373 0                        48.000  
                  23101269.753    93019146.016          53.000  
  20815519.407                   109386857.350 0                        47.000  
                  20815518.353    83815902.964          51.000  
 21 12 30  3 59 23.0010000  0  9G01G03G04G17G19G21G22G31G32
  20068430.103    20068427.690   105460324.077 0  82177274.454 0        50.000  
        50.000                                                  
  20607595.385    20607592.686   108292942.475 0  84384115.721 0        49.000  
        49.000                                                  
  22396344.820    22396340.674   117692880.364 0  91708739.238 0        45.000  
        45.000                                                  
  22652975.886    22652969.900   119042383.219 0  92760299.184 0        46.000  
        43.000                                                  
  23463644.586                   123301753.639 0                        42.000  
                                                                
  21578741.670                   113396404.648 0                        48.000  
                                                                
  20588921.183                   108195512.109 0                        44.000  
                                                                
  22691824.929    22691819.800   119245718.389 0  92918745.354 0        44.000  
        41.000                                                  
  24279492.408    24279487.744   127589582.176 0  99419972.649 0        41.000  
        38.000                                                  
 21 12 30  3 59 22.0000000  0  0
 21 12 30  3 59 23.0010000  0  6E03E05E08E13E15E18
  23439150.998                   123173732.916 0                        48.000  
                  23439150.248    94380082.824          53.000  
  26100319.902                   137157898.550 0                        43.000  
                  26100319.813   105095357.684          46.000  
  23332244.118                   122611129.293 0                        46.000  
                  23332242.242    93948789.507          50.000  
  24962543.370                   131179351.019 0                        46.000  
                  24962542.423   100514050.655          50.000  
  23101374.519                   121398415.278 0                        48.000  
                  23101374.751    93019568.900          53.000  
  20816439.608                   109391692.332 0                        47.000  
                  20816438.358    83819607.695          51.000  
 21 12 30  3 59 24.0010000  0  9G01G03G04G17G19G21G22G31G32
  20068590.513    20068587.975   105461166.534 0  82177930.922 0        50.000  
        50.000                                                  
  20607386.835    20607384.191   108291846.946 0  84383262.057 0        49.000  
        49.000                                                  
  22395751.872    22395747.780   117689764.341 0  91706311.179 0        45.000  
        45.000                                                  
  22652815.762    22652809.758   119041542.139 0  92759643.806 0        46.000  
        43.000                                                  
  23463205.508                   123299446.391 0                        42.000  
                                                                
  21579083.290                   113398200.210 0                        48.000  
                                                                
  20588980.848                   108195825.138 0                        45.000  
                                                                
  22691646.846    22691641.646   119244782.553 0  92918016.131 0        44.000  
        41.000                                                  
  24280122.845    24280118.253   127592895.077 0  99422554.108 0        41.000  
        38.000                                                  
 21 12 30  3 59 23.0000000  0  0
 21 12 30  3 59 24.0010000  0  6E03E05E08E13E15E18
  23439188.773                   123173931.281 0                        48.000  
                  23439187.987    94380234.819          53.000  
  26100784.837                   137160341.986 0                        43.000  
                  26100784.729   105097229.927          47.000  
  23331811.027                   122608853.411 0                        46.000  
                  23331809.025    93947045.647          50.000  
  24962141.317                   131177237.976 0                        46.000  
                  24962140.298   100512431.565          50.000  
  23101479.767                   121398967.759 0                        48.000  
                  23101479.928    93019992.226          53.000  
  20817359.809                   109396528.405 0                        47.000  
                  20817358.648    83823313.256          51.000  
 21 12 30  3 59 25.0010000  0  9G01G03G04G17G19G21G22G31G32
  20068750.923    20068748.332   105462009.463 0  82178587.739 0        50.000  
        50.000                                                  
  20607178.500    20607175.695   108290751.639 0  84382408.578 0        49.000  
        49.000                                                  
  22395158.996    22395154.832   117686648.534 0  91703883.271 0        45.000  
        45.000                                                  
  22652655.691    22652649.866   119040701.537 0  92758988.796 0        46.000  
        43.000                                                  
  23462766.592                   123297139.609 0                        42.000  
                                                                
  21579424.964                   113399996.022 0                        48.000  
                                                                
  20589040.477                   108196138.393 0                        45.000  
                                                                
  22691468.817    22691463.635   119243847.235 0  92917287.303 0        44.000  
        41.000                                                  
  24280753.211    24280748.672   127596207.996 0  99425135.630 0        41.000  
        38.000                                                  
 21 12 30  3 59 24.0000000  0  0
 21 12 30  3 59 25.0010000  0  6E03E05E08E13E15E18
  23439226.530                   123174129.908 0                        48.000  
                  23439225.637    94380387.006          53.000  
  26101249.860                   137162785.440 0                        43.000  
                  26101249.753   105099102.193          47.000  
  23331377.846                   122606577.646 0                        46.000  
                  23331376.005    93945301.887          50.000  
  24961739.192                   131175125.053 0                        46.000  
                  24961738.263   100510812.570          50.000  
  23101584.748                   121399520.521 0                        48.000  
                  23101585.052    93020415.778          53.000  
  20818279.975                   109401365.289 0                        47.000  
                  20818279.028    83827019.437          51.000  
 21 12 30  3 59 26.0010000  0  9G01G03G04G17G19G21G22G31G32
  20068911.423    20068908.814   105462852.650 0  82179244.775 0        50.000  
        50.000                                                  
  20606970.005    20606967.253   108289656.371 0  84381555.123 0        49.000  
        49.000                                                  
  22394566.173    22394561.902   117683532.755 0  91701455.391 0        45.000  
        45.000                                                  
  22652495.763    22652489.938   119039861.237 0  92758334.005 0        46.000  
        43.000                                                  
  23462327.675                   123294833.089 0                        42.000  
                                                                
  21579766.727                   113401791.937 0                        48.000  
                                                                
  20589099.945                   108196451.669 0                        45.000  
                                                                
  22691290.895    22691285.749   119242912.270 0  92916558.766 0        44.000  
        41.000                                                  
  24281383.666    24281379.037   127599520.783 0  99427716.995 0        42.000  
        38.000                                                  
 21 12 30  3 59 25.0000000  0  0
 21 12 30  3 59 26.0010000  0  6E03E05E08E13E15E18
  23439264.323                   123174328.585 0                        48.000  
                  23439263.609    94380539.251          53.000  
  26101714.884                   137165228.750 0                        43.000  
                  26101714.794   105100974.339          47.000  
  23330944.790                   122604301.853 0                        46.000  
                  23330943.039    93943558.094          50.000  
  24961337.282                   131173012.065 0                        46.000  
                  24961336.228   100509193.532          50.000  
  23101690.104                   121400073.415 0                        48.000  
                  23101690.372    93020839.420          53.000  
  20819200.623                   109406202.801 0                        47.000  
                  20819199.640    83830726.102          51.000  
 21 12 30  3 59 27.0010000  0  9G01G03G04G17G19G21G22G31G32
  20069072.029    20069069.420   105463696.545 0  82179902.362 0        50.000  
        50.000                                                  
  20606761.741    20606758.954   108288561.567 0  84380702.035 0        49.000  
        49.000                                                  
  22393973.368    22393969.098   117680417.442 0  91699027.886 0        45.000  
        45.000                                                  
  22652335.978    22652330.153   119039021.673 0  92757679.802 0        46.000  
        43.000                                                  
  23461888.865                   123292527.255 0                        42.000  
                                                                
  21580108.579                   113403588.368 0                        48.000  
                                                                
  20589159.735                   108196765.394 0                        45.000  
                                                                
  22691113.098    22691107.934   119241978.074 0  92915830.841 0        44.000  
        41.000                                                  
  24282014.067    24282009.582   127602833.822 0  99430298.598 0        42.000  
        38.000                                                  
 21 12 30  3 59 26.0000000  0  0
 21 12 30  3 59 27.0010000  0  6E03E05E08E13E15E18
  23439302.313                   123174527.790 0                        48.000  
                  23439301.455    94380691.884          53.000  
  26102179.907                   137167672.324 0                        43.000  
                  26102179.621   105102846.688          46.000  
  23330511.806                   122602026.449 0                        46.000  
                  23330510.019    93941814.599          50.000  
  24960935.158                   131170899.447 0                        46.000  
                  24960934.228   100507574.772          50.000  
  23101795.245                   121400626.843 0                        48.000  
                  23101795.549    93021263.484          53.000  
  20820121.288                   109411041.360 0                        47.000  
                  20820120.448    83834433.571          51.000  
 21 12 30  3 59 28.0010000  0  9G01G03G04G17G19G21G22G31G32
  20069232.797    20069230.206   105464541.273 0  82180560.578 0        50.000  
        50.000                                                  
  20606553.567    20606550.708   108287467.361 0  84379849.398 0        49.000  
        49.000                                                  
  22393380.706    22393376.346   117677302.695 0  91696600.813 0        45.000  
        45.000                                                  
  22652176.444    22652170.511   119038182.946 0  92757026.265 0        46.000  
        43.000                                                  
  23461450.234                   123290222.252 0                        42.000  
                                                                
  21580450.592                   113405385.436 0                        48.000  
                                                                
  20589219.596                   108197079.688 0                        45.000  
                                                                
  22690935.552    22690930.388   119241044.773 0  92915103.587 0        44.000  
        41.000                                                  
  24282644.665    24282640.179   127606147.260 0  99432880.496 0        42.000  
        38.000                                                  
 21 12 30  3 59 27.0000000  0  0
 21 12 30  3 59 28.0010000  0  6E03E05E08E13E15E18
  23439340.213                   123174727.594 0                        48.000  
                  23439339.498    94380844.980          53.000  
  26102644.984                   137170116.291 0                        43.000  
                  26102644.770   105104719.327          47.000  
  23330078.839                   122599751.535 0                        46.000  
                  23330077.177    93940071.483          50.000  
  24960533.283                   131168787.319 0                        46.000  
                  24960532.300   100505956.389          50.000  
  23101900.708                   121401180.937 0                        48.000  
                  23101901.083    93021688.041          53.000  
  20821042.133                   109415881.096 0                        47.000  
                  20821041.293    83838141.938          51.000  
 21 12 30  3 59 29.0010000  0  9G01G03G04G17G19G21G22G31G32
  20069393.725    20069390.884   105465386.497 0  82181219.196 0        50.000  
        50.000                                                  
  20606345.393    20606342.570   108286373.431 0  84378996.987 0        49.000  
        49.000                                                  
  22392788.134    22392783.684   117674188.244 0  91694173.961 0        45.000  
        45.000                                                  
  22652016.927    22652010.959   119037344.780 0  92756373.134 0        46.000  
        43.000                                                  
  23461011.764                   123287917.750 0                        42.000  
                                                                
  21580792.694                   113407182.830 0                        48.000  
                                                                
  20589279.422                   108197394.238 0                        45.000  
                                                                
  22690758.059    22690752.841   119240112.058 0  92914376.798 0        44.000  
        41.000                                                  
  24283275.155    24283270.759   127609460.775 0  99435462.480 0        42.000  
        38.000                                                  
 21 12 30  3 59 28.0000000  0  0
 21 12 30  3 59 29.0010000  0  6E03E05E08E13E15E18
  23439378.203                   123174927.700 0                        48.000  
                  23439377.559    94380998.312          53.000  
  26103110.007                   137172560.313 0                        43.000  
                  26103109.936   105106592.033          47.000  
  23329646.248                   122597476.810 0                        46.000  
                  23329644.229    93938328.514          50.000  
  24960131.498                   131166675.373 0                        46.000  
                  24960130.462   100504338.144          50.000  
  23102006.367                   121401735.375 0                        48.000  
                  23102006.475    93022112.874          53.000  
  20821963.585                   109420721.685 0                        47.000  
                  20821962.369    83841850.966          51.000  
 21 12 30  3 59 30.0010000  0  9G01G03G04G17G19G21G22G31G32
  20069554.743    20069551.813   105466232.246 0  82181878.212 0        50.000  
        50.000                                                  
  20606137.165    20606134.521   108285279.782 0  84378144.791 0        49.000  
        49.000                                                  
  22392195.508    22392191.058   117671074.061 0  91691747.316 0        45.000  
        45.000                                                  
  22651857.464    22651851.549   119036507.156 0  92755720.431 0        46.000  
        43.000                                                  
  23460573.312                   123285613.765 0                        42.000  
                                                                
  21581134.743                   113408980.555 0                        48.000  
                                                                
  20589339.319                   108197709.072 0                        45.000  
                                                                
  22690580.691    22690575.580   119239179.928 0  92913650.468 0        44.000  
        42.000                                                  
  24283905.664    24283901.268   127612774.386 0  99438044.479 0        42.000  
        38.000                                                  
 21 12 30  3 59 29.0000000  0  0
 21 12 30  3 59 30.0010000  0  6E03E05E08E13E15E18
  23439416.317                   123175128.140 0                        48.000  
                  23439415.656    94381151.890          53.000  
  26103574.959                   137175004.421 0                        43.000  
                  26103574.924   105108464.789          47.000  
  23329213.264                   122595202.301 0                        46.000  
                  23329211.531    93936585.706          51.000  
  24959729.499                   131164563.612 0                        46.000  
                  24959728.552   100502720.041          50.000  
  23102111.866                   121402290.179 0                        48.000  
                  23102112.134    93022537.980          53.000  
  20822884.768                   109425563.144 0                        47.000  
                  20822883.714    83845560.655          51.000  
 21 12 30  3 59 31.0010000  0  9G01G03G04G17G19G21G22G31G32
  20069715.707    20069712.848   105467078.444 0  82182537.592 0        50.000  
        50.000                                                  
  20605928.955    20605926.346   108284186.354 0  84377292.774 0        49.000  
        49.000                                                  
  22391603.025    22391598.450   117667960.083 0  91689320.853 0        45.000  
        45.000                                                  
  22651698.144    22651692.283   119035670.020 0  92755068.124 0        46.000  
        43.000                                                  
  23460135.039                   123283310.214 0                        42.000  
                                                                
  21581476.935                   113410778.541 0                        48.000  
                                                                
  20589399.323                   108198024.105 0                        45.000  
                                                                
  22690403.377    22690398.337   119238248.325 0  92912924.539 0        44.000  
        41.000                                                  
  24284536.208    24284531.830   127616088.009 0  99440626.541 0        41.000  
        38.000                                                  
 21 12 30  3 59 30.0000000  0  0
 21 12 30  3 59 31.0010000  0  6E03E05E08E13E15E18
  23439454.646                   123175328.812 0                        48.000  
                  23439453.842    94381305.652          53.000  
  26104040.001                   137177448.556 0                        43.000  
                  26104040.019   105110337.576          47.000  
  23328780.476                   122592927.913 0                        46.000  
                  23328778.618    93934842.995          50.000  
  24959327.607                   131162451.971 0                        46.000  
                  24959326.695   100501102.031          50.000  
  23102217.633                   121402845.260 0                        48.000  
                  23102217.758    93022963.308          53.000  
  20823806.167                   109430405.409 0                        47.000  
                  20823805.220    83849270.962          51.000  
 21 12 30  3 59 32.0010000  0  9G01G03G04G17G19G21G22G31G32
  20069876.761    20069873.884   105467924.894 0  82183197.168 0        50.000  
        50.000                                                  
  20605720.906    20605718.369   108283092.955 0  84376440.768 0        49.000  
        49.000                                                  
  22391010.381    22391005.824   117664846.137 0  91686894.397 0        45.000  
        45.000                                                  
  22651538.895    22651533.034   119034833.156 0  92754416.029 0        46.000  
        43.000                                                  
  23459696.676                   123281006.930 0                        42.000  
                                                                
  21581819.127                   113412576.601 0                        48.000  
                                                                
  20589459.220                   108198339.148 0                        45.000  
                                                                
  22690226.098    22690221.148   119237317.046 0  92912198.874 0        44.000  
        42.000                                                  
  24285166.681    24285162.356   127619401.465 0  99443208.445 0        42.000  
        38.000                                                  
 21 12 30  3 59 31.0000000  0  0
 21 12 30  3 59 32.0010000  0  6E03E05E08E13E15E18
  23439492.850                   123175529.552 0                        48.000  
                  23439492.082    94381459.468          53.000  
  26104504.917                   137179892.529 0                        43.000  
                  26104505.078   105112210.224          47.000  
  23328347.635                   122590653.481 0                        46.000  
                  23328345.866    93933100.244          50.000  
  24958925.589                   131160340.245 0                        46.000  
                  24958924.892   100499483.958          50.000  
  23102323.292                   121403400.460 0                        48.000  
                  23102323.346    93023388.710          53.000  
  20824727.690                   109435248.300 0                        47.000  
                  20824726.815    83852981.737          51.000  
 21 12 30  3 59 33.0010000  0  9G01G03G04G17G19G21G22G31G32
  20070038.047    20070035.152   105468772.463 0  82183857.604 0        50.000  
        50.000                                                  
  20605512.964    20605510.445   108282000.413 0  84375589.434 0        49.000  
        49.000                                                  
  22390418.005    22390413.430   117661733.051 0  91684468.616 0        45.000  
        45.000                                                  
  22651379.878    22651374.125   119033997.428 0  92753764.813 0        46.000  
        43.000                                                  
  23459258.527                   123278704.741 0                        42.000  
                                                                
  21582161.497                   113414375.577 0                        48.000  
                                                                
  20589519.438                   108198655.035 0                        45.000  
                                                                
  22690049.141    22690044.102   119236386.946 0  92911474.123 0        44.000  
        42.000                                                  
  24285797.296    24285792.954   127622715.587 0  99445790.878 0        42.000  
        38.000                                                  
 21 12 30  3 59 32.0000000  0  0
 21 12 30  3 59 33.0010000  0  6E03E05E08E13E15E18
  23439531.162                   123175731.175 0                        48.000  
                  23439530.393    94381613.960          53.000  
  26104970.369                   137182337.153 0                        43.000  
                  26104970.316   105114083.371          47.000  
  23327915.026                   122588379.826 0                        46.000  
                  23327913.167    93931358.093          50.000  
  24958524.055                   131158229.300 0                        46.000  
                  24958523.107   100497866.478          50.000  
  23102429.113                   121403956.591 0                        48.000  
                  23102429.149    93023814.843          53.000  
  20825649.499                   109440092.616 0                        47.000  
                  20825648.606    83856693.621          51.000  
 21 12 30  3 59 34.0010000  0  9G01G03G04G17G19G21G22G31G32
  20070199.493    20070196.581   105469620.645 0  82184518.534 0        50.000  
        50.000                                                  
  20605305.219    20605302.539   108280908.282 0  84374738.429 0        49.000  
        49.000                                                  
  22389825.611    22389821.179   117658620.350 0  91682043.132 0        45.000  
        45.000                                                  
  22651220.898    22651215.233   119033162.360 0  92753114.108 0        46.000  
        43.000                                                  
  23458820.397                   123276403.168 0                        42.000  
                                                                
  21582503.814                   113416175.001 0                        48.000  
                                                                
  20589579.568                   108198971.313 0                        45.000  
                                                                
  22689872.363    22689867.181   119235457.548 0  92910749.916 0        44.000  
        41.000                                                  
  24286427.966    24286423.695   127626029.909 0  99448373.480 0        42.000  
        38.000                                                  
 21 12 30  3 59 33.0000000  0  0
 21 12 30  3 59 34.0010000  0  6E03E05E08E13E15E18
  23439569.544                   123175933.247 0                        48.000  
                  23439568.955    94381768.788          53.000  
  26105435.607                   137184781.977 0                        42.000  
                  26105435.589   105115956.684          47.000  
  23327482.274                   122586106.488 0                        46.000  
                  23327480.701    93929616.196          51.000  
  24958122.377                   131156118.654 0                        46.000  
                  24958121.555   100496249.232          50.000  
  23102534.844                   121404513.197 0                        48.000  
                  23102535.148    93024241.331          53.000  
  20826571.505                   109444937.931 0                        47.000  
                  20826570.737    83860406.262          51.000  
 21 12 30  3 59 35.0010000  0  9G01G03G04G17G19G21G22G31G32
  20070360.940    20070358.027   105470469.111 0  82185179.672 0        50.000  
        50.000                                                  
  20605097.438    20605094.740   108279816.194 0  84373887.450 0        49.000  
        49.000                                                  
  22389233.235    22389228.893   117655507.695 0  91679617.687 0        45.000  
        45.000                                                  
  22651062.042    22651056.378   119032327.607 0  92752463.646 0        46.000  
        43.000                                                  
  23458382.480                   123274101.877 0                        42.000  
                                                                
  21582846.256                   113417974.528 0                        48.000  
                                                                
  20589639.733                   108199287.614 0                        45.000  
                                                                
  22689695.656    22689690.385   119234528.507 0  92910025.993 0        44.000  
        41.000                                                  
  24287058.617    24287054.364   127629344.101 0  99450955.956 0        42.000  
        38.000                                                  
 21 12 30  3 59 34.0000000  0  0
 21 12 30  3 59 35.0010000  0  6E03E05E08E13E15E18
  23439608.231                   123176135.378 0                        48.000  
                  23439607.427    94381923.669          53.000  
  26105900.899                   137187226.654 0                        43.000  
                  26105900.720   105117829.867          47.000  
  23327049.772                   122583833.106 0                        46.000  
                  23327048.003    93927874.243          51.000  
  24957720.788                   131154007.952 0                        46.000  
                  24957719.877   100494631.938          50.000  
  23102640.682                   121405069.924 0                        48.000  
                  23102641.093    93024667.911          53.000  
  20827493.690                   109449783.861 0                        47.000  
                  20827492.814    83864119.380          51.000  
 21 12 30  3 59 36.0010000  0  9G01G03G04G17G19G21G22G31G32
  20070522.333    20070519.617   105471318.185 0  82185841.291 0        50.000  
        50.000                                                  
  20604889.729    20604887.013   108278724.477 0  84373036.766 0        49.000  
        49.000                                                  
  22388641.037    22388636.749   117652395.408 0  91677192.535 0        45.000  
        45.000                                                  
  22650903.258    22650897.629   119031493.484 0  92751813.687 0        46.000  
        43.000                                                  
  23457944.564                   123271801.193 0                        42.000  
                                                                
  21583188.716                   113419774.469 0                        48.000  
                                                                
  20589699.898                   108199604.273 0                        45.000  
                                                                
  22689518.985    22689513.642   119233600.139 0  92909302.594 0        44.000  
        41.000                                                  
  24287689.340    24287685.034   127632658.452 0  99453538.577 0        42.000  
        38.000                                                  
 21 12 30  3 59 35.0000000  0  0
 21 12 30  3 59 36.0010000  0  6E03E05E08E13E15E18
  23439646.631                   123176337.916 0                        48.000  
                  23439645.827    94382078.864          53.000  
  26106365.851                   137189671.490 0                        43.000  
                  26106365.976   105119703.190          47.000  
  23326617.181                   122581560.015 0                        46.000  
                  23326615.501    93926132.533          51.000  
  24957319.111                   131151897.523 0                        46.000  
                  24957318.253   100493014.857          50.000  
  23102746.842                   121405627.093 0                        48.000  
                  23102747.181    93025094.838          53.000  
  20828416.124                   109454630.751 0                        47.000  
                  20828415.070    83867833.228          51.000  
 21 12 30  3 59 37.0010000  0  9G01G03G04G17G19G21G22G31G32
  20070684.137    20070681.188   105472167.966 0  82186503.455 0        50.000  
        50.000                                                  
  20604682.055    20604679.375   108277633.235 0  84372186.443 0        50.000  
        49.000                                                  
  22388048.804    22388044.587   117649283.578 0  91674767.732 0        45.000  
        45.000                                                  
  22650744.653    22650738.952   119030660.095 0  92751164.280 0        46.000  
        43.000                                                  
  23457506.738                   123269501.190 0                        42.000  
                                                                
  21583531.283                   113421574.932 0                        48.000  
                                                                
  20589760.349                   108199921.379 0                        45.000  
                                                                
  22689342.403    22689337.203   119232672.533 0  92908579.782 0        44.000  
        41.000                                                  
  24288320.099    24288315.792   127635973.082 0  99456121.419 0        42.000  
        38.000                                                  
 21 12 30  3 59 36.0000000  0  0
 21 12 30  3 59 37.0010000  0  6E03E05E08E13E15E18
  23439685.228                   123176540.957 0                        48.000  
                  23439684.478    94382234.435          53.000  
  26106831.303                   137192116.605 0                        43.000  
                  26106831.267   105121576.710          47.000  
  23326184.661                   122579287.311 0                        46.000  
                  23326182.910    93924391.106          50.000  
  24956917.754                   131149787.464 0                        46.000  
                  24956916.718   100491398.051          50.000  
  23102853.055                   121406184.803 0                        48.000  
                  23102853.234    93025522.167          53.000  
  20829338.809                   109459478.689 0                        47.000  
                  20829337.594    83871547.884          51.000  
 21 12 30  3 59 38.0010000  0  9G01G03G04G17G19G21G22G31G32
  20070845.923    20070843.010   105473018.343 0  82187166.093 0        50.000  
        50.000                                                  
  20604474.506    20604471.754   108276542.354 0  84371336.410 0        50.000  
        49.000                                                  
  22387456.768    22387452.479   117646172.115 0  91672343.213 0        45.000  
        45.000                                                  
  22650586.136    22650580.579   119029827.322 0  92750515.377 0        46.000  
        43.000                                                  
  23457069.232                   123267201.797 0                        42.000  
                                                                
  21583874.100                   113423375.800 0                        48.000  
                                                                
  20589820.764                   108200238.842 0                        45.000  
                                                                
  22689165.982    22689160.854   119231745.623 0  92907857.514 0        44.000  
        41.000                                                  
  24288950.929    24288946.640   127639287.891 0  99458704.389 0        41.000  
        38.000                                                  
 21 12 30  3 59 37.0000000  0  0
 21 12 30  3 59 38.0010000  0  6E03E05E08E13E15E18
  23439723.950                   123176744.379 0                        48.000  
                  23439723.254    94382390.311          53.000  
  26107296.702                   137194561.880 0                        42.000  
                  26107296.541   105123450.368          47.000  
  23325752.266                   122577014.895 0                        46.000  
                  23325750.497    93922649.908          50.000  
  24956516.166                   131147677.669 0                        46.000  
                  24956515.219   100489781.460          50.000  
  23102959.287                   121406742.952 0                        48.000  
                  23102959.501    93025949.847          53.000  
  20830261.512                   109464327.577 0                        47.000  
                  20830260.458    83875263.264          51.000  
 21 12 30  3 59 39.0010000  0  9G01G03G04G17G19G21G22G31G32
  20071007.763    20071004.796   105473868.910 0  82187828.866 0        50.000  
        50.000                                                  
  20604266.940    20604264.206   108275451.431 0  84370486.343 0        50.000  
        49.000                                                  
  22386864.696    22386860.461   117643060.581 0  91669918.653 0        45.000  
        45.000                                                  
  22650427.656    22650422.117   119028994.769 0  92749866.637 0        46.000  
        43.000                                                  
  23456631.656                   123264902.589 0                        42.000  
                                                                
  21584216.792                   113425176.677 0                        48.000  
                                                                
  20589881.090                   108200556.244 0                        45.000  
                                                                
  22688989.526    22688984.540   119230818.959 0  92907135.434 0        44.000  
        41.000                                                  
  24289581.705    24289577.363   127642602.450 0  99461287.137 0        41.000  
        38.000                                                  
 21 12 30  3 59 38.0000000  0  0
 21 12 30  3 59 39.0010000  0  6E03E05E08E13E15E18
  23439762.637                   123176947.800 0                        48.000  
                  23439761.904    94382546.175          53.000  
  26107761.922                   137197006.892 0                        42.000  
                  26107761.940   105125323.823          47.000  
  23325319.747                   122574742.338 0                        46.000  
                  23325318.049    93920908.596          50.000  
  24956114.649                   131145567.724 0                        45.000  
                  24956113.756   100488164.755          50.000  
  23103065.625                   121407301.134 0                        48.000  
                  23103065.679    93026377.540          53.000  
  20831184.358                   109469176.997 0                        47.000  
                  20831183.196    83878979.051          51.000  
 21 12 30  3 59 40.0010000  0  9G01G03G04G17G19G21G22G31G32
  20071169.996    20071166.815   105474720.326 0  82188492.307 0        50.000  
        50.000                                                  
  20604059.427    20604056.746   108274361.134 0  84369636.756 0        50.000  
        49.000                                                  
  22386272.659    22386268.389   117639949.661 0  91667494.571 0        45.000  
        45.000                                                  
  22650269.515    22650263.851   119028163.105 0  92749218.582 0        46.000  
        43.000                                                  
  23456194.347                   123262604.215 0                        42.000  
                                                                
  21584559.645                   113426978.211 0                        48.000  
                                                                
  20589941.701                   108200874.250 0                        45.000  
                                                                
  22688813.355    22688808.495   119229893.214 0  92906414.090 0        44.000  
        41.000                                                  
  24290212.607    24290208.193   127645917.414 0  99463870.242 0        41.000  
        38.000                                                  
 21 12 30  3 59 39.0000000  0  0
 21 12 30  3 59 40.0010000  0  6E03E05E08E13E15E18
  23439801.556                   123177151.850 0                        48.000  
                  23439800.680    94382702.529          53.000  
  26108227.356                   137199452.335 0                        43.000  
                  26108227.267   105127197.601          47.000  
  23324887.566                   122572470.315 0                        46.000  
                  23324885.726    93919167.695          50.000  
  24955713.168                   131143458.305 0                        45.000  
                  24955712.257   100486548.447          50.000  
  23103171.982                   121407860.006 0                        48.000  
                  23103171.964    93026805.767          53.000  
  20832107.364                   109474027.614 0                        47.000  
                  20832106.185    83882695.761          51.000  
 21 12 30  3 59 41.0010000  0  9G01G03G04G17G19G21G22G31G32
  20071332.211    20071328.994   105475572.489 0  82189156.326 0        50.000  
        50.000                                                  
  20603852.021    20603849.376   108273271.350 0  84368787.567 0        50.000  
        49.000                                                  
  22385680.748    22385676.531   117636839.272 0  91665070.882 0        45.000  
        46.000                                                  
  22650111.482    22650105.763   119027332.210 0  92748571.146 0        46.000  
        43.000                                                  
  23455757.110                   123260306.603 0                        42.000  
                                                                
  21584902.570                   113428780.314 0                        48.000  
                                                                
  20590002.384                   108201192.758 0                        45.000  
                                                                
  22688637.327    22688632.503   119228968.311 0  92905693.375 0        44.000  
        41.000                                                  
  24290843.491    24290839.113   127649232.698 0  99466453.576 0        41.000  
        38.000                                                  
 21 12 30  3 59 40.0000000  0  0
 21 12 30  3 59 41.0010000  0  6E03E05E08E13E15E18
  23439840.403                   123177356.466 0                        48.000  
                  23439839.724    94382859.311          53.000  
  26108692.648                   137201898.078 0                        42.000  
                  26108692.648   105129071.614          47.000  
  23324455.404                   122570198.732 0                        46.000  
                  23324453.349    93917427.127          50.000  
  24955311.687                   131141349.293 0                        45.000  
                  24955310.954   100484932.449          50.000  
  23103278.267                   121408419.465 0                        48.000  
                  23103278.392    93027234.438          53.000  
  20833030.478                   109478879.337 0                        47.000  
                  20833029.459    83886413.311          51.000  
 21 12 30  3 59 42.0010000  0  9G01G03G04G17G19G21G22G31G32
  20071494.515    20071491.298   105476425.275 0  82189820.837 0        50.000  
        50.000                                                  
  20603644.722    20603642.024   108272181.960 0  84367938.689 0        50.000  
        49.000                                                  
  22385088.962    22385084.727   117633729.270 0  91662647.494 0        45.000  
        45.000                                                  
  22649953.466    22649947.855   119026501.987 0  92747924.203 0        46.000  
        43.000                                                  
  23455320.052                   123258009.617 0                        42.000  
                                                                
  21585245.530                   113430582.855 0                        48.000  
                                                                
  20590063.121                   108201511.636 0                        45.000  
                                                                
  22688461.317    22688456.654   119228044.098 0  92904973.225 0        44.000  
        41.000                                                  
  24291474.392    24291469.978   127652548.205 0  99469037.074 0        42.000  
        38.000                                                  
 21 12 30  3 59 41.0000000  0  0
 21 12 30  3 59 42.0010000  0  6E03E05E08E13E15E18
  23439879.429                   123177561.499 0                        48.000  
                  23439878.786    94383016.407          53.000  
  26109158.189                   137204344.029 0                        42.000  
                  26109158.100   105130945.787          47.000  
  23324023.153                   122567927.457 0                        46.000  
                  23324021.258    93915686.802          50.000  
  24954910.491                   131139240.601 0                        45.000  
                  24954909.741   100483316.691          50.000  
  23103384.802                   121408979.398 0                        48.000  
                  23103385.070    93027663.478          53.000  
  20833954.164                   109483732.028 0                        47.000  
                  20833952.913    83890131.600          51.000  
 21 12 30  3 59 43.0010000  0  9G01G03G04G17G19G21G22G31G32
  20071656.855    20071653.621   105477278.243 0  82190485.494 0        50.000  
        50.000                                                  
  20603437.406    20603434.654   108271092.514 0  84367089.779 0        49.000  
        49.000                                                  
  22384497.193    22384492.887   117630619.195 0  91660224.066 0        45.000  
        46.000                                                  
  22649795.504    22649789.821   119025671.949 0  92747277.427 0        46.000  
        43.000                                                  
  23454882.993                   123255712.792 0                        42.000  
                                                                
  21585588.562                   113432385.387 0                        48.000  
                                                                
  20590123.733                   108201830.449 0                        45.000  
                                                                
  22688285.397    22688280.787   119227120.140 0  92904253.260 0        44.000  
        41.000                                                  
  24292105.294    24292100.826   127655863.442 0  99471620.405 0        42.000  
        38.000                                                  
 21 12 30  3 59 42.0000000  0  0
 21 12 30  3 59 43.0010000  0  6E03E05E08E13E15E18
  23439918.491                   123177766.500 0                        48.000  
                  23439917.686    94383173.492          53.000  
  26109623.713                   137206789.701 0                        42.000  
                  26109623.499   105132819.756          47.000  
  23323590.937                   122565656.038 0                        46.000  
                  23323589.060    93913946.373          50.000  
  24954509.189                   131137131.734 0                        45.000  
                  24954508.403   100481700.815          50.000  
  23103491.426                   121409539.335 0                        48.000  
                  23103491.498    93028092.528          53.000  
  20834877.849                   109488585.236 0                        47.000  
                  20834876.402    83893850.303          51.000  
 21 12 30  3 59 44.0010000  0  9G01G03G04G17G19G21G22G31G32
  20071819.284    20071816.050   105478132.009 0  82191150.762 0        50.000  
        50.000                                                  
  20603230.197    20603227.409   108270003.634 0  84366241.301 0        49.000  
        49.000                                                  
  22383905.425    22383901.261   117627509.677 0  91657801.068 0        45.000  
        46.000                                                  
  22649637.649    22649632.127   119024842.750 0  92746631.298 0        46.000  
        43.000                                                  
  23454446.131                   123253416.765 0                        42.000  
                                                                
  21585931.629                   113434188.529 0                        48.000  
                                                                
  20590184.434                   108202149.799 0                        45.000  
                                                                
  22688109.727    22688105.170   119226197.039 0  92903533.956 0        44.000  
        41.000                                                  
  24292736.249    24292731.728   127659179.055 0  99474203.956 0        42.000  
        38.000                                                  
 21 12 30  3 59 43.0000000  0  0
 21 12 30  3 59 44.0010000  0  6E03E05E08E13E15E18
  23439957.606                   123177972.102 0                        48.000  
                  23439956.855    94383331.032          53.000  
  26110088.969                   137209235.769 0                        42.000  
                  26110089.094   105134693.996          47.000  
  23323158.810                   122563385.098 0                        46.000  
                  23323156.862    93912206.300          50.000  
  24954108.208                   131135023.347 0                        45.000  
                  24954107.279   100480085.293          50.000  
  23103597.890                   121410099.917 0                        48.000  
                  23103598.247    93028522.067          53.000  
  20835801.695                   109493439.600 0                        47.000  
                  20835800.141    83897569.872          51.000  
 21 12 30  3 59 45.0010000  0  9G01G03G04G17G19G21G22G31G32
  20071981.803    20071978.605   105478986.274 0  82191816.425 0        50.000  
        50.000                                                  
  20603023.005    20603020.307   108268915.021 0  84365393.027 0        49.000  
        49.000                                                  
  22383313.817    22383309.761   117624400.435 0  91655378.268 0        45.000  
        46.000                                                  
  22649479.955    22649474.576   119024014.071 0  92745985.585 0        46.000  
        43.000                                                  
  23454009.305                   123251121.234 0                        42.000  
                                                                
  21586274.732                   113435991.985 0                        48.000  
                                                                
  20590245.207                   108202469.416 0                        45.000  
                                                                
  22687934.253    22687929.643   119225274.533 0  92902815.125 0        44.000  
        41.000                                                  
  24293367.240    24293362.683   127662494.718 0  99476787.635 0        42.000  
        38.000                                                  
 21 12 30  3 59 44.0000000  0  0
 21 12 30  3 59 45.0010000  0  6E03E05E08E13E15E18
  23439996.810                   123178177.992 0                        48.000  
                  23439996.006    94383488.789          53.000  
  26110554.475                   137211681.884 0                        42.000  
                  26110554.332   105136568.297          47.000  
  23322726.701                   122561114.351 0                        46.000  
                  23322724.754    93910466.373          50.000  
  24953706.745                   131132915.104 0                        45.000  
                  24953706.048   100478469.893          50.000  
