     2.11           OBSERVATION DATA    M (Mixed)           RINEX VERSION / TYPE
RTCM3TORINEX on                         2022-01-19 00:59    PGM / RUN BY / DATE
RTCM3TORINEX                                                MARKER NAME
                                                            OBSERVER / AGENCY
                                                            REC # / TYPE / VERS
                                                            ANT # / TYPE
         .0000         .0000         .0000                  APPROX POSITION XYZ
         .0000         .0000         .0000                  ANTENNA: DELTA H/E/N
     1     1                                                WAVELENGTH FACT L1/2
     9    C1    C2    L1    L2    S1    S2    C7    L7    S7# / TYPES OF OBSERV
  2022     1    19     0    59   21.0010000     GPS         TIME OF FIRST OBS
                                                            END OF HEADER
 22  1 19  0 59 21.0010000  0  8E03E05E08E09E13E15E21E27
  24543187.635                   128975829.202 0                        47.000  
                  24543186.867    98825639.291          52.000  
  24150705.410                   126913099.919 0                        47.000  
                  24150703.677    97245203.739          51.000  
  26551469.686                   139528545.97310                        43.000  
                  26551466.666   106911484.214          41.000  
  25906442.987                   136139640.931 0                        37.000  
                  25906441.915   104314792.801          43.000  
  27806218.255                   146122532.819 0                        40.000  
                  27806216.593   111964018.075          43.000  
  23694992.432                   124518373.126 0                        48.000  
                  23694991.967    95410185.405          52.000  
  28474537.886                   149634690.86610                        35.000  
                  28474536.350   114655360.233          40.000  
  28378835.885                   149130991.88510                        38.000  
                  28378834.973   114269220.493          40.000  
 22  1 19  0 59 22.0010000  0  9G01G03G08G10G14G17G21G27G32
  20860315.064    20860311.759   109621450.989 0  85419315.674 0        49.000  
        48.000                                                  
  22916224.226    22916221.921   120425370.95110  93837997.577 0        44.000  
        46.000                                                  
  21857013.749    21857011.230   114858764.819 0  89500335.400 0        47.000  
        48.000                                                  
  24159920.983    24159919.464   126961599.996 0  98931119.105 0        39.000  
        40.000                                                  
  24591160.529    24591155.383   129227024.073 0 100696162.320 0        41.000  
        41.000                                                  
  25253148.916    25253142.823   132705457.200 0 103407894.581 0        39.000  
        37.000                                                  
  20845265.166                   109542607.402 0                        47.000  
                                                                
  23969791.756    23969788.253   125962086.700 0  98151794.996 0        42.000  
        40.000                                                  
  21559146.339    21559142.604   113293706.442 0  88280524.334 0        49.000  
        46.000                                                  
 22  1 19  0 59 21.0000000  0  0
 22  1 19  0 59 22.0010000  0  8E03E05E08E09E13E15E21E27
  24542784.921                   128973712.755 0                        47.000  
                  24542784.170    98824017.599          52.000  
  24150838.248                   126913798.770 0                        47.000  
                  24150836.658    97245739.220          51.000  
  26550867.464                   139525381.17910                        43.000  
                  26550864.301   106909059.242          41.000  
  25906957.704                   136142346.422 0                        37.000  
                  25906956.685   104316865.831          43.000  
  27805714.438                   146119884.391 0                        40.000  
                  27805712.669   111961988.761          43.000  
  23694727.738                   124516982.402 0                        48.000  
                  23694727.381    95409119.790          52.000  
  28474663.023                   149635348.75710                        35.000  
                  28474661.469   114655864.336          40.000  
  28379279.019                   149133321.20910                        38.000  
                  28379278.268   114271005.297          40.000  
 22  1 19  0 59 23.0010000  0  9G01G03G08G10G14G17G21G27G32
  20859935.401    20859932.060   109619455.547 0  85417760.791 0        49.000  
        48.000                                                  
  22915676.398    22915674.021   120422492.05110  93835754.279 0        44.000  
        46.000                                                  
  21857528.913    21857526.447   114861472.470 0  89502445.257 0        47.000  
        48.000                                                  
  24160498.171    24160496.634   126964632.824 0  98933482.357 0        39.000  
        40.000                                                  
  24591304.018    24591298.889   129227777.971 0 100696749.789 0        41.000  
        41.000                                                  
  25252527.092    25252521.177   132702189.961 0 103405348.681 0        39.000  
        37.000                                                  
  20845193.600                   109542231.185 0                        47.000  
                                                                
  23970510.537    23970507.142   125965864.244 0  98154738.545 0        42.000  
        40.000                                                  
  21559330.425    21559326.780   113294673.794 0  88281278.113 0        49.000  
        46.000                                                  
 22  1 19  0 59 22.0000000  0  0
 22  1 19  0 59 23.0010000  0  8E03E05E08E09E13E15E21E27
  24542382.332                   128971596.568 0                        47.000  
                  24542381.385    98822396.104          52.000  
  24150971.176                   126914497.958 0                        47.000  
                  24150969.711    97246274.964          51.000  
  26550265.260                   139522216.31810                        43.000  
                  26550262.097   106906634.223          41.000  
  25907472.600                   136145051.980 0                        37.000  
                  25907471.438   104318938.935          43.000  
  27805210.299                   146117235.849 0                        40.000  
                  27805208.584   111959959.360          43.000  
  23694463.009                   124515591.800 0                        48.000  
                  23694462.633    95408054.270          52.000  
  28474788.178                   149636006.96010                        35.000  
                  28474786.570   114656368.696          40.000  
  28379722.474                   149135650.60310                        38.000  
                  28379721.634   114272790.169          40.000  
 22  1 19  0 59 24.0010000  0  9G01G03G08G10G14G17G21G27G32
  20859555.738    20859552.468   109617460.544 0  85416206.243 0        49.000  
        48.000                                                  
  22915128.677    22915126.211   120419613.49210  93833511.255 0        44.000  
        46.000                                                  
  21858044.202    21858041.861   114864180.643 0  89504555.529 0        47.000  
        48.000                                                  
  24161075.411    24161073.803   126967665.847 0  98935845.730 0        39.000  
        40.000                                                  
  24591447.613    24591442.628   129228532.532 0 100697337.761 0        41.000  
        41.000                                                  
  25251905.429    25251899.389   132698922.987 0 103402803.003 0        39.000  
        37.000                                                  
  20845122.142                   109541855.399 0                        47.000  
                                                                
  23971229.408    23971226.209   125969642.036 0  98157682.283 0        42.000  
        40.000                                                  
  21559514.548    21559510.992   113295641.845 0  88282032.439 0        49.000  
        46.000                                                  
 22  1 19  0 59 23.0000000  0  0
 22  1 19  0 59 24.0010000  0  8E03E05E08E09E13E15E21E27
  24541979.635                   128969480.807 0                        47.000  
                  24541978.831    98820774.941          52.000  
  24151104.354                   126915197.686 0                        47.000  
                  24151102.853    97246811.119          51.000  
  26549662.806                   139519051.56310                        43.000  
                  26549659.947   106904209.280          42.000  
  25907987.478                   136147757.832 0                        37.000  
                  25907986.334   104321012.243          43.000  
  27804706.357                   146114587.380 0                        40.000  
                  27804704.516   111957930.005          43.000  
  23694198.529                   124514201.517 0                        48.000  
                  23694198.172    95406988.984          52.000  
  28474913.493                   149636665.76710                        35.000  
                  28474911.939   114656873.476          40.000  
  28380165.947                   149137980.31210                        38.000  
                  28380164.965   114274575.257          40.000  
 22  1 19  0 59 25.0010000  0  9G01G03G08G10G14G17G21G27G32
  20859176.236    20859172.912   109615465.836 0  85414651.929 0        49.000  
        48.000                                                  
  22914580.866    22914578.471   120416735.13010  93831268.375 0        43.000  
        46.000                                                  
  21858559.670    21858557.222   114866889.189 0  89506666.079 0        47.000  
        48.000                                                  
  24161652.581    24161651.026   126970698.860 0  98938209.108 0        39.000  
        40.000                                                  
  24591591.387    24591586.259   129229287.607 0 100697926.119 0        41.000  
        41.000                                                  
  25251283.694    25251277.851   132695656.151 0 103400257.421 0        39.000  
        37.000                                                  
  20845050.702                   109541479.884 0                        47.000  
                                                                
  23971948.296    23971945.187   125973419.853 0  98160626.023 0        42.000  
        40.000                                                  
  21559698.849    21559695.311   113296610.472 0  88282787.217 0        49.000  
        46.000                                                  
 22  1 19  0 59 24.0000000  0  0
 22  1 19  0 59 25.0010000  0  8E03E05E08E09E13E15E21E27
  24541577.082                   128967365.352 0                        47.000  
                  24541576.242    98819154.005          52.000  
  24151237.514                   126915897.793 0                        47.000  
                  24151236.048    97247347.562          51.000  
  26549060.477                   139515886.78610                        43.000  
                  26549057.636   106901784.322          42.000  
  25908502.356                   136150463.784 0                        37.000  
                  25908501.141   104323085.630          43.000  
  27804202.415                   146111938.855 0                        40.000  
                  27804200.485   111955900.610          43.000  
  23693933.978                   124512811.398 0                        48.000  
                  23693933.639    95405923.826          52.000  
  28475038.880                   149637324.94110                        34.000  
                  28475037.361   114657378.575          40.000  
  28380609.296                   149140310.10510                        38.000  
                  28380608.349   114276360.437          40.000  
 22  1 19  0 59 26.0010000  0  9G01G03G08G10G14G17G21G27G32
  20858796.698    20858793.446   109613471.461 0  85413097.867 0        49.000  
        48.000                                                  
  22914033.252    22914030.911   120413857.03210  93829025.697 0        43.000  
        46.000                                                  
  21859075.191    21859072.832   114869598.157 0  89508776.962 0        47.000  
        48.000                                                  
  24162229.715    24162228.196   126973731.892 0  98940572.551 0        39.000  
        40.000                                                  
  24591735.144    24591730.051   129230043.230 0 100698514.919 0        41.000  
        41.000                                                  
  25250662.013    25250656.241   132692389.450 0 103397711.937 0        38.000  
        37.000                                                  
  20844979.244                   109541104.688 0                        47.000  
                                                                
  23972667.149    23972664.183   125977197.789 0  98163569.869 0        42.000  
        40.000                                                  
  21559883.275    21559879.683   113297579.708 0  88283542.466 0        49.000  
        46.000                                                  
 22  1 19  0 59 25.0000000  0  0
 22  1 19  0 59 26.0010000  0  8E03E05E08E09E13E15E21E27
  24541174.636                   128965250.245 0                        47.000  
                  24541173.850    98817533.339          52.000  
  24151370.942                   126916598.342 0                        47.000  
                  24151369.369    97247884.351          51.000  
  26548458.255                   139512722.02210                        43.000  
                  26548455.628   106899359.365          42.000  
  25909017.448                   136153169.903 0                        37.000  
                  25909016.287   104325159.143          43.000  
  27803698.419                   146109290.290 0                        40.000  
                  27803696.507   111953871.196          43.000  
  23693669.374                   124511421.497 0                        48.000  
                  23693669.088    95404858.834          52.000  
  28475164.124                   149637984.58510                        34.000  
                  28475162.802   114657884.012          39.000  
  28381052.412                   149142640.09610                        38.000  
                  28381051.643   114278145.743          40.000  
 22  1 19  0 59 27.0010000  0  9G01G03G08G10G14G17G21G27G32
  20858417.160    20858413.997   109611477.374 0  85411544.031 0        49.000  
        48.000                                                  
  22913485.602    22913483.118   120410979.10110  93826783.160 0        44.000  
        46.000                                                  
  21859590.802    21859588.354   114872307.510 0  89510888.146 0        47.000  
        48.000                                                  
  24162806.884    24162805.329   126976764.973 0  98942935.961 0        39.000  
        40.000                                                  
  24591879.061    24591874.075   129230799.352 0 100699104.105 0        41.000  
        41.000                                                  
  25250040.367    25250034.703   132689122.866 0 103395166.556 0        38.000  
        37.000                                                  
  20844907.982                   109540729.757 0                        47.000  
                                                                
  23973386.020    23973383.197   125980975.791 0  98166513.767 0        42.000  
        40.000                                                  
  21560067.791    21560064.217   113298549.514 0  88284298.150 0        49.000  
        46.000                                                  
 22  1 19  0 59 26.0000000  0  0
 22  1 19  0 59 27.0010000  0  8E03E05E08E09E13E15E21E27
  24540772.333                   128963135.415 0                        47.000  
                  24540771.368    98815912.887          52.000  
  24151504.173                   126917299.273 0                        47.000  
                  24151502.761    97248421.431          51.000  
  26547856.105                   139509557.24010                        43.000  
                  26547853.478   106896934.398          42.000  
  25909532.416                   136155876.119 0                        37.000  
                  25909531.308   104327232.733          43.000  
  27803194.405                   146106641.662 0                        40.000  
                  27803192.440   111951841.721          43.000  
  23693405.055                   124510031.762 0                        49.000  
                  23693404.608    95403793.971          52.000  
  28475289.422                   149638644.61810                        34.000  
                  28475288.296   114658389.740          39.000  
  28381495.867                   149144970.20610                        38.000  
                  28381495.153   114279931.148          41.000  
 22  1 19  0 59 28.0010000  0  9G01G03G08G10G14G17G21G27G32
  20858037.800    20858034.548   109609483.584 0  85409990.435 0        49.000  
        48.000                                                  
  22912938.006    22912935.576   120408101.39610  93824540.783 0        44.000  
        46.000                                                  
  21860106.412    21860103.946   114875017.262 0  89512999.638 0        47.000  
        48.000                                                  
  24163384.000    24163382.499   126979798.054 0  98945299.407 0        39.000  
        40.000                                                  
  24592023.067    24592018.046   129231556.012 0 100699693.714 0        41.000  
        41.000                                                  
  25249418.811    25249413.147   132685856.402 0 103392621.285 0        38.000  
        37.000                                                  
  20844836.702                   109540355.113 0                        47.000  
                                                                
  23974104.891    23974102.103   125984753.870 0  98169457.717 0        42.000  
        40.000                                                  
  21560252.431    21560248.768   113299519.898 0  88285054.305 0        49.000  
        46.000                                                  
 22  1 19  0 59 27.0000000  0  0
 22  1 19  0 59 28.0010000  0  8E03E05E08E09E13E15E21E27
  24540370.012                   128961020.907 0                        47.000  
                  24540369.065    98814292.677          52.000  
  24151637.619                   126918000.610 0                        47.000  
                  24151636.207    97248958.811          51.000  
  26547253.883                   139506392.44310                        43.000  
                  26547251.167   106894509.431          42.000  
  25910047.312                   136158582.467 0                        37.000  
                  25910046.275   104329306.439          43.000  
  27802690.374                   146103992.977 0                        40.000  
                  27802688.390   111949812.209          43.000  
  23693140.629                   124508642.207 0                        49.000  
                  23693140.183    95402729.251          52.000  
  28475415.005                   149639305.04810                        34.000  
                  28475413.826   114658895.811          39.000  
  28381939.377                   149147300.44610                        38.000  
                  28381938.519   114281716.654          41.000  
 22  1 19  0 59 29.0010000  0  9G01G03G08G10G14G17G21G27G32
  20857658.441    20857655.278   109607490.066 0  85408437.040 0        49.000  
        48.000                                                  
  22912390.410    22912388.087   120405223.85810  93822298.553 0        44.000  
        46.000                                                  
  21860622.220    21860619.771   114877727.383 0  89515111.424 0        47.000  
        48.000                                                  
  24163961.223    24163959.704   126982831.120 0  98947662.829 0        39.000  
        40.000                                                  
  24592167.109    24592162.035   129232313.170 0 100700283.710 0        41.000  
        41.000                                                  
  25248797.273    25248791.609   132682590.047 0 103390076.069 0        38.000  
        36.000                                                  
  20844765.405                   109539980.712 0                        47.000  
                                                                
  23974823.833    23974821.099   125988531.975 0  98172401.693 0        42.000  
        40.000                                                  
  21560437.179    21560433.409   113300490.819 0  88285810.862 0        49.000  
        46.000                                                  
 22  1 19  0 59 28.0000000  0  0
 22  1 19  0 59 29.0010000  0  8E03E05E08E09E13E15E21E27
  24539967.655                   128958906.678 0                        47.000  
                  24539966.583    98812672.679          52.000  
  24151771.154                   126918702.324 0                        47.000  
                  24151769.760    97249496.491          51.000  
  26546651.536                   139503227.59910                        43.000  
                  26546648.981   106892084.430          42.000  
  25910562.440                   136161288.938 0                        37.000  
                  25910561.261   104331380.217          43.000  
  27802186.235                   146101344.203 0                        40.000  
                  27802184.359   111947782.627          43.000  
  23692876.275                   124507252.801 0                        49.000  
                  23692875.846    95401664.644          52.000  
  28475540.607                   149639965.90110                        34.000  
                  28475539.481   114659402.152          39.000  
  28382382.939                   149149630.77310                        38.000  
                  28382381.939   114283502.254          41.000  
 22  1 19  0 59 30.0010000  0  9G01G03G08G10G14G17G21G27G32
  20857279.243    20857276.008   109605497.262 0  85406884.212 0        49.000  
        48.000                                                  
  22911843.010    22911840.651   120402346.94910  93820056.805 0        44.000  
        46.000                                                  
  21861138.098    21861135.793   114880438.309 0  89517223.833 0        47.000  
        48.000                                                  
  24164538.553    24164536.963   126985864.618 0  98950026.609 0        39.000  
        40.000                                                  
  24592311.455    24592306.309   129233071.237 0 100700874.417 0        41.000  
        41.000                                                  
  25248175.860    25248170.177   132679324.267 0 103387531.257 0        38.000  
        36.000                                                  
  20844694.233                   109539607.016 0                        47.000  
                                                                
  23975542.883    23975540.113   125992310.553 0  98175346.058 0        42.000  
        40.000                                                  
  21560622.034    21560618.335   113301462.723 0  88286568.190 0        49.000  
        46.000                                                  
 22  1 19  0 59 29.0000000  0  0
 22  1 19  0 59 30.0010000  0  8E03E05E08E09E13E15E21E27
  24539565.495                   128956793.171 0                        47.000  
                  24539564.476    98811053.241          52.000  
  24151904.743                   126919404.837 0                        47.000  
                  24151903.474    97250034.782          51.000  
  26546049.422                   139500063.14910                        43.000  
                  26546046.848   106889659.714          42.000  
  25911077.586                   136163995.914 0                        37.000  
                  25911076.371   104333454.418          43.000  
  27801682.168                   146098695.784 0                        40.000  
                  27801680.363   111945753.325          43.000  
  23692611.956                   124505863.980 0                        49.000  
                  23692611.510    95400600.489          52.000  
  28475666.208                   149640627.55410                        34.000  
                  28475665.404   114659909.144          39.000  
  28382826.591                   149151961.69110                        38.000  
                  28382825.501   114285288.271          41.000  
 22  1 19  0 59 31.0010000  0  9G01G03G08G10G14G17G21G27G32
  20856900.026    20856896.863   109603504.751 0  85405331.613 0        49.000  
        48.000                                                  
  22911295.575    22911293.144   120399470.26210  93817815.231 0        44.000  
        46.000                                                  
  21861654.013    21861651.690   114883149.634 0  89519336.558 0        47.000  
        48.000                                                  
  24165115.919    24165114.275   126988898.145 0  98952390.381 0        39.000  
        40.000                                                  
  24592455.801    24592450.619   129233829.860 0 100701465.528 0        41.000  
        40.000                                                  
  25247554.357    25247548.782   132676058.572 0 103384986.583 0        38.000  
        36.000                                                  
  20844623.150                   109539233.605 0                        47.000  
                                                                
  23976261.968    23976259.252   125996089.236 0  98178290.459 0        42.000  
        40.000                                                  
  21560807.050    21560803.512   113302435.211 0  88287325.975 0        49.000  
        46.000                                                  
 22  1 19  0 59 30.0000000  0  0
 22  1 19  0 59 31.0010000  0  8E03E05E08E09E13E15E21E27
  24539163.227                   128954679.960 0                        47.000  
                  24539162.280    98809434.030          52.000  
  24152038.475                   126920107.755 0                        47.000  
                  24152037.188    97250573.386          51.000  
  26545447.235                   139496898.68110                        43.000  
                  26545444.627   106887234.992          42.000  
  25911592.607                   136166703.072 0                        37.000  
                  25911591.535   104335528.705          43.000  
  27801178.243                   146096047.318 0                        40.000  
                  27801176.421   111943723.981          43.000  
  23692347.870                   124504475.364 0                        49.000  
                  23692347.263    95399536.475          52.000  
  28475792.203                   149641289.62510                        34.000  
                  28475791.452   114660416.438          39.000  
  28383269.993                   149154292.73710                        38.000  
                  28383269.153   114287074.384          41.000  
 22  1 19  0 59 32.0010000  0  9G01G03G08G10G14G17G21G27G32
  20856520.881    20856517.700   109601511.929 0  85403778.758 0        49.000  
        48.000                                                  
  22910748.157    22910745.709   120396593.15310  93815573.335 0        44.000  
        46.000                                                  
  21862169.963    21862167.568   114885860.724 0  89521449.091 0        47.000  
        48.000                                                  
  24165693.035    24165691.355   126991931.068 0  98954753.706 0        39.000  
        40.000                                                  
  24592600.112    24592594.894   129234588.368 0 100702056.583 0        41.000  
        40.000                                                  
  25246932.783    25246927.155   132672792.390 0 103382441.515 0        38.000  
        36.000                                                  
  20844551.977                   109538859.862 0                        47.000  
                                                                
  23976980.875    23976978.105   125999867.374 0  98181234.471 0        42.000  
        40.000                                                  
  21560992.102    21560988.474   113303407.666 0  88288083.726 0        49.000  
        46.000                                                  
 22  1 19  0 59 31.0000000  0  0
 22  1 19  0 59 32.0010000  0  8E03E05E08E09E13E15E21E27
  24538760.978                   128952566.450 0                        48.000  
                  24538760.174    98807814.587          52.000  
  24152172.278                   126920810.467 0                        47.000  
                  24152170.956    97251111.826          51.000  
  26544844.906                   139493733.58210                        43.000  
                  26544842.423   106884809.795          43.000  
  25912107.842                   136169409.713 0                        37.000  
                  25912106.627   104337602.620          43.000  
  27800673.997                   146093398.180 0                        40.000  
                  27800672.443   111941694.111          43.000  
  23692083.444                   124503086.296 0                        49.000  
                  23692082.980    95398472.126          52.000  
  28475918.358                   149641951.50110                        34.000  
                  28475917.268   114660923.583          39.000  
  28383713.306                   149156623.27110                        38.000  
                  28383712.716   114288860.142          41.000  
 22  1 19  0 59 33.0010000  0  9G01G03G08G10G14G17G21G27G32
  20856141.683    20856138.591   109599519.661 0  85402226.344 0        49.000  
        48.000                                                  
  22910200.829    22910198.309   120393716.50710  93813331.792 0        44.000  
        46.000                                                  
  21862685.931    21862683.644   114888572.444 0  89523562.123 0        47.000  
        48.000                                                  
  24166270.294    24166268.596   126994964.278 0  98957117.244 0        39.000  
        40.000                                                  
  24592744.654    24592739.401   129235347.650 0 100702648.227 0        40.000  
        40.000                                                  
  25246311.245    25246305.724   132669526.604 0 103379896.767 0        38.000  
        35.000                                                  
  20844481.073                   109538486.655 0                        47.000  
                                                                
  23977699.835    23977697.101   126003645.820 0  98184178.706 0        42.000  
        40.000                                                  
  21561177.207    21561173.704   113304380.953 0  88288842.133 0        49.000  
        46.000                                                  
 22  1 19  0 59 32.0000000  0  0
 22  1 19  0 59 33.0010000  0  8E03E05E08E09E13E15E21E27
  24538359.121                   128950453.506 0                        48.000  
                  24538357.978    98806195.580          52.000  
  24152306.242                   126921513.828 0                        47.000  
                  24152304.795    97251650.758          51.000  
  26544242.631                   139490568.74110                        43.000  
                  26544240.237   106882384.783          43.000  
  25912622.935                   136172116.718 0                        37.000  
                  25912621.809   104339676.837          43.000  
  27800170.073                   146090749.233 0                        40.000  
                  27800168.429   111939664.398          43.000  
  23691819.304                   124501697.671 0                        49.000  
                  23691818.804    95397408.115          52.000  
  28476044.388                   149642614.00910                        34.000  
                  28476043.441   114661431.237          39.000  
  28384156.797                   149158954.24710                        38.000  
                  28384156.261   114290646.196          40.000  
 22  1 19  0 59 34.0010000  0  9G01G03G08G10G14G17G21G27G32
  20855762.716    20855759.625   109597528.104 0  85400674.479 0        49.000  
        48.000                                                  
  22909653.572    22909651.053   120390840.49810  93811090.749 0        44.000  
        46.000                                                  
  21863202.024    21863199.826   114891284.981 0  89525675.790 0        47.000  
        48.000                                                  
  24166847.588    24166845.927   126997997.893 0  98959481.100 0        39.000  
        40.000                                                  
  24592889.340    24592884.032   129236107.878 0 100703240.621 0        40.000  
        41.000                                                  
  25245689.832    25245684.346   132666261.344 0 103377352.431 0        37.000  
        35.000                                                  
  20844410.187                   109538114.142 0                        47.000  
                                                                
  23978419.045    23978416.257   126007424.758 0  98187123.349 0        42.000  
        40.000                                                  
  21561362.705    21561359.024   113305355.225 0  88289601.306 0        49.000  
        46.000                                                  
 22  1 19  0 59 33.0000000  0  0
 22  1 19  0 59 34.0010000  0  8E03E05E08E09E13E15E21E27
  24537957.175                   128948341.273 0                        48.000  
                  24537956.085    98804577.116          52.000  
  24152440.260                   126922218.002 0                        47.000  
                  24152438.794    97252190.324          51.000  
  26543640.266                   139487404.25810                        43.000  
                  26543638.033   106879960.056          43.000  
  25913137.884                   136174824.263 0                        37.000  
                  25913136.937   104341751.452          43.000  
  27799666.256                   146088100.632 0                        40.000  
                  27799664.451   111937634.960          43.000  
  23691555.129                   124500309.629 0                        49.000  
                  23691554.664    95396344.549          52.000  
  28476170.740                   149643277.36110                        34.000  
                  28476169.775   114661939.520          39.000  
  28384600.396                   149161285.72510                        38.000  
                  28384599.913   114292432.669          40.000  
 22  1 19  0 59 35.0010000  0  9G01G03G08G10G14G17G21G27G32
  20855383.804    20855380.677   109595536.858 0  85399122.858 0        49.000  
        48.000                                                  
  22909106.369    22909103.796   120387964.70010  93808849.870 0        44.000  
        46.000                                                  
  21863718.349    21863716.009   114893997.917 0  89527789.759 0        47.000  
        48.000                                                  
  24167424.954    24167423.185   127001031.549 0  98961844.986 0        40.000  
        40.000                                                  
  24593034.061    24593028.825   129236868.648 0 100703833.411 0        40.000  
        41.000                                                  
  25245068.508    25245063.058   132662996.242 0 103374808.169 0        37.000  
        35.000                                                  
  20844339.390                   109537741.925 0                        47.000  
                                                                
  23979138.130    23979135.450   126011203.776 0  98190068.038 0        42.000  
        40.000                                                  
  21561548.239    21561544.487   113306330.072 0  88290360.927 0        49.000  
        46.000                                                  
 22  1 19  0 59 34.0000000  0  0
 22  1 19  0 59 35.0010000  0  8E03E05E08E09E13E15E21E27
  24537555.337                   128946229.365 0                        48.000  
                  24537554.211    98802958.901          52.000  
  24152574.260                   126922922.580 0                        47.000  
                  24152572.866    97252730.194          51.000  
  26543038.152                   139484239.81110                        43.000  
                  26543035.757   106877535.340          43.000  
  25913653.316                   136177531.970 0                        37.000  
                  25913652.190   104343826.186          43.000  
  27799162.135                   146085451.990 0                        40.000  
                  27799160.563   111935605.470          43.000  
  23691290.935                   124498921.785 0                        49.000  
                  23691290.524    95395281.131          52.000  
  28476297.020                   149643941.14510                        34.000  
                  28476296.180   114662448.141          39.000  
  28385044.137                   149163617.37310                        38.000  
                  28385043.601   114294219.255          40.000  
 22  1 19  0 59 36.0010000  0  9G01G03G08G10G14G17G21G27G32
  20855004.998    20855001.853   109593545.878 0  85397571.450 0        49.000  
        48.000                                                  
  22908559.148    22908556.629   120385089.09110  93806609.126 0        44.000  
        46.000                                                  
  21864234.711    21864232.316   114896711.208 0  89529904.014 0        47.000  
        48.000                                                  
  24168002.249    24168000.426   127004065.197 0  98964208.872 0        40.000  
        40.000                                                  
  24593178.889    24593173.707   129237629.897 0 100704426.589 0        40.000  
        41.000                                                  
  25244447.238    25244441.663   132659731.216 0 103372264.022 0        37.000  
        34.000                                                  
  20844268.646                   109537369.960 0                        47.000  
                                                                
  23979857.233    23979854.589   126014982.844 0  98193012.762 0        42.000  
        41.000                                                  
  21561733.863    21561730.039   113307305.483 0  88291120.992 0        49.000  
        46.000                                                  
 22  1 19  0 59 35.0000000  0  0
 22  1 19  0 59 36.0010000  0  8E03E05E08E09E13E15E21E27
  24537153.570                   128944117.730 0                        48.000  
                  24537152.390    98801340.897          52.000  
  24152708.224                   126923627.532 0                        47.000  
                  24152707.026    97253270.354          51.000  
  26542435.948                   139481075.28710                        42.000  
                  26542433.607   106875110.586          43.000  
  25914168.587                   136180239.767 0                        37.000  
                  25914167.444   104345900.983          43.000  
  27798657.961                   146082803.263 0                        40.000  
                  27798656.477   111933575.932          43.000  
  23691026.938                   124497534.081 0                        49.000  
                  23691026.510    95394217.832          52.000  
  28476423.229                   149644605.34010                        34.000  
                  28476422.461   114662957.026          39.000  
  28385487.914                   149165949.13510                        38.000  
                  28385487.307   114296005.919          40.000  
 22  1 19  0 59 37.0010000  0  9G01G03G08G10G14G17G21G27G32
  20854626.247    20854622.959   109591555.116 0  85396020.209 0        49.000  
        48.000                                                  
  22908011.909    22908009.390   120382213.58110  93804368.485 0        44.000  
        46.000                                                  
  21864750.965    21864748.642   114899424.806 0  89532018.504 0        47.000  
        48.000                                                  
  24168579.597    24168577.739   127007098.768 0  98966572.693 0        39.000  
        40.000                                                  
  24593323.807    24593318.679   129238391.548 0 100705020.097 0        40.000  
        41.000                                                  
  25243825.932    25243820.303   132656466.255 0 103369719.856 0        36.000  
        34.000                                                  
  20844197.867                   109536998.192 0                        47.000  
                                                                
  23980576.426    23980573.727   126018761.891 0  98195957.486 0        42.000  
        40.000                                                  
  21561919.665    21561915.751   113308281.372 0  88291881.420 0        49.000  
        46.000                                                  
 22  1 19  0 59 36.0000000  0  0
 22  1 19  0 59 37.0010000  0  8E03E05E08E09E13E15E21E27
  24536751.660                   128942006.324 0                        48.000  
                  24536750.605    98799723.066          52.000  
  24152842.402                   126924332.806 0                        47.000  
                  24152841.258    97253810.754          51.000  
  26541833.815                   139477910.68710                        42.000  
                  26541831.439   106872685.758          43.000  
  25914683.930                   136182947.606 0                        37.000  
                  25914682.643   104347975.825          43.000  
  27798153.947                   146080154.392 0                        40.000  
                  27798152.231   111931546.276          43.000  
  23690762.834                   124496146.475 0                        49.000  
                  23690762.388    95393154.604          52.000  
  28476549.724                   149645269.79010                        34.000  
                  28476549.027   114663466.180          39.000  
  28385931.602                   149168280.95110                        37.000  
                  28385931.012   114297792.621          41.000  
 22  1 19  0 59 38.0010000  0  9G01G03G08G10G14G17G21G27G32
  20854247.423    20854244.243   109589564.921 0  85394469.403 0        49.000  
        48.000                                                  
  22907464.760    22907462.240   120379338.56610  93802128.214 0        44.000  
        46.000                                                  
  21865267.415    21865265.199   114902139.057 0  89534133.509 0        47.000  
        48.000                                                  
  24169156.963    24169155.158   127010132.630 0  98968936.732 0        39.000  
        40.000                                                  
  24593468.886    24593463.793   129239154.032 0 100705614.245 0        40.000  
        41.000                                                  
  25243204.644    25243199.033   132653201.666 0 103367176.032 0        36.000  
        33.000                                                  
  20844127.266                   109536626.972 0                        47.000  
                                                                
  23981295.636    23981292.884   126022541.270 0  98198902.454 0        42.000  
        40.000                                                  
  21562105.467    21562101.714   113309258.097 0  88292642.516 0        49.000  
        46.000                                                  
 22  1 19  0 59 37.0000000  0  0
 22  1 19  0 59 38.0010000  0  8E03E05E08E09E13E15E21E27
  24536350.143                   128939895.478 0                        48.000  
                  24536348.945    98798105.663          52.000  
  24152976.956                   126925038.731 0                        47.000  
                  24152975.562    97254351.663          51.000  
  26541231.647                   139474746.30710                        42.000  
                  26541229.199   106870261.113          43.000  
  25915199.290                   136185655.820 0                        37.000  
                  25915198.075   104350050.959          43.000  
  27797649.880                   146077505.727 0                        40.000  
                  27797648.343   111929516.786          44.000  
  23690498.909                   124494759.314 0                        48.000  
                  23690498.337    95392091.707          52.000  
  28476676.380                   149645934.98010                        34.000  
                  28476675.593   114663975.852          39.000  
  28386375.415                   149170613.13610                        38.000  
                  28386374.682   114299579.640          41.000  
 22  1 19  0 59 39.0010000  0  9G01G03G08G10G14G17G21G27G32
  20853868.814    20853865.544   109587574.781 0  85392918.644 0        49.000  
        48.000                                                  
  22906917.610    22906915.127   120376463.49710  93799887.902 0        44.000  
        46.000                                                  
  21865784.008    21865781.739   114904853.466 0  89536248.631 0        47.000  
        48.000                                                  
  24169734.275    24169732.524   127013166.254 0  98971300.593 0        39.000  
        41.000                                                  
  24593613.946    24593608.943   129239916.766 0 100706208.595 0        40.000  
        41.000                                                  
  25242583.410    25242577.620   132649936.949 0 103364632.094 0        36.000  
        33.000                                                  
  20844056.719                   109536255.788 0                        47.000  
                                                                
  23982014.828    23982012.005   126026320.467 0  98201847.285 0        42.000  
        40.000                                                  
  21562291.412    21562287.642   113310235.160 0  88293403.852 0        49.000  
        46.000                                                  
 22  1 19  0 59 38.0000000  0  0
 22  1 19  0 59 39.0010000  0  8E03E05E08E09E13E15E21E27
  24535948.429                   128937784.700 0                        48.000  
                  24535947.375    98796488.316          52.000  
  24153111.134                   126925744.810 0                        47.000  
                  24153110.044    97254892.684          51.000  
  26540629.300                   139471581.67710                        42.000  
                  26540627.067   106867836.278          43.000  
  25915714.526                   136188363.923 0                        37.000  
                  25915713.454   104352126.007          43.000  
  27797145.866                   146074856.753 0                        40.000  
                  27797144.365   111927487.055          43.000  
  23690234.858                   124493372.083 0                        49.000  
                  23690234.483    95391028.773          52.000  
  28476802.535                   149646600.27810                        34.000  
                  28476802.178   114664485.647          39.000  
  28386819.067                   149172945.23310                        38.000  
                  28386818.495   114301366.551          41.000  
 22  1 19  0 59 40.0010000  0  9G01G03G08G10G14G17G21G27G32
  20853490.152    20853486.846   109585584.855 0  85391368.055 0        49.000  
        48.000                                                  
  22906370.550    22906368.031   120373588.56510  93797647.691 0        44.000  
        46.000                                                  
  21866300.638    21866298.350   114907568.174 0  89538363.990 0        47.000  
        48.000                                                  
  24170311.516    24170309.801   127016199.810 0  98973664.421 0        40.000  
        41.000                                                  
  24593759.186    24593754.182   129240679.963 0 100706803.257 0        40.000  
        41.000                                                  
  25241962.157    25241956.225   132646672.325 0 103362088.181 0        36.000  
        33.000                                                  
  20843986.030                   109535884.812 0                        47.000  
                                                                
  23982734.057    23982731.233   126030099.673 0  98204792.111 0        42.000  
        40.000                                                  
  21562477.393    21562473.587   113311212.707 0  88294165.596 0        49.000  
        46.000                                                  
 22  1 19  0 59 39.0000000  0  0
 22  1 19  0 59 40.0010000  0  8E03E05E08E09E13E15E21E27
  24535546.734                   128935674.157 0                        48.000  
                  24535545.697    98794871.141          52.000  
  24153245.599                   126926451.205 0                        47.000  
                  24153244.419    97255433.952          51.000  
  26540027.114                   139468416.95410                        42.000  
                  26540024.827   106865411.362          43.000  
  25916230.047                   136191072.096 0                        37.000  
                  25916228.725   104354201.085          43.000  
  27796641.709                   146072207.653 0                        40.000  
                  27796640.369   111925457.228          44.000  
  23689970.915                   124491984.966 0                        49.000  
                  23689970.540    95389965.913          52.000  
  28476929.351                   149647265.96610                        34.000  
                  28476928.815   114664995.713          39.000  
  28387262.898                   149175277.38010                        38.000  
                  28387262.237   114303153.535          41.000  
 22  1 19  0 59 41.0010000  0  9G01G03G08G10G14G17G21G27G32
  20853111.579    20853108.309   109583595.771 0  85389818.120 0        49.000  
        48.000                                                  
  22905823.579    22905821.114   120370714.38710  93795408.074 0        44.000  
        46.000                                                  
  21866817.410    21866815.069   114910283.833 0  89540480.090 0        47.000  
        48.000                                                  
  24170888.864    24170887.131   127019233.939 0  98976028.694 0        39.000  
        41.000                                                  
  24593904.675    24593899.565   129241444.205 0 100707398.800 0        40.000  
        41.000                                                  
  25241341.084    25241335.080   132643408.338 0 103359544.842 0        36.000  
        32.000                                                  
  20843915.590                   109535514.658 0                        47.000  
                                                                
  23983453.321    23983450.497   126033879.483 0  98207737.416 0        42.000  
        40.000                                                  
  21562663.642    21562659.889   113312191.389 0  88294928.189 0        49.000  
        46.000                                                  
 22  1 19  0 59 40.0000000  0  0
 22  1 19  0 59 41.0010000  0  8E03E05E08E09E13E15E21E27
  24535145.306                   128933564.459 0                        48.000  
                  24535144.234    98793254.622          52.000  
  24153380.170                   126927158.554 0                        47.000  
                  24153379.027    97255975.949          51.000  
  26539425.053                   139465252.75810                        42.000  
                  26539422.784   106862986.844          43.000  
  25916745.354                   136193780.917 0                        37.000  
                  25916744.210   104356276.678          43.000  
  27796137.731                   146069559.026 0                        40.000  
                  27796136.355   111923427.753          44.000  
  23689707.240                   124490598.562 0                        49.000  
                  23689706.686    95388903.604          52.000  
  28477056.150                   149647932.60810                        33.000  
                  28477055.614   114665506.483          39.000  
  28387706.818                   149177610.21710                        38.000  
                  28387706.264   114304941.028          41.000  
 22  1 19  0 59 42.0010000  0  9G01G03G08G10G14G17G21G27G32
  20852733.059    20852729.932   109581606.714 0  85388268.201 0        49.000  
        48.000                                                  
  22905276.644    22905274.071   120367840.13610  93793168.393 0        44.000  
        46.000                                                  
  21867334.218    21867331.823   114912999.629 0  89542596.286 0        48.000  
        48.000                                                  
  24171466.195    24171464.426   127022267.809 0  98978392.723 0        39.000  
        41.000                                                  
  24594050.165    24594045.054   129242208.705 0 100707994.503 0        40.000  
        41.000                                                  
  25240719.903    25240713.917   132640144.210 0 103357001.359 0        36.000  
        32.000                                                  
  20843845.204                   109535144.507 0                        47.000  
                                                                
  23984172.477    23984169.725   126037659.090 0  98210682.549 0        42.000  
        41.000                                                  
  21562849.944    21562846.102   113313170.359 0  88295691.019 0        49.000  
        46.000                                                  
 22  1 19  0 59 41.0000000  0  0
 22  1 19  0 59 42.0010000  0  8E03E05E08E09E13E15E21E27
  24534744.039                   128931454.787 0                        48.000  
                  24534742.645    98791638.118          52.000  
  24153514.939                   126927866.014 0                        47.000  
                  24153513.616    97256518.017          51.000  
  26538822.813                   139462088.26110                        42.000  
                  26538820.526   106860562.104          43.000  
  25917260.804                   136196489.598 0                        37.000  
                  25917259.696   104358352.154          43.000  
  27795633.521                   146066910.076 0                        40.000  
                  27795632.252   111921398.041          43.000  
  23689443.386                   124489212.053 0                        49.000  
                  23689442.832    95387841.213          52.000  
  28477182.913                   149648599.32410                        33.000  
                  28477182.377   114666017.376          39.000  
  28388150.828                   149179942.88310                        38.000  
                  28388150.059   114306728.396          41.000  
 22  1 19  0 59 43.0010000  0  9G01G03G08G10G14G17G21G27G32
  20852354.665    20852351.538   109579618.080 0  85386718.615 0        49.000  
        48.000                                                  
  22904729.745    22904727.208   120364966.21310  93790928.978 0        44.000  
        46.000                                                  
  21867850.990    21867848.810   114915715.943 0  89544712.896 0        47.000  
        48.000                                                  
  24172043.543    24172041.774   127025301.824 0  98980756.874 0        39.000  
        41.000                                                  
  24594195.780    24594190.562   129242973.851 0 100708590.704 0        40.000  
        41.000                                                  
  25240098.758    25240092.807   132636880.302 0 103354458.120 0        36.000  
        32.000                                                  
  20843774.782                   109534774.766 0                        47.000  
                                                                
  23984891.670    23984888.900   126041438.895 0  98213627.857 0        42.000  
        41.000                                                  
  21563036.461    21563032.655   113314150.028 0  88296454.399 0        49.000  
        46.000                                                  
 22  1 19  0 59 42.0000000  0  0
 22  1 19  0 59 43.0010000  0  8E03E05E08E09E13E15E21E27
  24534342.665                   128929345.541 0                        48.000  
                  24534341.396    98790021.940          52.000  
  24153649.671                   126928574.005 0                        47.000  
                  24153648.331    97257060.516          51.000  
  26538220.431                   139458923.86910                        42.000  
                  26538218.376   106858137.463          43.000  
  25917776.486                   136199198.528 0                        37.000  
                  25917775.021   104360427.828          43.000  
  27795129.186                   146064261.190 0                        40.000  
                  27795128.114   111919368.377          44.000  
  23689179.639                   124487825.867 0                        49.000  
                  23689179.031    95386779.062          52.000  
  28477309.854                   149649266.64710                        33.000  
                  28477309.408   114666528.661          39.000  
