     2.11           OBSERVATION DATA    M (Mixed)           RINEX VERSION / TYPE
RTCM3TORINEX on                         2022-01-17 13:59    PGM / RUN BY / DATE
RTCM3TORINEX                                                MARKER NAME
                                                            OBSERVER / AGENCY
                                                            REC # / TYPE / VERS
                                                            ANT # / TYPE
         .0000         .0000         .0000                  APPROX POSITION XYZ
         .0000         .0000         .0000                  ANTENNA: DELTA H/E/N
     1     1                                                WAVELENGTH FACT L1/2
     9    C1    C2    L1    L2    S1    S2    C7    L7    S7# / TYPES OF OBSERV
  2022     1    17    13    59   20.0010000     GPS         TIME OF FIRST OBS
                                                            END OF HEADER
 22  1 17 13 59 20.0010000  0  7E02E03E07E08E11E25E30
  23295318.372                   122417791.404 0                        49.000  
                  23295316.907    93800674.771          53.000  
  27394025.461                   143956175.368 0                        41.000  
                  27394029.571   110304069.346          46.000  
  26251748.775                   137953895.538 0                        44.000  
                  26251749.955   105704953.120          49.000  
  23238494.486                   122119141.607 0                        47.000  
                  23238493.771    93571814.889          51.000  
  24698248.548                   129790536.926 0                        39.000  
                  24698244.956    99449903.375          42.000  
  25489162.150                   133946478.212 0                        45.000  
                  25489162.346   102634334.027          49.000  
  25694257.434                   135024275.300 0                        45.000  
                  25694258.524   103460180.986          49.000  
 22  1 17 13 59 21.0010000  0  9G02G06G12G15G17G19G24G25G32
  24423082.909                   128344558.60910                        30.000  
                                                                
  23466456.205    23466455.491   123316649.753 0  96090901.244 0        41.000  
        41.000                                                  
  20766274.721    20766270.093   109127613.554 0  85034534.260 0        49.000  
        47.000                                                  
  23964924.823    23964923.269   125936519.986 0  98132345.862 0        43.000  
        42.000                                                  
  23805984.135    23805979.185   125100967.347 0  97481399.083 0        43.000  
        39.000                                                  
  21632759.744                   113680897.518 0                        46.000  
                                                                
  20037221.157    20037218.495   105295757.440 0  82048658.448 0        50.000  
        50.000                                                  
  23223227.979    23223227.121   122038912.94210  95095265.568 0        43.000  
        43.000                                                  
  24488377.016    24488377.052   128687296.365 0 100275833.393 0        42.000  
        41.000                                                  
 22  1 17 13 59 20.0000000  0  0
 22  1 17 13 59 21.0010000  0  7E02E03E07E08E11E25E30
  23295314.834                   122417772.336 0                        49.000  
                  23295313.172    93800660.163          53.000  
  27394622.304                   143959310.932 0                        41.000  
                  27394626.146   110306471.911          46.000  
  26251571.086                   137952961.847 0                        45.000  
                  26251572.408   105704237.699          49.000  
  23238823.151                   122120868.451 0                        47.000  
                  23238822.436    93573138.055          51.000  
  24698179.984                   129790176.514 0                        39.000  
                  24698176.393    99449627.208          42.000  
  25489517.028                   133948343.621 0                        45.000  
                  25489517.296   102635763.373          49.000  
  25693894.300                   135022365.517 0                        45.000  
                  25693895.176   103458717.646          50.000  
 22  1 17 13 59 22.0010000  0  9G02G06G12G15G17G19G24G25G32
  24422519.820                   128341619.05710                        31.000  
                                                                
  23466064.213    23466063.462   123314589.773 0  96089296.058 0        41.000  
        41.000                                                  
  20765976.648    20765972.073   109126047.776 0  85033314.178 0        49.000  
        47.000                                                  
  23965612.995    23965611.566   125940136.571 0  98135163.975 0        43.000  
        41.000                                                  
  23806562.501    23806557.552   125104007.280 0  97483767.864 0        42.000  
        39.000                                                  
  21633134.458                   113682866.714 0                        46.000  
                                                                
  20037286.433    20037283.716   105296100.086 0  82048925.439 0        50.000  
        50.000                                                  
  23222650.077    23222649.237   122035876.10510  95092899.199 0        43.000  
        43.000                                                  
  24487851.810    24487851.988   128684536.678 0 100273682.994 0        42.000  
        41.000                                                  
 22  1 17 13 59 21.0000000  0  0
 22  1 17 13 59 22.0010000  0  7E02E03E07E08E11E25E30
  23295311.099                   122417753.282 0                        49.000  
                  23295309.652    93800645.559          53.000  
  27395219.130                   143962446.358 0                        41.000  
                  27395222.882   110308874.374          46.000  
  26251393.575                   137952028.440 0                        45.000  
                  26251394.790   105703522.491          49.000  
  23239151.798                   122122595.512 0                        47.000  
                  23239151.137    93574461.392          51.000  
  24698111.260                   129789816.410 0                        39.000  
                  24698107.811    99449351.296          42.000  
  25489871.996                   133950208.950 0                        45.000  
                  25489872.318   102637192.651          49.000  
  25693530.683                   135020455.673 0                        46.000  
                  25693531.702   103457254.256          50.000  
 22  1 17 13 59 23.0010000  0  9G02G06G12G15G17G19G24G25G32
  24421960.502                   128338679.58810                        31.000  
                                                                
  23465672.256    23465671.559   123312530.219 0  96087691.217 0        41.000  
        41.000                                                  
  20765678.914    20765674.125   109124482.365 0  85032094.380 0        49.000  
        47.000                                                  
  23966301.203    23966299.755   125943753.214 0  98137982.148 0        42.000  
        42.000                                                  
  23807141.083    23807135.954   125107047.447 0  97486136.801 0        42.000  
        38.000                                                  
  21633509.278                   113684836.475 0                        46.000  
                                                                
  20037351.708    20037348.992   105296443.238 0  82049192.839 0        50.000  
        50.000                                                  
  23222072.228    23222071.299   122032839.41810  95090532.961 0        43.000  
        43.000                                                  
  24487326.693    24487326.943   128681777.387 0 100271532.897 0        42.000  
        41.000                                                  
 22  1 17 13 59 22.0000000  0  0
 22  1 17 13 59 23.0010000  0  7E02E03E07E08E11E25E30
  23295307.454                   122417734.390 0                        49.000  
                  23295305.971    93800631.086          53.000  
  27395815.741                   143965581.772 0                        42.000  
                  27395819.618   110311276.836          46.000  
  26251216.136                   137951095.470 0                        45.000  
                  26251217.136   105702807.616          49.000  
  23239480.606                   122124322.957 0                        47.000  
                  23239479.802    93575785.007          51.000  
  24698042.804                   129789456.802 0                        39.000  
                  24698039.462    99449075.743          42.000  
  25490227.036                   133952074.355 0                        45.000  
                  25490227.250   102638621.985          49.000  
  25693167.370                   135018545.916 0                        46.000  
                  25693168.300   103455790.934          49.000  
 22  1 17 13 59 24.0010000  0  9G02G06G12G15G17G19G24G25G32
  24421399.111                   128335740.24210                        31.000  
                                                                
  23465280.388    23465279.763   123310471.175 0  96086086.768 0        42.000  
        41.000                                                  
  20765381.127    20765376.391   109122917.421 0  85030874.940 0        49.000  
        47.000                                                  
  23966989.339    23966988.142   125947370.024 0  98140800.432 0        42.000  
        41.000                                                  
  23807719.717    23807714.607   125110087.935 0  97488506.044 0        43.000  
        39.000                                                  
  21633884.188                   113686806.898 0                        46.000  
                                                                
  20037417.109    20037414.375   105296787.020 0  82049460.723 0        50.000  
        50.000                                                  
  23221494.290    23221493.468   122029803.00910  95088166.921 0        43.000  
        43.000                                                  
  24486801.701    24486801.987   128679018.542 0 100269383.168 0        42.000  
        41.000                                                  
 22  1 17 13 59 23.0000000  0  0
 22  1 17 13 59 24.0010000  0  7E02E03E07E08E11E25E30
  23295304.130                   122417715.777 0                        49.000  
                  23295302.397    93800616.824          53.000  
  27396412.280                   143968717.303 0                        41.000  
                  27396416.158   110313679.371          46.000  
  26251038.643                   137950163.031 0                        44.000  
                  26251039.733   105702093.154          49.000  
  23239809.253                   122126050.854 0                        47.000  
                  23239808.538    93577108.990          51.000  
  24697974.330                   129789097.766 0                        39.000  
                  24697971.113    99448800.629          42.000  
  25490582.165                   133953939.904 0                        45.000  
                  25490582.290   102640051.437          49.000  
  25692803.986                   135016636.347 0                        46.000  
                  25692804.951   103454327.765          50.000  
 22  1 17 13 59 25.0010000  0  9G02G06G12G15G17G19G24G25G32
  24420838.524                   128332801.33310                        31.000  
                                                                
  23464888.592    23464888.002   123308412.891 0  96084482.905 0        42.000  
        41.000                                                  
  20765083.393    20765078.711   109121353.149 0  85029656.031 0        49.000  
        47.000                                                  
  23967677.546    23967676.439   125950987.198 0  98143619.003 0        42.000  
        41.000                                                  
  23808298.477    23808293.384   125113128.971 0  97490875.681 0        43.000  
        39.000                                                  
  21634259.241                   113688778.184 0                        46.000  
                                                                
  20037482.742    20037479.936   105297131.642 0  82049729.264 0        50.000  
        50.000                                                  
  23220916.549    23220915.781   122026767.08110  95085801.270 0        43.000  
        43.000                                                  
  24486277.048    24486277.263   128676260.412 0 100267233.970 0        42.000  
        41.000                                                  
 22  1 17 13 59 24.0000000  0  0
 22  1 17 13 59 25.0010000  0  7E02E03E07E08E11E25E30
  23295300.503                   122417697.648 0                        49.000  
                  23295298.948    93800602.937          53.000  
  27397008.998                   143971853.146 0                        41.000  
                  27397012.911   110316082.161          46.000  
  26250861.400                   137949231.365 0                        45.000  
                  26250862.436   105701379.275          49.000  
  23240138.221                   122127779.467 0                        47.000  
                  23240137.542    93578433.511          51.000  
  24697906.141                   129788739.532 0                        39.000  
                  24697902.925    99448526.147          42.000  
  25490937.115                   133955805.873 0                        45.000  
                  25490937.419   102641481.198          49.000  
  25692440.637                   135014727.201 0                        45.000  
                  25692441.638   103452864.917          50.000  
 22  1 17 13 59 26.0010000  0 10G02G06G12G13G15G17G19G24G25G32
  24420280.635                   128329862.30410                        31.000  
                                                                
  23464497.010    23464496.385   123306354.819 0  96082879.215 0        42.000  
        41.000                                                  
  20764785.713    20764781.067   109119789.047 0  85028437.246 0        49.000  
        47.000                                                  
  25174501.717                   132293549.834 0                        26.000  
                                                                
  23968365.843    23968364.753   125954604.205 0  98146437.445 0        42.000  
        41.000                                                  
  23808877.201    23808872.001   125116170.011 0  97493245.324 0        43.000  
        39.000                                                  
  21634634.527                   113690749.817 0                        46.000  
                                                                
  20037548.428    20037545.587   105297476.566 0  82049998.029 0        50.000  
        50.000                                                  
  23220338.933    23220338.075   122023731.08610  95083435.560 0        43.000  
        43.000                                                  
  24485752.253    24485752.539   128673502.436 0 100265084.890 0        42.000  
        41.000                                                  
 22  1 17 13 59 25.0000000  0  0
 22  1 17 13 59 26.0010000  0  7E02E03E07E08E11E25E30
  23295297.090                   122417679.475 0                        49.000  
                  23295295.535    93800589.010          53.000  
  27397605.627                   143974988.786 0                        41.000  
                  27397609.647   110318484.777          46.000  
  26250684.085                   137948299.909 0                        45.000  
                  26250685.140   105700665.554          49.000  
  23240467.297                   122129508.236 0                        47.000  
                  23240466.404    93579758.145          51.000  
  24697838.150                   129788381.550 0                        39.000  
                  24697834.862    99448251.844          42.000  
  25491292.083                   133957671.669 0                        45.000  
                  25491292.423   102642910.832          49.000  
  25692077.217                   135012817.920 0                        46.000  
                  25692078.307   103451401.957          49.000  
 22  1 17 13 59 27.0010000  0 10G02G06G12G13G15G17G19G24G25G32
  24419721.210                   128326923.29010                        31.000  
                                                                
  23464105.446    23464104.713   123304297.140 0  96081275.824 0        42.000  
        41.000                                                  
  20764488.104    20764483.459   109118225.261 0  85027218.714 0        50.000  
        47.000                                                  
  25175242.245                   132297430.889 0                        27.000  
                                                                
  23969054.051    23969053.014   125958221.233 0  98149255.917 0        42.000  
        41.000                                                  
  23809455.872    23809450.654   125119211.261 0  97495615.123 0        43.000  
        39.000                                                  
  21635009.883                   113692721.957 0                        46.000  
                                                                
  20037614.204    20037611.291   105297821.971 0  82050267.181 0        50.000  
        50.000                                                  
  23219761.210    23219760.298   122020695.20010  95081069.939 0        43.000  
        43.000                                                  
  24485227.493    24485227.726   128670744.782 0 100262936.067 0        42.000  
        41.000                                                  
 22  1 17 13 59 26.0000000  0  0
 22  1 17 13 59 27.0010000  0  7E02E03E07E08E11E25E30
  23295293.659                   122417661.443 0                        49.000  
                  23295292.087    93800575.191          53.000  
  27398202.274                   143978124.394 0                        41.000  
                  27398206.437   110320887.392          46.000  
  26250506.860                   137947368.847 0                        45.000  
                  26250508.076   105699952.153          49.000  
  23240796.284                   122131237.327 0                        47.000  
                  23240795.551    93581083.038          51.000  
  24697770.015                   129788024.014 0                        39.000  
                  24697766.745    99447977.892          42.000  
  25491647.069                   133959537.491 0                        45.000  
                  25491647.534   102644340.501          49.000  
  25691713.940                   135010908.697 0                        45.000  
                  25691714.976   103449939.066          49.000  
 22  1 17 13 59 28.0010000  0 10G02G06G12G13G15G17G19G24G25G32
  24419162.070                   128323984.52210                        31.000  
                                                                
  23463713.972    23463713.257   123302240.068 0  96079672.909 0        42.000  
        41.000                                                  
  20764190.657    20764185.993   109116662.045 0  85026000.629 0        50.000  
        47.000                                                  
  25175978.628                   132301312.066 0                        27.000  
                                                                
  23969742.366    23969741.383   125961838.528 0  98152074.577 0        42.000  
        41.000                                                  
  23810034.792    23810029.449   125122252.920 0  97497985.237 0        42.000  
        39.000                                                  
  21635385.294                   113694694.869 0                        46.000  
                                                                
  20037680.051    20037677.210   105298168.095 0  82050536.890 0        50.000  
        50.000                                                  
  23219183.558    23219182.575   122017659.68910  95078704.606 0        43.000  
        43.000                                                  
  24484702.841    24484703.109   128667987.715 0 100260787.719 0        42.000  
        41.000                                                  
 22  1 17 13 59 27.0000000  0  0
 22  1 17 13 59 28.0010000  0  7E02E03E07E08E11E25E30
  23295290.192                   122417643.772 0                        49.000  
                  23295288.674    93800561.655          53.000  
  27398799.063                   143981260.201 0                        41.000  
                  27398803.137   110323290.135          46.000  
  26250329.993                   137946438.427 0                        45.000  
                  26250330.940   105699239.237          49.000  
  23241125.396                   122132967.009 0                        47.000  
                  23241124.645    93582408.376          51.000  
  24697702.113                   129787667.167 0                        39.000  
                  24697698.950    99447704.482          42.000  
  25492002.306                   133961403.598 0                        45.000  
                  25492002.627   102645770.366          49.000  
  25691350.663                   135008999.768 0                        45.000  
                  25691351.735   103448476.380          50.000  
 22  1 17 13 59 29.0010000  0 10G02G06G12G13G15G17G19G24G25G32
  24418602.931                   128321045.58410                        31.000  
                                                                
  23463322.622    23463321.782   123300183.160 0  96078070.119 0        42.000  
        41.000                                                  
  20763893.173    20763888.599   109115098.906 0  85024782.598 0        50.000  
        47.000                                                  
  25176715.314                   132305192.907 0                        27.000  
                                                                
  23970430.609    23970429.698   125965455.581 0  98154893.067 0        42.000  
        41.000                                                  
  23810613.623    23810608.120   125125294.528 0  97500355.313 0        43.000  
        39.000                                                  
  21635760.775                   113696668.042 0                        47.000  
                                                                
  20037745.934    20037743.183   105298514.454 0  82050806.784 0        50.000  
        50.000                                                  
  23218605.924    23218604.994   122014624.04610  95076339.176 0        43.000  
        43.000                                                  
  24484178.260    24484178.510   128665230.725 0 100258639.433 0        42.000  
        41.000                                                  
 22  1 17 13 59 28.0000000  0  0
 22  1 17 13 59 29.0010000  0  7E02E03E07E08E11E25E30
  23295286.815                   122417625.989 0                        49.000  
                  23295285.386    93800548.029          53.000  
  27399395.585                   143984395.709 0                        41.000  
                  27399399.802   110325692.681          46.000  
  26250152.768                   137945508.169 0                        44.000  
                  26250154.001   105698526.437          49.000  
  23241454.597                   122134696.760 0                        47.000  
                  23241453.775    93583733.775          51.000  
  24697634.354                   129787310.520 0                        39.000  
                  24697630.976    99447431.201          42.000  
  25492357.238                   133963269.478 0                        45.000  
                  25492357.631   102647200.069          49.000  
  25690987.421                   135007090.666 0                        46.000  
                  25690988.493   103447013.557          50.000  
 22  1 17 13 59 30.0010000  0 10G02G06G12G13G15G17G19G24G25G32
  24418043.773                   128318106.76910                        31.000  
                                                                
  23462931.362    23462930.433   123298126.731 0  96076467.693 0        42.000  
        41.000                                                  
  20763595.868    20763591.276   109113536.177 0  85023564.887 0        50.000  
        47.000                                                  
  25177454.573                   132309073.641 0                        27.000  
                                                                
  23971118.995    23971117.977   125969072.747 0  98157711.610 0        42.000  
        41.000                                                  
  23811192.508    23811186.969   125128336.384 0  97502725.617 0        43.000  
        39.000                                                  
  21636136.472                   113698641.825 0                        47.000  
                                                                
  20037811.943    20037809.119   105298861.370 0  82051077.107 0        50.000  
        50.000                                                  
  23218028.147    23218027.378   122011588.60610  95073973.905 0        43.000  
        43.000                                                  
  24483653.608    24483653.929   128662474.163 0 100256491.428 0        42.000  
        41.000                                                  
 22  1 17 13 59 29.0000000  0  0
 22  1 17 13 59 30.0010000  0  7E02E03E07E08E11E25E30
  23295283.563                   122417608.406 0                        49.000  
                  23295281.973    93800534.557          53.000  
  27399992.160                   143987531.288 0                        41.000  
                  27399996.466   110328095.238          46.000  
  26249975.811                   137944578.377 0                        44.000  
                  26249977.062   105697813.992          49.000  
  23241783.941                   122136426.935 0                        47.000  
                  23241782.976    93585059.488          51.000  
  24697566.505                   129786954.384 0                        39.000  
                  24697563.360    99447158.306          42.000  
  25492712.456                   133965135.462 0                        45.000  
                  25492712.742   102648629.844          49.000  
  25690624.233                   135005181.672 0                        46.000  
                  25690625.180   103445550.822          50.000  
 22  1 17 13 59 31.0010000  0 10G02G06G12G13G15G17G19G24G25G32
  24417484.544                   128315168.28810                        31.000  
                                                                
  23462540.227    23462539.280   123296071.033 0  96074865.850 0        42.000  
        41.000                                                  
  20763298.617    20763294.061   109111974.129 0  85022347.707 0        50.000  
        47.000                                                  
  25178193.189                   132312954.655 0                        28.000  
                                                                
  23971807.435    23971806.256   125972690.250 0  98160530.460 0        43.000  
        41.000                                                  
  23811771.393    23811766.015   125131378.799 0  97505096.333 0        42.000  
        39.000                                                  
  21636512.221                   113700616.462 0                        47.000  
                                                                
  20037878.058    20037875.342   105299209.132 0  82051348.092 0        50.000  
        50.000                                                  
  23217450.566    23217449.887   122008553.62910  95071608.986 0        43.000  
        43.000                                                  
  24483129.170    24483129.527   128659718.269 0 100254344.007 0        42.000  
        41.000                                                  
 22  1 17 13 59 30.0000000  0  0
 22  1 17 13 59 31.0010000  0  7E02E03E07E08E11E25E30
  23295280.347                   122417591.316 0                        49.000  
                  23295278.756    93800521.464          53.000  
  27400588.842                   143990667.157 0                        41.000  
                  27400593.220   110330498.051          46.000  
  26249798.961                   137943649.339 0                        44.000  
                  26249800.230   105697102.130          49.000  
  23242113.374                   122138157.801 0                        47.000  
                  23242112.445    93586385.735          51.000  
  24697498.924                   129786599.051 0                        39.000  
                  24697495.761    99446886.040          42.000  
  25493067.407                   133967001.833 0                        45.000  
                  25493067.889   102650059.920          49.000  
  25690261.063                   135003273.098 0                        46.000  
                  25690261.957   103444088.410          50.000  
 22  1 17 13 59 32.0010000  0 10G02G06G12G13G15G17G19G24G25G32
  24416925.244                   128312229.85210                        31.000  
                                                                
  23462149.199    23462148.109   123294015.725 0  96073264.320 0        42.000  
        42.000                                                  
  20763001.402    20762996.881   109110412.430 0  85021130.808 0        50.000  
        47.000                                                  
  25178932.181                   132316835.604 0                        28.000  
                                                                
  23972495.875    23972494.588   125976307.823 0  98163349.318 0        42.000  
        41.000                                                  
  23812350.278    23812344.953   125134421.417 0  97507467.188 0        42.000  
        39.000                                                  
  21636887.989                   113702591.666 0                        46.000  
                                                                
  20037944.316    20037941.618   105299557.392 0  82051619.466 0        50.000  
        50.000                                                  
  23216873.039    23216872.396   122005518.82510  95069244.195 0        43.000  
        43.000                                                  
  24482604.785    24482605.053   128656962.758 0 100252196.843 0        42.000  
        41.000                                                  
 22  1 17 13 59 31.0000000  0  0
 22  1 17 13 59 32.0010000  0  7E02E03E07E08E11E25E30
  23295277.005                   122417574.381 0                        49.000  
                  23295275.540    93800508.483          53.000  
  27401185.561                   143993803.043 0                        41.000  
                  27401190.081   110332900.855          46.000  
  26249622.290                   137942720.730 0                        44.000  
                  26249623.541   105696390.598          49.000  
  23242442.593                   122139889.029 0                        47.000  
                  23242441.807    93587712.260          51.000  
  24697431.379                   129786244.186 0                        39.000  
                  24697428.181    99446614.121          42.000  
  25493422.661                   133968868.251 0                        45.000  
                  25493423.054   102651490.030          49.000  
  25689897.893                   135001364.594 0                        45.000  
                  25689898.697   103442626.052          50.000  
 22  1 17 13 59 33.0010000  0 10G02G06G12G13G15G17G19G24G25G32
  24416365.997                   128309291.68610                        31.000  
                                                                
  23461758.046    23461757.099   123291961.030 0  96071663.259 0        42.000  
        42.000                                                  
  20762704.347    20762699.808   109108851.266 0  85019914.316 0        50.000  
        47.000                                                  
  25179670.725                   132320716.690 0                        28.000  
                                                                
  23973184.190    23973182.975   125979925.590 0  98166168.369 0        42.000  
        41.000                                                  
  23812929.359    23812924.070   125137464.434 0  97509838.375 0        42.000  
        39.000                                                  
  21637263.882                   113704567.565 0                        47.000  
                                                                
  20038010.736    20038008.037   105299906.348 0  82051891.379 0        50.000  
        50.000                                                  
  23216295.620    23216294.959   122002484.32710  95066879.664 0        43.000  
        43.000                                                  
  24482080.562    24482080.812   128654207.780 0 100250050.105 0        42.000  
        42.000                                                  
 22  1 17 13 59 32.0000000  0  0
 22  1 17 13 59 33.0010000  0  7E02E03E07E08E11E25E30
  23295273.735                   122417557.775 0                        49.000  
                  23295272.377    93800495.759          53.000  
  27401782.332                   143996939.062 0                        41.000  
                  27401786.764   110335303.783          46.000  
  26249445.530                   137941792.717 0                        44.000  
                  26249446.834   105695679.521          49.000  
  23242772.098                   122141620.800 0                        47.000  
                  23242771.419    93589039.194          51.000  
  24697363.674                   129785889.951 0                        39.000  
                  24697360.672    99446342.692          42.000  
  25493777.807                   133970734.900 0                        45.000  
                  25493778.218   102652920.325          49.000  
  25689534.616                   134999456.349 0                        46.000  
                  25689535.652   103441163.901          50.000  
 22  1 17 13 59 34.0010000  0 10G02G06G12G13G15G17G19G24G25G32
  24415806.768                   128306353.18210                        31.000  
                                                                
  23461367.036    23461366.089   123289906.361 0  96070062.216 0        42.000  
        42.000                                                  
  20762407.221    20762402.718   109107290.057 0  85018697.796 0        50.000  
        47.000                                                  
  25180407.447                   132324597.223 0                        28.000  
                                                                
  23973872.522    23973871.343   125983543.011 0  98168987.145 0        42.000  
        41.000                                                  
  23813508.494    23813503.098   125140507.267 0  97512209.395 0        42.000  
        39.000                                                  
  21637639.918                   113706543.626 0                        47.000  
                                                                
  20038077.065    20038074.439   105300255.409 0  82052163.378 0        50.000  
        50.000                                                  
  23215718.129    23215717.414   121999449.57010  95064514.925 0        43.000  
        43.000                                                  
  24481556.320    24481556.535   128651452.770 0 100247903.344 0        42.000  
        42.000                                                  
 22  1 17 13 59 33.0000000  0  0
 22  1 17 13 59 34.0010000  0  7E02E03E07E08E11E25E30
  23295270.662                   122417540.931 0                        49.000  
                  23295269.071    93800482.855          53.000  
  27402379.140                   144000074.702 0                        41.000  
                  27402383.375   110337706.407          46.000  
  26249268.966                   137940864.724 0                        44.000  
                  26249270.324   105694968.470          49.000  
  23243101.692                   122143352.515 0                        47.000  
                  23243100.977    93590366.102          51.000  
  24697296.325                   129785535.789 0                        39.000  
                  24697293.216    99446071.324          42.000  
  25494132.901                   133972601.215 0                        45.000  
                  25494133.455   102654350.354          49.000  
  25689171.517                   134997547.784 0                        45.000  
                  25689172.482   103439701.494          49.000  
 22  1 17 13 59 35.0010000  0 10G02G06G12G13G15G17G19G24G25G32
  24415247.521                   128303414.87210                        31.000  
                                                                
  23460976.151    23460975.222   123287852.212 0  96068461.590 0        42.000  
        42.000                                                  
  20762110.166    20762105.663   109105729.315 0  85017481.631 0        50.000  
        47.000                                                  
  25181149.619                   132328477.837 0                        28.000  
                                                                
  23974560.819    23974559.711   125987160.584 0  98171806.015 0        42.000  
        41.000                                                  
  23814087.594    23814082.215   125143550.404 0  97514580.686 0        42.000  
        39.000                                                  
  21638016.061                   113708520.340 0                        47.000  
                                                                
  20038143.556    20038141.036   105300605.093 0  82052435.856 0        50.000  
        50.000                                                  
  23215140.691    23215140.030   121996415.09510  95062150.400 0        43.000  
        43.000                                                  
  24481032.133    24481032.329   128648698.218 0 100245756.956 0        42.000  
        42.000                                                  
 22  1 17 13 59 34.0000000  0  0
 22  1 17 13 59 35.0010000  0  7E02E03E07E08E11E25E30
  23295267.392                   122417524.357 0                        49.000  
                  23295265.998    93800470.160          53.000  
  27402975.929                   144003210.421 0                        41.000  
                  27402980.147   110340109.097          46.000  
  26249092.420                   137939937.274 0                        44.000  
                  26249093.885   105694257.820          49.000  
  23243431.196                   122145084.711 0                        47.000  
                  23243430.607    93591693.364          51.000  
  24697229.084                   129785182.173 0                        39.000  
                  24697226.082    99445800.403          42.000  
  25494488.030                   133974467.689 0                        45.000  
                  25494488.673   102655780.502          49.000  
  25688808.401                   134995639.412 0                        45.000  
                  25688809.312   103438239.238          50.000  
 22  1 17 13 59 36.0010000  0 10G02G06G12G13G15G17G19G24G25G32
  24414688.489                   128300476.84010                        30.000  
                                                                
  23460585.499    23460584.427   123285798.764 0  96066861.480 0        42.000  
        42.000                                                  
  20761813.308    20761808.787   109104169.201 0  85016265.967 0        50.000  
        47.000                                                  
  25181888.092                   132332358.607 0                        28.000  
                                                                
  23975249.241    23975248.151   125990778.472 0  98174625.139 0        42.000  
        41.000                                                  
  23814666.693    23814661.350   125146594.043 0  97516952.360 0        42.000  
        39.000                                                  
  21638392.311                   113710497.874 0                        47.000  
                                                                
  20038210.190    20038207.813   105300955.563 0  82052708.954 0        50.000  
        50.000                                                  
  23214563.200    23214562.807   121993381.03110  95059786.198 0        43.000  
        43.000                                                  
  24480508.070    24480508.338   128645944.312 0 100243611.057 0        42.000  
        42.000                                                  
 22  1 17 13 59 35.0000000  0  0
 22  1 17 13 59 36.0010000  0  7E02E03E07E08E11E25E30
  23295264.550                   122417508.218 0                        49.000  
                  23295262.889    93800457.791          53.000  
  27403572.719                   144006346.419 0                        41.000  
                  27403576.990   110342512.000          46.000  
  26248916.124                   137939010.528 0                        44.000  
                  26248917.536   105693547.728          49.000  
  23243761.023                   122146817.549 0                        47.000  
                  23243760.290    93593021.124          51.000  
  24697162.022                   129784829.365 0                        39.000  
                  24697158.930    99445530.053          42.000  
  25494843.266                   133976334.488 0                        45.000  
                  25494843.748   102657210.909          49.000  
  25688445.267                   134993731.398 0                        45.000  
                  25688446.232   103436777.258          50.000  
 22  1 17 13 59 37.0010000  0 10G02G06G12G13G15G17G19G24G25G32
  24414129.349                   128297538.73010                        31.000  
                                                                
  23460194.632    23460193.774   123283745.460 0  96065261.505 0        42.000  
        42.000                                                  
  20761516.468    20761511.911   109102609.192 0  85015050.378 0        50.000  
        47.000                                                  
  25182628.209                   132336239.057 0                        28.000  
                                                                
  23975937.574    23975936.555   125994396.145 0  98177444.119 0        42.000  
        41.000                                                  
  23815245.882    23815240.503   125149637.636 0  97519323.972 0        42.000  
        39.000                                                  
  21638768.740                   113712475.689 0                        47.000  
                                                                
  20038276.966    20038274.500   105301306.285 0  82052982.240 0        50.000  
        50.000                                                  
  23213985.906    23213985.370   121990346.85310  95057421.912 0        43.000  
        43.000                                                  
  24479984.061    24479984.293   128643190.517 0 100241465.252 0        42.000  
        42.000                                                  
 22  1 17 13 59 36.0000000  0  0
 22  1 17 13 59 37.0010000  0  7E02E03E07E08E11E25E30
  23295261.388                   122417491.984 0                        49.000  
                  23295259.833    93800445.351          53.000  
  27404169.491                   144009482.136 0                        41.000  
                  27404173.672   110344914.692          46.000  
  26248739.793                   137938083.958 0                        44.000  
                  26248741.258   105692837.752          49.000  
  23244090.903                   122148550.491 0                        47.000  
                  23244090.045    93594348.962          51.000  
  24697094.816                   129784476.747 0                        39.000  
                  24697091.850    99445259.875          42.000  
  25495198.341                   133978201.088 0                        45.000  
                  25495198.967   102658641.168          49.000  
  25688082.097                   134991823.203 0                        45.000  
                  25688082.990   103435315.145          50.000  
 22  1 17 13 59 38.0010000  0 10G02G06G12G13G15G17G19G24G25G32
  24413570.138                   128294600.67210                        32.000  
                                                                
  23459803.997    23459803.175   123281692.684 0  96063661.942 0        42.000  
        42.000                                                  
  20761219.699    20761215.161   109101049.662 0  85013835.155 0        50.000  
        47.000                                                  
  25183365.521                   132340119.542 0                        28.000  
                                                                
  23976625.996    23976625.031   125998013.982 0  98180263.193 0        42.000  
        41.000                                                  
  23815825.053    23815819.656   125152681.557 0  97521695.872 0        42.000  
        39.000                                                  
  21639145.240                   113714454.165 0                        47.000  
                                                                
  20038343.796    20038341.366   105301657.627 0  82053256.015 0        50.000  
        50.000                                                  
  23213408.575    23213408.111   121987312.93510  95055057.809 0        43.000  
        43.000                                                  
  24479460.159    24479460.356   128640437.191 0 100239319.817 0        42.000  
        42.000                                                  
 22  1 17 13 59 37.0000000  0  0
 22  1 17 13 59 38.0010000  0  7E02E03E07E08E11E25E30
  23295258.225                   122417476.027 0                        49.000  
                  23295256.831    93800433.126          53.000  
  27404766.191                   144012617.996 0                        41.000  
                  27404770.426   110347317.471          46.000  
  26248563.497                   137937157.923 0                        44.000  
                  26248564.998   105692128.188          49.000  
  23244420.854                   122150283.908 0                        47.000  
                  23244420.015    93595677.164          51.000  
  24697027.843                   129784124.710 0                        40.000  
                  24697024.752    99444990.127          42.000  
  25495553.685                   133980067.869 0                        45.000  
                  25495554.185   102660071.552          49.000  
  25687718.962                   134989915.219 0                        45.000  
                  25687720.034   103433853.177          50.000  
 22  1 17 13 59 39.0010000  0 10G02G06G12G13G15G17G19G24G25G32
  24413011.177                   128291663.33610                        32.000  
                                                                
  23459413.666    23459412.773   123279640.883 0  96062063.143 0        42.000  
        42.000                                                  
  20760922.984    20760918.517   109099491.015 0  85012620.630 0        50.000  
        47.000                                                  
  25184099.134                   132344000.497 0                        29.000  
                                                                
  23977314.561    23977313.614   126001632.395 0  98183082.728 0        43.000  
        41.000                                                  
  23816404.384    23816399.059   125155726.232 0  97524068.328 0        42.000  
        39.000                                                  
  21639521.972                   113716433.732 0                        47.000  
                                                                
  20038410.787    20038408.393   105302010.016 0  82053530.606 0        50.000  
        50.000                                                  
  23212831.406    23212830.888   121984279.72210  95052694.264 0        43.000  
        43.000                                                  
  24478936.418    24478936.650   128637684.779 0 100237175.075 0        42.000  
        42.000                                                  
 22  1 17 13 59 38.0000000  0  0
 22  1 17 13 59 39.0010000  0  7E02E03E07E08E11E25E30
  23295255.348                   122417460.753 0                        49.000  
                  23295253.865    93800421.420          53.000  
  27405363.142                   144015754.352 0                        41.000  
                  27405367.251   110349720.646          46.000  
  26248387.398                   137936232.847 0                        44.000  
                  26248388.917   105691419.361          49.000  
  23244750.967                   122152018.231 0                        47.000  
                  23244749.895    93597006.055          51.000  
  24696961.138                   129783773.679 0                        40.000  
                  24696957.993    99444721.165          42.000  
  25495909.010                   133981935.232 0                        45.000  
                  25495909.564   102661502.386          49.000  
  25687356.114                   134988007.842 0                        46.000  
                  25687357.007   103432391.687          50.000  
 22  1 17 13 59 40.0010000  0 10G02G06G12G13G15G17G19G24G25G32
  24412451.948                   128288725.55410                        32.000  
                                                                
  23459023.299    23459022.424   123277589.137 0  96060464.377 0        42.000  
        42.000                                                  
  20760626.323    20760621.963   109097932.374 0  85011406.107 0        50.000  
        47.000                                                  
  25184836.177                   132347881.056 0                        29.000  
                                                                
  23978003.072    23978002.000   126005250.490 0  98185902.030 0        43.000  
        41.000                                                  
  23816983.787    23816978.409   125158770.748 0  97526440.690 0        42.000  
        39.000                                                  
  21639898.616                   113718413.472 0                        47.000  
                                                                
  20038477.868    20038475.437   105302362.563 0  82053805.320 0        50.000  
        50.000                                                  
  23212254.219    23212253.718   121981246.28010  95050330.557 0        43.000  
        43.000                                                  
  24478412.570    24478412.873   128634932.360 0 100235030.357 0        43.000  
        42.000                                                  
 22  1 17 13 59 39.0000000  0  0
 22  1 17 13 59 40.0010000  0  7E02E03E07E08E11E25E30
  23295252.560                   122417445.283 0                        49.000  
                  23295250.916    93800409.573          53.000  
  27405959.842                   144018890.347 0                        41.000  
                  27405964.023   110352123.547          46.000  
  26248211.370                   137935307.850 0                        44.000  
                  26248212.800   105690710.597          49.000  
  23245081.008                   122153752.552 0                        47.000  
                  23245080.061    93598334.964          51.000  
  24696894.326                   129783422.757 0                        40.000  
                  24696891.324    99444452.263          42.000  
  25496264.354                   133983802.310 0                        45.000  
                  25496264.907   102662933.002          49.000  
  25686993.337                   134986100.189 0                        46.000  
                  25686994.070   103430929.979          50.000  
 22  1 17 13 59 41.0010000  0 10G02G06G12G13G15G17G19G24G25G32
  24411892.880                   128285787.86010                        32.000  
                                                                
  23458632.951    23458632.057   123275537.738 0  96058865.882 0        42.000  
        42.000                                                  
  20760329.786    20760325.444   109096374.014 0  85010191.801 0        50.000  
        47.000                                                  
  25185575.258                   132351761.441 0                        29.000  
                                                                
  23978691.601    23978690.511   126008868.571 0  98188721.303 0        43.000  
        41.000                                                  
  23817563.208    23817557.758   125161815.429 0  97528813.162 0        42.000  
        39.000                                                  
  21640275.491                   113720393.685 0                        47.000  
                                                                
  20038545.019    20038542.589   105302715.539 0  82054080.364 0        50.000  
        50.000                                                  
  23211677.031    23211676.513   121978212.92010  95047966.914 0        43.000  
        43.000                                                  
  24477888.882    24477889.079   128632180.240 0 100232885.830 0        43.000  
        41.000                                                  
 22  1 17 13 59 40.0000000  0  0
 22  1 17 13 59 41.0010000  0  7E02E03E07E08E11E25E30
  23295249.487                   122417429.903 0                        49.000  
                  23295248.004    93800397.789          53.000  
  27406556.810                   144022026.260 0                        41.000  
                  27406560.741   110354526.396          46.000  
  26248035.396                   137934383.193 0                        44.000  
                  26248036.951   105690002.103          49.000  
  23245410.941                   122155487.178 0                        47.000  
                  23245410.066    93599664.081          51.000  
  24696827.478                   129783072.232 0                        40.000  
                  24696824.655    99444183.683          42.000  
  25496619.697                   133985669.350 0                        45.000  
                  25496620.215   102664363.593          49.000  
  25686630.221                   134984192.545 0                        46.000  
                  25686631.096   103429468.289          50.000  
 22  1 17 13 59 42.0010000  0 10G02G06G12G13G15G17G19G24G25G32
  24411333.848                   128282850.25410                        32.000  
                                                                
  23458242.709    23458241.816   123273486.802 0  96057267.732 0        42.000  
        42.000                                                  
  20760033.232    20760028.926   109094816.051 0  85008977.799 0        50.000  
        47.000                                                  
  25186312.909                   132355641.736 0                        28.000  
                                                                
  23979380.095    23979379.273   126012486.723 0  98191540.641 0        43.000  
        41.000                                                  
  23818142.558    23818137.268   125164860.363 0  97531185.828 0        42.000  
        39.000                                                  
  21640652.546                   113722374.499 0                        47.000  
                                                                
  20038612.332    20038609.884   105303069.073 0  82054355.852 0        50.000  
        50.000                                                  
  23211099.808    23211099.326   121975179.77210  95045603.426 0        43.000  
        43.000                                                  
  24477365.338    24477365.481   128629428.532 0 100230741.632 0        43.000  
        41.000                                                  
 22  1 17 13 59 41.0000000  0  0
 22  1 17 13 59 42.0010000  0  7E02E03E07E08E11E25E30
  23295246.646                   122417414.720 0                        49.000  
                  23295245.055    93800386.157          53.000  
  27407153.385                   144025162.214 0                        41.000  
                  27407157.442   110356929.252          46.000  
  26247859.511                   137933459.018 0                        44.000  
                  26247861.084   105689293.960          49.000  
  23245741.161                   122157222.194 0                        47.000  
                  23245740.232    93600993.509          51.000  
  24696761.041                   129782722.225 0                        39.000  
                  24696758.057    99443915.494          42.000  
  25496974.897                   133987536.501 0                        44.000  
                  25496975.451   102665794.263          49.000  
  25686267.211                   134982285.031 0                        46.000  
                  25686268.033   103428006.691          50.000  
 22  1 17 13 59 43.0010000  0 10G02G06G12G13G15G17G19G24G25G32
  24410774.565                   128279912.79810                        32.000  
                                                                
  23457852.557    23457851.592   123271436.385 0  96055670.018 0        42.000  
        42.000                                                  
  20759736.910    20759732.514   109093258.549 0  85007764.163 0        50.000  
        47.000                                                  
  25187050.650                   132359522.106 0                        28.000  
                                                                
  23980068.660    23980067.730   126016105.036 0  98194360.106 0        43.000  
        41.000                                                  
