     2.11           OBSERVATION DATA    M (Mixed)           RINEX VERSION / TYPE
RTCM3TORINEX on                         2022-01-17 08:59    PGM / RUN BY / DATE
RTCM3TORINEX                                                MARKER NAME
                                                            OBSERVER / AGENCY
                                                            REC # / TYPE / VERS
                                                            ANT # / TYPE
         .0000         .0000         .0000                  APPROX POSITION XYZ
         .0000         .0000         .0000                  ANTENNA: DELTA H/E/N
     1     1                                                WAVELENGTH FACT L1/2
     9    C1    C2    L1    L2    S1    S2    C7    L7    S7# / TYPES OF OBSERV
  2022     1    17     8    59   21.0000000     GPS         TIME OF FIRST OBS
                                                            END OF HEADER
 22  1 17  8 59 21.0000000  0  7E03E05E09E13E15E24E25
  25387376.174                   133411194.918 0                        46.000  
                  25387376.514   102224159.554          51.000  
  23325083.733                   122574140.072 0                        48.000  
                  23325083.715    93920437.521          53.000  
  24120173.557                   126752336.547 0                        44.000  
                  24120174.594    97121914.073          48.000  
  28256583.177                   148489099.68010                        36.000  
                  28256584.624   113777544.190          42.000  
  27763621.327                   145898120.283 0                        38.000  
                  27763623.347   111792054.865          42.000  
  24083101.232                   126557701.150 0                        48.000  
                  24083099.838    96972692.375          52.000  
  25815729.730                   135662587.328 0                        45.000  
                  25815731.321   103949270.072          49.000  
 22  1 17  8 59 22.0000000  0  9G05G07G08G09G13G14G20G27G30
  21472501.501    21472497.320   112838216.70110  87925880.043 0        48.000  
        46.000                                                  
  21408297.262    21408293.063   112501345.746 0  87663359.001 0        47.000  
        44.000                                                  
  24514613.316    24514615.764   128825180.897 0 100383264.951 0        35.000  
        39.000                                                  
  23511438.630    23511437.682   123553418.612 0  96275705.376 0        42.000  
        42.000                                                  
  22374903.583                   117580914.366 0                        47.000  
                                                                
  22007568.505    22007565.307   115651102.764 0  90117294.794 0        45.000  
        47.000                                                  
  20958079.795                   110135425.728 0                        49.000  
                                                                
  24993934.508    24993934.651   131344560.944 0 102346411.136 0        34.000  
        35.000                                                  
  20485542.649    20485540.612   107652251.977 0  83884852.305 0        50.000  
        49.000                                                  
 22  1 17  8 59 21.0000000  0  0
 22  1 17  8 59 22.0000000  0  7E03E05E09E13E15E24E25
  25386975.854                   133409090.598 0                        46.000  
                  25386976.158   102222547.149          51.000  
  23325108.803                   122574272.659 0                        48.000  
                  23325108.946    93920539.113          53.000  
  24120588.976                   126754519.510 0                        44.000  
                  24120589.852    97123586.735          48.000  
  28256567.452                   148489017.49810                        35.000  
                  28256569.096   113777481.201          42.000  
  27763992.485                   145900070.104 0                        37.000  
                  27763994.379   111793548.872          42.000  
  24083037.421                   126557365.843 0                        48.000  
                  24083036.010    96972435.456          52.000  
  25815188.370                   135659742.187 0                        45.000  
                  25815189.907   103947090.038          49.000  
 22  1 17  8 59 23.0000000  0  9G05G07G08G09G13G14G20G27G30
  21472310.571    21472306.372   112837213.27210  87925098.137 0        48.000  
        46.000                                                  
  21408632.467    21408628.411   112503107.738 0  87664731.975 0        47.000  
        44.000                                                  
  24514426.460    24514428.872   128824198.452 0 100382499.419 0        36.000  
        39.000                                                  
  23512011.493    23512010.456   123556428.713 0  96278050.907 0        42.000  
        42.000                                                  
  22374380.360                   117578164.861 0                        47.000  
                                                                
  22007015.673    22007012.457   115648197.387 0  90115030.867 0        45.000  
        47.000                                                  
  20958279.588                   110136475.791 0                        49.000  
                                                                
  24994024.889    24994024.943   131345035.479 0 102346780.879 0        33.000  
        35.000                                                  
  20485609.194    20485607.157   107652601.581 0  83885124.731 0        50.000  
        49.000                                                  
 22  1 17  8 59 22.0000000  0  0
 22  1 17  8 59 23.0000000  0  7E03E05E09E13E15E24E25
  25386575.392                   133406986.576 0                        46.000  
                  25386575.785   102220934.969          51.000  
  23325134.266                   122574405.707 0                        48.000  
                  23325134.195    93920641.057          53.000  
  24121004.306                   126756702.839 0                        44.000  
                  24121005.396    97125259.676          48.000  
  28256551.745                   148488935.98810                        35.000  
                  28256553.604   113777418.729          42.000  
  27764363.660                   145902020.382 0                        37.000  
                  27764365.590   111795043.237          42.000  
  24082973.665                   126557031.181 0                        48.000  
                  24082972.360    96972179.024          52.000  
  25814647.064                   135656897.453 0                        45.000  
                  25814648.583   103944910.311          49.000  
 22  1 17  8 59 24.0000000  0  9G05G07G08G09G13G14G20G27G30
  21472119.658    21472115.405   112836210.39810  87924316.678 0        48.000  
        46.000                                                  
  21408967.869    21408963.651   112504869.922 0  87666105.095 0        47.000  
        44.000                                                  
  24514239.639    24514242.087   128823216.492 0 100381734.268 0        36.000  
        39.000                                                  
  23512584.409    23512583.230   123559438.923 0  96280396.518 0        42.000  
        42.000                                                  
  22373857.137                   117575415.427 0                        47.000  
                                                                
  22006462.877    22006459.625   115645292.324 0  90112767.177 0        45.000  
        47.000                                                  
  20958479.489                   110137526.418 0                        49.000  
                                                                
  24994115.271    24994115.360   131345510.525 0 102347151.034 0        33.000  
        35.000                                                  
  20485675.845    20485673.808   107652951.538 0  83885397.415 0        50.000  
        49.000                                                  
 22  1 17  8 59 23.0000000  0  0
 22  1 17  8 59 24.0000000  0  7E03E05E09E13E15E24E25
  25386175.001                   133404882.582 0                        46.000  
                  25386175.340   102219322.813          51.000  
  23325159.515                   122574538.960 0                        48.000  
                  23325159.676    93920743.153          53.000  
  24121419.832                   126758886.280 0                        44.000  
                  24121420.869    97126932.690          48.000  
  28256536.325                   148488854.83210                        35.000  
                  28256538.040   113777356.566          42.000  
  27764734.818                   145903970.904 0                        37.000  
                  27764736.890   111796537.791          42.000  
  24082910.104                   126556696.915 0                        48.000  
                  24082908.729    96971922.894          52.000  
  25814105.865                   135654052.843 0                        45.000  
                  25814107.330   103942730.680          49.000  
 22  1 17  8 59 25.0000000  0  9G05G07G08G09G13G14G20G27G30
  21471928.888    21471924.725   112835208.08110  87923535.655 0        48.000  
        46.000                                                  
  21409303.199    21409299.142   112506632.260 0  87667478.346 0        47.000  
        44.000                                                  
  24514052.836    24514055.338   128822234.992 0 100380969.477 0        36.000  
        39.000                                                  
  23513157.254    23513156.039   123562449.242 0  96282742.223 0        42.000  
        42.000                                                  
  22373333.968                   117572666.066 0                        47.000  
                                                                
  22005910.117    22005906.847   115642387.573 0  90110503.738 0        45.000  
        47.000                                                  
  20958679.551                   110138577.619 0                        49.000  
                                                                
  24994205.742    24994205.938   131345986.111 0 102347521.643 0        33.000  
        34.000                                                  
  20485742.407    20485740.424   107653301.802 0  83885670.351 0        50.000  
        49.000                                                  
 22  1 17  8 59 24.0000000  0  0
 22  1 17  8 59 25.0000000  0  7E03E05E09E13E15E24E25
  25385774.520                   133402778.615 0                        46.000  
                  25385775.020   102217710.685          51.000  
  23325185.014                   122574672.401 0                        48.000  
                  23325184.961    93920845.409          53.000  
  24121835.287                   126761069.800 0                        44.000  
                  24121836.431    97128605.780          48.000  
  28256520.671                   148488774.10610                        35.000  
                  28256522.601   113777294.701          42.000  
  27765105.779                   145905921.614 0                        37.000  
                  27765108.012   111798032.506          42.000  
  24082846.544                   126556363.013 0                        48.000  
                  24082845.133    96971667.051          52.000  
  25813564.684                   135651208.368 0                        45.000  
                  25813565.970   103940551.151          49.000  
 22  1 17  8 59 26.0000000  0  9G05G07G08G09G13G14G20G27G30
  21471738.137    21471734.045   112834206.16710  87922754.942 0        48.000  
        46.000                                                  
  21409638.439    21409634.526   112508394.593 0  87668851.604 0        47.000  
        44.000                                                  
  24513866.212    24513868.607   128821253.783 0 100380204.887 0        36.000  
        39.000                                                  
  23513730.082    23513728.920   123565459.484 0  96285087.885 0        42.000  
        42.000                                                  
  22372810.673                   117569916.605 0                        47.000  
                                                                
  22005357.446    22005354.104   115639482.965 0  90108240.410 0        45.000  
        47.000                                                  
  20958879.630                   110139629.214 0                        49.000  
                                                                
  24994296.355    24994296.516   131346462.079 0 102347892.552 0        33.000  
        34.000                                                  
  20485809.059    20485807.004   107653652.228 0  83885943.419 0        50.000  
        49.000                                                  
 22  1 17  8 59 25.0000000  0  0
 22  1 17  8 59 26.0000000  0  7E03E05E09E13E15E24E25
  25385374.129                   133400674.509 0                        46.000  
                  25385374.540   102216098.448          51.000  
  23325210.335                   122574805.875 0                        48.000  
                  23325210.299    93920947.679          53.000  
  24122250.778                   126763253.258 0                        44.000  
                  24122251.903    97130278.826          48.000  
  28256505.232                   148488693.57610                        35.000  
                  28256507.466   113777233.001          42.000  
  27765476.757                   145907872.374 0                        37.000  
                  27765479.188   111799527.231          42.000  
  24082782.949                   126556029.325 0                        48.000  
                  24082781.698    96971411.371          52.000  
  25813023.377                   135648363.834 0                        45.000  
                  25813024.735   103938371.582          49.000  
 22  1 17  8 59 27.0000000  0  9G05G07G08G09G13G14G20G27G30
  21471547.689    21471543.597   112833204.94510  87921974.762 0        48.000  
        46.000                                                  
  21409973.841    21409970.017   112510157.211 0  87670225.082 0        47.000  
        44.000                                                  
  24513679.481    24513682.018   128820273.155 0 100379440.771 0        36.000  
        39.000                                                  
  23514302.945    23514301.694   123568469.987 0  96287433.716 0        43.000  
        42.000                                                  
  22372287.594                   117567167.341 0                        47.000  
                                                                
  22004804.739    22004801.558   115636578.770 0  90105977.399 0        45.000  
        47.000                                                  
  20959079.870                   110140681.495 0                        49.000  
                                                                
  24994387.112    24994387.219   131346938.698 0 102348263.923 0        34.000  
        34.000                                                  
  20485875.817    20485873.762   107654003.091 0  83886216.815 0        50.000  
        49.000                                                  
 22  1 17  8 59 26.0000000  0  0
 22  1 17  8 59 27.0000000  0  7E03E05E09E13E15E24E25
  25384973.630                   133398570.533 0                        46.000  
                  25384974.149   102214486.313          51.000  
  23325235.727                   122574939.665 0                        48.000  
                  23325235.852    93921050.194          53.000  
  24122666.322                   126765436.928 0                        44.000  
                  24122667.537    97131952.019          48.000  
  28256489.990                   148488613.56210                        35.000  
                  28256492.188   113777171.683          42.000  
  27765848.022                   145909823.462 0                        37.000  
                  27765850.506   111801022.214          42.000  
  24082719.496                   126555696.148 0                        48.000  
                  24082718.281    96971156.072          52.000  
  25812482.053                   135645519.567 0                        45.000  
                  25812483.411   103936192.206          49.000  
 22  1 17  8 59 28.0000000  0  9G05G07G08G09G13G14G20G27G30
  21471357.276    21471353.256   112832204.81410  87921195.435 0        48.000  
        46.000                                                  
  21410309.421    21410305.561   112511920.533 0  87671599.085 0        47.000  
        44.000                                                  
  24513493.232    24513495.627   128819293.501 0 100378677.404 0        36.000  
        40.000                                                  
  23514875.933    23514874.789   123571481.092 0  96289780.031 0        43.000  
        42.000                                                  
  22371764.567                   117564418.672 0                        47.000  
                                                                
  22004252.247    22004249.048   115633675.427 0  90103715.047 0        45.000  
        47.000                                                  
  20959280.379                   110141734.863 0                        49.000  
                                                                
  24994478.048    24994478.119   131347416.411 0 102348636.185 0        34.000  
        34.000                                                  
  20485942.630    20485940.682   107654354.823 0  83886490.889 0        50.000  
        49.000                                                  
 22  1 17  8 59 27.0000000  0  0
 22  1 17  8 59 28.0000000  0  7E03E05E09E13E15E24E25
  25384573.668                   133396467.138 0                        46.000  
                  25384573.900   102212874.618          51.000  
  23325261.333                   122575074.189 0                        48.000  
                  23325261.404    93921153.270          53.000  
  24123082.063                   126767621.214 0                        44.000  
                  24123083.117    97133625.697          48.000  
  28256475.123                   148488534.45210                        35.000  
                  28256477.107   113777111.086          42.000  
  27766219.394                   145911775.290 0                        37.000  
                  27766221.788   111802517.772          42.000  
  24082656.364                   126555363.862 0                        48.000  
                  24082655.024    96970901.466          52.000  
  25811940.943                   135642675.943 0                        45.000  
                  25811942.284   103934013.334          49.000  
 22  1 17  8 59 29.0000000  0  9G05G07G08G09G13G14G20G27G30
  21471167.150    21471162.951   112831205.25310  87920416.554 0        48.000  
        46.000                                                  
  21410645.019    21410641.106   112513684.036 0  87672973.244 0        47.000  
        45.000                                                  
  24513306.948    24513309.306   128818314.358 0 100377914.389 0        36.000  
        40.000                                                  
  23515449.010    23515447.831   123574492.338 0  96292126.450 0        43.000  
        42.000                                                  
  22371241.577                   117561670.103 0                        47.000  
                                                                
  22003699.808    22003696.663   115630772.401 0  90101452.953 0        45.000  
        47.000                                                  
  20959480.976                   110142788.817 0                        49.000  
                                                                
  24994569.126    24994569.162   131347894.680 0 102349008.844 0        34.000  
        35.000                                                  
  20486009.674    20486007.691   107654706.878 0  83886765.220 0        50.000  
        49.000                                                  
 22  1 17  8 59 28.0000000  0  0
 22  1 17  8 59 29.0000000  0  7E03E05E09E13E15E24E25
  25384173.205                   133394363.767 0                        46.000  
                  25384173.688   102211262.942          51.000  
  23325287.029                   122575208.912 0                        48.000  
                  23325287.011    93921256.500          53.000  
  24123497.839                   126769805.632 0                        44.000  
                  24123498.750    97135299.465          48.000  
  28256460.274                   148488455.79110                        35.000  
                  28256462.257   113777050.802          42.000  
  27766590.837                   145913727.364 0                        37.000  
                  27766593.321   111804013.511          42.000  
  24082593.322                   126555031.985 0                        48.000  
                  24082591.839    96970647.166          52.000  
  25811399.798                   135639832.462 0                        45.000  
                  25811401.156   103931834.575          49.000  
 22  1 17  8 59 30.0000000  0  9G05G07G08G09G13G14G20G27G30
  21470977.041    21470972.949   112830206.07610  87919637.979 0        48.000  
        46.000                                                  
  21410980.653    21410976.615   112515447.517 0  87674347.389 0        47.000  
        45.000                                                  
  24513120.681    24513123.022   128817335.438 0 100377151.631 0        36.000  
        39.000                                                  
  23516022.105    23516020.765   123577503.508 0  96294472.825 0        43.000  
        42.000                                                  
  22370718.515                   117558921.417 0                        47.000  
                                                                
  22003147.351    22003144.260   115627869.495 0  90099190.955 0        45.000  
        47.000                                                  
  20959681.699                   110143843.143 0                        49.000  
                                                                
  24994660.240    24994660.240   131348373.297 0 102349381.813 0        34.000  
        35.000                                                  
  20486076.772    20486074.699   107655059.076 0  83887039.667 0        50.000  
        49.000                                                  
 22  1 17  8 59 29.0000000  0  0
 22  1 17  8 59 30.0000000  0  7E03E05E09E13E15E24E25
  25383772.850                   133392260.237 0                        46.000  
                  25383773.386   102209651.151          51.000  
  23325312.706                   122575343.650 0                        48.000  
                  23325312.724    93921359.745          53.000  
  24123913.615                   126771989.951 0                        44.000  
                  24123914.437    97136973.163          49.000  
  28256445.443                   148488377.31010                        35.000  
                  28256447.355   113776990.667          42.000  
  27766962.209                   145915679.427 0                        37.000  
                  27766964.693   111805509.249          42.000  
  24082530.227                   126554700.295 0                        48.000  
                  24082528.654    96970393.019          52.000  
  25810858.670                   135636988.926 0                        45.000  
                  25810859.993   103929655.766          49.000  
 22  1 17  8 59 31.0000000  0  9G05G07G08G09G13G14G20G27G30
  21470787.040    21470782.912   112829207.68610  87918860.004 0        48.000  
        46.000                                                  
  21411316.341    21411312.195   112517211.369 0  87675721.804 0        47.000  
        45.000                                                  
  24512934.629    24512936.880   128816357.201 0 100376389.367 0        36.000  
        40.000                                                  
  23516595.040    23516593.843   123580514.980 0  96296819.422 0        43.000  
        42.000                                                  
  22370195.524                   117556173.010 0                        47.000  
                                                                
  22002595.020    22002592.018   115624967.117 0  90096929.346 0        45.000  
        47.000                                                  
  20959882.422                   110144898.233 0                        49.000  
                                                                
  24994751.551    24994751.390   131348852.692 0 102349755.324 0        34.000  
        35.000                                                  
  20486143.888    20486141.708   107655411.803 0  83887314.514 0        50.000  
        49.000                                                  
 22  1 17  8 59 30.0000000  0  0
 22  1 17  8 59 31.0000000  0  7E03E05E09E13E15E24E25
  25383372.727                   133390156.953 0                        46.000  
                  25383373.156   102208039.528          51.000  
  23325338.348                   122575478.793 0                        48.000  
                  23325338.456    93921463.294          53.000  
  24124329.213                   126774174.562 0                        44.000  
                  24124330.196    97138647.087          48.000  
  28256430.629                   148488299.45010                        35.000  
                  28256432.595   113776930.984          42.000  
  27767333.778                   145917631.929 0                        37.000  
                  27767336.387   111807005.323          42.000  
  24082466.953                   126554369.196 0                        48.000  
                  24082465.827    96970139.315          52.000  
  25810317.578                   135634145.715 0                        45.000  
                  25810319.079   103927477.204          49.000  
 22  1 17  8 59 32.0000000  0  9G05G07G08G09G13G14G20G27G30
  21470597.235    21470593.161   112828209.95910  87918082.559 0        48.000  
        46.000                                                  
  21411652.117    21411647.740   112518975.492 0  87677096.458 0        47.000  
        45.000                                                  
  24512748.648    24512750.792   128815379.593 0 100375627.571 0        36.000  
        39.000                                                  
  23517168.242    23517166.920   123583526.674 0  96299166.183 0        43.000  
        42.000                                                  
  22369672.408                   117553424.793 0                        47.000  
                                                                
  22002042.742    22002039.758   115622065.138 0  90094668.066 0        45.000  
        47.000                                                  
  20960083.252                   110145953.998 0                        49.000  
                                                                
  24994842.951    24994842.665   131349332.741 0 102350129.384 0        34.000  
        34.000                                                  
  20486211.201    20486208.967   107655764.966 0  83887589.704 0        50.000  
        49.000                                                  
 22  1 17  8 59 31.0000000  0  0
 22  1 17  8 59 32.0000000  0  7E03E05E09E13E15E24E25
  25382972.461                   133388053.784 0                        46.000  
                  25382972.800   102206428.018          51.000  
  23325364.187                   122575614.233 0                        48.000  
                  23325364.258    93921567.068          53.000  
  24124744.990                   126776359.380 0                        44.000  
                  24124745.919    97140321.172          48.000  
  28256416.066                   148488222.07110                        35.000  
                  28256417.853   113776871.705          42.000  
  27767705.561                   145919584.755 0                        37.000  
                  27767708.026   111808501.626          42.000  
  24082404.143                   126554038.566 0                        48.000  
                  24082402.731    96969885.979          52.000  
  25809776.737                   135631302.734 0                        45.000  
                  25809778.023   103925298.829          49.000  
 22  1 17  8 59 33.0000000  0  9G05G07G08G09G13G14G20G27G30
  21470407.466    21470403.374   112827212.75110  87917305.514 0        48.000  
        46.000                                                  
  21411987.859    21411983.498   112520739.733 0  87678471.189 0        47.000  
        45.000                                                  
  24512562.774    24512564.811   128814402.345 0 100374866.116 0        36.000  
        39.000                                                  
  23517741.427    23517740.051   123586538.431 0  96301513.011 0        43.000  
        42.000                                                  
  22369149.418                   117550676.600 0                        46.000  
                                                                
  22001490.518    22001487.587   115619163.424 0  90092406.999 0        45.000  
        47.000                                                  
  20960284.260                   110147010.279 0                        49.000  
                                                                
  24994934.530    24994934.119   131349813.254 0 102350503.814 0        34.000  
        34.000                                                  
  20486278.496    20486276.298   107656118.400 0  83887865.112 0        50.000  
        49.000                                                  
 22  1 17  8 59 32.0000000  0  0
 22  1 17  8 59 33.0000000  0  7E03E05E09E13E15E24E25
  25382572.284                   133385950.601 0                        46.000  
                  25382572.606   102204816.496          51.000  
  23325390.026                   122575749.831 0                        48.000  
                  23325389.990    93921670.970          53.000  
  24125160.873                   126778544.264 0                        44.000  
                  24125161.731    97141995.295          48.000  
  28256401.306                   148488145.02510                        35.000  
                  28256403.039   113776812.669          42.000  
  27768077.075                   145921537.742 0                        37.000  
                  27768079.666   111809998.061          42.000  
  24082341.369                   126553708.282 0                        48.000  
                  24082339.850    96969632.909          52.000  
  25809235.770                   135628459.852 0                        45.000  
                  25809237.056   103923120.517          49.000  
 22  1 17  8 59 34.0000000  0  9G05G07G08G09G13G14G20G27G30
  21470217.822    21470213.587   112826216.26210  87916529.017 0        48.000  
        46.000                                                  
  21412323.689    21412319.204   112522504.290 0  87679846.162 0        47.000  
        45.000                                                  
  24512376.936    24512378.938   128813425.708 0 100374105.088 0        36.000  
        39.000                                                  
  23518314.612    23518313.200   123589550.431 0  96303860.031 0        43.000  
        42.000                                                  
  22368626.552                   117547928.633 0                        46.000  
                                                                
  22000938.454    22000935.434   115616262.170 0  90090146.272 0        45.000  
        47.000                                                  
  20960485.323                   110148067.288 0                        49.000  
                                                                
  24995026.180    24995025.697   131350294.504 0 102350878.775 0        33.000  
        34.000                                                  
  20486345.862    20486343.664   107656472.309 0  83888140.876 0        50.000  
        49.000                                                  
 22  1 17  8 59 33.0000000  0  0
 22  1 17  8 59 34.0000000  0  7E03E05E09E13E15E24E25
  25382171.946                   133383847.599 0                        46.000  
                  25382172.357   102203205.092          51.000  
  23325415.918                   122575885.775 0                        48.000  
                  23325415.936    93921775.131          53.000  
  24125576.703                   126780729.378 0                        44.000  
                  24125577.525    97143669.601          49.000  
  28256386.761                   148488068.55310                        35.000  
                  28256388.530   113776754.056          42.000  
  27768448.840                   145923491.066 0                        37.000  
                  27768451.253   111811494.767          42.000  
  24082278.631                   126553378.517 0                        48.000  
                  24082277.202    96969380.219          52.000  
  25808694.892                   135625617.234 0                        45.000  
                  25808696.072   103920942.405          49.000  
 22  1 17  8 59 35.0000000  0  9G05G07G08G09G13G14G20G27G30
  21470028.357    21470024.122   112825220.64510  87915753.212 0        48.000  
        46.000                                                  
  21412659.519    21412655.088   112524269.328 0  87681221.514 0        47.000  
        45.000                                                  
  24512191.277    24512193.404   128812449.857 0 100373344.676 0        36.000  
        39.000                                                  
  23518887.814    23518886.313   123592562.868 0  96306207.385 0        43.000  
        42.000                                                  
  22368103.740                   117545181.053 0                        46.000  
                                                                
  22000386.444    22000383.514   115613361.541 0  90087886.049 0        45.000  
        47.000                                                  
  20960686.599                   110149125.171 0                        49.000  
                                                                
  24995118.080    24995117.437   131350776.560 0 102351254.424 0        34.000  
        34.000                                                  
  20486413.335    20486411.084   107656826.870 0  83888417.164 0        50.000  
        49.000                                                  
 22  1 17  8 59 34.0000000  0  0
 22  1 17  8 59 35.0000000  0  7E03E05E09E13E15E24E25
  25381771.877                   133381744.946 0                        46.000  
                  25381772.270   102201593.964          51.000  
  23325441.917                   122576022.227 0                        48.000  
                  23325441.864    93921879.685          53.000  
  24125992.587                   126782914.908 0                        44.000  
                  24125993.445    97145344.232          48.000  
  28256372.394                   148487992.78210                        35.000  
                  28256374.110   113776695.991          42.000  
  27768820.588                   145925444.936 0                        37.000  
                  27768823.161   111812991.883          42.000  
  24082215.947                   126553049.454 0                        48.000  
                  24082214.517    96969128.082          52.000  
  25808154.086                   135622775.056 0                        45.000  
                  25808155.302   103918764.642          49.000  
 22  1 17  8 59 36.0000000  0  9G05G07G08G09G13G14G20G27G30
  21469839.035    21469834.675   112824225.49710  87914977.770 0        48.000  
        46.000                                                  
  21412995.403    21412990.972   112526034.431 0  87682596.923 0        47.000  
        44.000                                                  
  24512005.636    24512007.745   128811474.385 0 100372584.561 0        36.000  
        39.000                                                  
  23519461.070    23519459.534   123595575.305 0  96308554.738 0        43.000  
        42.000                                                  
  22367580.929                   117542433.453 0                        46.000  
                                                                
  21999834.506    21999831.665   115610461.120 0  90085625.969 0        45.000  
        47.000                                                  
  20960887.930                   110150183.515 0                        49.000  
                                                                
  24995209.945    24995209.212   131351259.072 0 102351630.384 0        34.000  
        34.000                                                  
  20486480.898    20486478.629   107657181.648 0  83888693.605 0        50.000  
        49.000                                                  
 22  1 17  8 59 35.0000000  0  0
 22  1 17  8 59 36.0000000  0  7E03E05E09E13E15E24E25
  25381371.718                   133379642.211 0                        46.000  
                  25381372.218   102199982.782          51.000  
  23325467.702                   122576158.787 0                        48.000  
                  23325467.827    93921984.322          53.000  
  24126408.292                   126785100.444 0                        44.000  
                  24126409.292    97147018.855          48.000  
  28256358.081                   148487917.30010                        35.000  
                  28256359.725   113776638.140          42.000  
  27769192.496                   145927398.915 0                        37.000  
                  27769194.962   111814489.072          42.000  
  24082153.280                   126552720.687 0                        48.000  
                  24082151.993    96968876.172          52.000  
  25807613.263                   135619932.926 0                        45.000  
                  25807614.442   103916586.903          49.000  
 22  1 17  8 59 37.0000000  0  9G05G07G08G09G13G14G20G27G30
  21469649.784    21469645.478   112823230.92810  87914202.778 0        48.000  
        46.000                                                  
  21413331.305    21413326.927   112527799.713 0  87683972.461 0        47.000  
        45.000                                                  
  24511820.173    24511822.264   128810499.382 0 100371824.830 0        36.000  
        39.000                                                  
  23520034.291    23520032.915   123598587.869 0  96310902.195 0        43.000  
        42.000                                                  
  22367058.063                   117539685.935 0                        46.000  
                                                                
  21999282.675    21999279.727   115607561.043 0  90083366.164 0        45.000  
        47.000                                                  
  20961089.349                   110151242.440 0                        49.000  
                                                                
  24995301.952    24995301.184   131351742.179 0 102352006.851 0        34.000  
        34.000                                                  
  20486548.336    20486546.263   107657536.760 0  83888970.323 0        50.000  
        49.000                                                  
 22  1 17  8 59 36.0000000  0  0
 22  1 17  8 59 37.0000000  0  7E03E05E09E13E15E24E25
  25380971.613                   133377539.529 0                        46.000  
                  25380972.006   102198371.632          51.000  
  23325493.666                   122576295.544 0                        48.000  
                  23325493.880    93922089.116          53.000  
  24126824.318                   126787286.083 0                        44.000  
                  24126825.212    97148693.565          48.000  
  28256343.911                   148487842.23610                        35.000  
                  28256345.376   113776580.595          41.000  
  27769564.421                   145929353.120 0                        37.000  
                  27769566.887   111815986.461          42.000  
  24082090.899                   126552392.290 0                        48.000  
                  24082089.452    96968624.545          52.000  
  25807072.492                   135617090.921 0                        45.000  
                  25807073.618   103914409.270          49.000  
 22  1 17  8 59 38.0000000  0  9G05G07G08G09G13G14G20G27G30
  21469460.605    21469456.352   112822236.99810  87913428.294 0        48.000  
        46.000                                                  
  21413667.296    21413662.865   112529565.227 0  87685348.186 0        47.000  
        45.000                                                  
  24511634.729    24511636.873   128809524.916 0 100371065.490 0        35.000  
        39.000                                                  
  23520607.654    23520606.260   123601600.620 0  96313249.796 0        43.000  
        42.000                                                  
  22366535.073                   117536938.578 0                        46.000  
                                                                
  21998730.790    21998727.949   115604661.332 0  90081106.648 0        45.000  
        47.000                                                  
  20961291.001                   110152302.002 0                        49.000  
                                                                
  24995394.085    24995393.227   131352225.884 0 102352383.751 0        34.000  
        34.000                                                  
  20486615.988    20486613.879   107657892.274 0  83889247.351 0        50.000  
        49.000                                                  
 22  1 17  8 59 37.0000000  0  0
 22  1 17  8 59 38.0000000  0  7E03E05E09E13E15E24E25
  25380571.400                   133375436.938 0                        46.000  
                  25380571.775   102196760.556          51.000  
  23325519.844                   122576432.580 0                        48.000  
                  23325520.005    93922194.122          53.000  
  24127240.256                   126789471.895 0                        44.000  
                  24127241.185    97150368.412          48.000  
  28256329.741                   148487767.59610                        35.000  
                  28256331.295   113776523.434          42.000  
  27769936.490                   145931307.600 0                        37.000  
                  27769938.742   111817484.034          42.000  
  24082028.340                   126552064.377 0                        48.000  
                  24082027.053    96968373.285          52.000  
  25806531.686                   135614249.128 0                        45.000  
                  25806532.723   103912231.801          49.000  
 22  1 17  8 59 39.0000000  0  9G05G07G08G09G13G14G20G27G30
  21469271.693    21469267.369   112821243.90110  87912654.432 0        48.000  
        46.000                                                  
  21414003.323    21413998.874   112531331.163 0  87686724.254 0        47.000  
        45.000                                                  
  24511449.463    24511451.553   128808551.143 0 100370306.731 0        35.000  
        39.000                                                  
  23521181.017    23521179.713   123604613.729 0  96315597.677 0        43.000  
        42.000                                                  
  22366012.368                   117534191.547 0                        46.000  
                                                                
  21998179.066    21998176.225   115601762.180 0  90078847.567 0        45.000  
        47.000                                                  
  20961492.743                   110153362.383 0                        49.000  
                                                                
  24995486.414    24995485.432   131352710.391 0 102352761.298 0        34.000  
        34.000                                                  
  20486683.872    20486681.549   107658248.364 0  83889524.821 0        50.000  
        49.000                                                  
 22  1 17  8 59 38.0000000  0  0
 22  1 17  8 59 39.0000000  0  7E03E05E09E13E15E24E25
  25380171.491                   133373334.626 0                        46.000  
                  25380171.902   102195149.693          51.000  
  23325546.129                   122576570.074 0                        48.000  
                  23325546.058    93922299.466          53.000  
  24127656.354                   126791658.056 0                        44.000  
                  24127657.229    97152043.514          48.000  
  28256315.714                   148487693.62110                        35.000  
                  28256317.143   113776466.746          41.000  
  27770308.523                   145933262.545 0                        37.000  
                  27770310.721   111818981.979          42.000  
  24081966.245                   126551737.072 0                        48.000  
                  24081964.851    96968122.492          52.000  
  25805991.166                   135611407.699 0                        45.000  
                  25805992.113   103910054.604          49.000  
 22  1 17  8 59 40.0000000  0  9G05G07G08G09G13G14G20G27G30
  21469082.889    21469078.529   112820251.44710  87911881.105 0        48.000  
        46.000                                                  
  21414339.440    21414334.973   112533097.361 0  87688100.503 0        47.000  
        45.000                                                  
  24511264.286    24511266.323   128807577.965 0 100369548.388 0        35.000  
        39.000                                                  
  23521754.381    23521753.166   123607627.038 0  96317945.703 0        43.000  
        42.000                                                  
  22365489.663                   117531444.683 0                        46.000  
                                                                
  21997627.485    21997624.501   115598863.438 0  90076588.805 0        45.000  
        47.000                                                  
  20961694.770                   110154423.423 0                        49.000  
                                                                
  24995578.922    24995577.654   131353195.538 0 102353139.337 0        34.000  
        34.000                                                  
  20486751.685    20486749.452   107658604.870 0  83889802.618 0        50.000  
        49.000                                                  
 22  1 17  8 59 39.0000000  0  0
 22  1 17  8 59 40.0000000  0  7E03E05E09E13E15E24E25
  25379771.422                   133371232.443 0                        46.000  
                  25379771.708   102193538.923          51.000  
  23325572.379                   122576707.855 0                        48.000  
                  23325572.379    93922405.034          53.000  
  24128072.470                   126793844.402 0                        44.000  
                  24128073.238    97153718.764          48.000  
  28256301.829                   148487620.12510                        35.000  
                  28256303.223   113776410.424          41.000  
  27770680.717                   145935217.779 0                        37.000  
                  27770682.861   111820480.161          42.000  
  24081903.971                   126551410.248 0                        48.000  
                  24081902.577    96967872.066          52.000  
  25805450.485                   135608566.492 0                        45.000  
                  25805451.468   103907877.589          49.000  
 22  1 17  8 59 41.0000000  0  9G05G07G08G09G13G14G20G27G30
  21468894.067    21468889.779   112819259.51810  87911108.164 0        48.000  
        46.000                                                  
  21414675.520    21414671.017   112534863.670 0  87689476.848 0        47.000  
        45.000                                                  
  24511079.056    24511081.146   128806605.166 0 100368790.369 0        36.000  
        39.000                                                  
  23522327.744    23522326.600   123610640.417 0  96320293.784 0        43.000  
        42.000                                                  
  22364966.959                   117528697.846 0                        46.000  
                                                                
  21997075.940    21997072.992   115595964.945 0  90074330.244 0        45.000  
        47.000                                                  
  20961896.672                   110155484.969 0                        49.000  
                                                                
  24995671.484    24995670.090   131353681.192 0 102353517.757 0        34.000  
        35.000                                                  
  20486819.552    20486817.300   107658961.649 0  83890080.635 0        50.000  
        49.000                                                  
 22  1 17  8 59 40.0000000  0  0
 22  1 17  8 59 41.0000000  0  7E03E05E09E13E15E24E25
  25379371.352                   133369130.222 0                        46.000  
                  25379371.710   102191928.132          51.000  
  23325598.539                   122576845.765 0                        48.000  
                  23325598.629    93922510.721          53.000  
  24128488.586                   126796030.807 0                        44.000  
                  24128489.336    97155394.056          48.000  
  28256287.749                   148487546.95510                        35.000  
                  28256289.375   113776354.376          41.000  
  27771052.625                   145937173.202 0                        37.000  
                  27771054.984   111821978.456          42.000  
  24081841.894                   126551083.743 0                        48.000  
                  24081840.500    96967621.892          52.000  
  25804909.626                   135605725.374 0                        45.000  
                  25804910.895   103905700.626          49.000  
 22  1 17  8 59 42.0000000  0  9G05G07G08G09G13G14G20G27G30
  21468705.460    21468701.171   112818268.22610  87910335.729 0        48.000  
        46.000                                                  
  21415011.601    21415007.044   112536630.220 0  87690853.384 0        47.000  
        45.000                                                  
  24510894.111    24510896.184   128805632.919 0 100368032.767 0        36.000  
        39.000                                                  
  23522901.107    23522900.053   123613653.958 0  96322642.007 0        43.000  
        42.000                                                  
  22364444.254                   117525951.161 0                        46.000  
                                                                
  21996524.484    21996521.643   115593066.843 0  90072071.975 0        45.000  
        47.000                                                  
  20962098.788                   110156547.160 0                        49.000  
                                                                
  24995764.028    24995762.670   131354167.427 0 102353896.635 0        35.000  
        35.000                                                  
  20486887.543    20486885.381   107659318.830 0  83890358.955 0        50.000  
        49.000                                                  
 22  1 17  8 59 41.0000000  0  0
 22  1 17  8 59 42.0000000  0  7E03E05E09E13E15E24E25
  25378971.211                   133367028.109 0                        46.000  
                  25378971.658   102190317.422          50.000  
  23325624.914                   122576983.960 0                        48.000  
                  23325624.825    93922616.599          53.000  
  24128904.666                   126798217.358 0                        44.000  
                  24128905.220    97157069.468          48.000  
  28256274.150                   148487474.28610                        35.000  
                  28256275.687   113776298.672          41.000  
  27771424.908                   145939128.880 0                        37.000  
                  27771427.213   111823476.965          42.000  
  24081779.853                   126550757.700 0                        47.000  
                  24081778.406    96967372.064          52.000  
  25804369.070                   135602884.446 0                        45.000  
                  25804370.285   103903523.823          49.000  
 22  1 17  8 59 43.0000000  0  9G05G07G08G09G13G14G20G27G30
  21468516.995    21468512.689   112817277.77110  87909563.943 0        48.000  
        46.000                                                  
  21415347.789    21415343.411   112538397.198 0  87692230.257 0        47.000  
        45.000                                                  
  24510709.238    24510711.400   128804661.399 0 100367275.764 0        36.000  
        40.000                                                  
  23523474.632    23523473.595   123616667.877 0  96324990.524 0        43.000  
        42.000                                                  
  22363921.621                   117523204.828 0                        46.000  
                                                                
  21995973.189    21995970.223   115590169.327 0  90069814.171 0        45.000  
        47.000                                                  
  20962301.083                   110157610.187 0                        49.000  
                                                                
  24995856.875    24995855.392   131354654.525 0 102354276.214 0        35.000  
        35.000                                                  
  20486955.607    20486953.444   107659676.616 0  83890637.743 0        50.000  
        49.000                                                  
 22  1 17  8 59 42.0000000  0  0
 22  1 17  8 59 43.0000000  0  7E03E05E09E13E15E24E25
  25378571.481                   133364926.296 0                        46.000  
                  25378571.749   102188706.944          50.000  
  23325651.485                   122577122.627 0                        48.000  
                  23325651.306    93922722.853          53.000  
  24129320.853                   126800404.294 0                        44.000  
                  24129321.461    97158745.170          48.000  
  28256260.463                   148487402.28610                        35.000  
                  28256261.910   113776243.495          41.000  
  27771797.102                   145941085.068 0                        37.000  
                  27771799.372   111824975.856          42.000  
  24081718.008                   126550432.310 0                        48.000  
                  24081716.472    96967122.738          52.000  
  25803828.478                   135600043.933 0                        45.000  
                  25803829.676   103901347.330          49.000  
 22  1 17  8 59 44.0000000  0  9G05G07G08G09G13G14G20G27G30
  21468328.602    21468324.313   112816287.88810  87908792.603 0        48.000  
        46.000                                                  
  21415684.084    21415679.634   112540164.355 0  87693607.251 0        47.000  
        45.000                                                  
  24510524.437    24510526.671   128803690.320 0 100366519.081 0        36.000  
        40.000                                                  
  23524048.191    23524047.209   123619681.925 0  96327339.113 0        43.000  
        42.000                                                  
  22363398.952                   117520458.569 0                        46.000  
                                                                
  21995421.858    21995418.856   115587272.117 0  90067556.605 0        45.000  
        47.000                                                  
  20962503.432                   110158673.778 0                        49.000  
                                                                
  24995949.830    24995948.221   131355142.169 0 102354656.116 0        35.000  
        35.000                                                  
  20487023.741    20487021.543   107660034.712 0  83890916.783 0        50.000  
        49.000                                                  
 22  1 17  8 59 43.0000000  0  0
 22  1 17  8 59 44.0000000  0  7E03E05E09E13E15E24E25
  25378171.519                   133362824.518 0                        46.000  
                  25378171.733   102187096.484          50.000  
  23325677.735                   122577261.491 0                        48.000  
                  23325677.699    93922829.251          53.000  
  24129736.933                   126802591.324 0                        44.000  
                  24129737.755    97160420.951          48.000  
  28256246.721                   148487330.65410                        35.000  
                  28256248.419   113776188.601          41.000  
  27772169.457                   145943041.456 0                        37.000  
                  27772171.691   111826474.895          42.000  
  24081656.217                   126550107.291 0                        48.000  
                  24081654.645    96966873.702          52.000  
  25803287.958                   135597203.533 0                        45.000  
                  25803289.066   103899170.929          49.000  
 22  1 17  8 59 45.0000000  0  9G05G07G08G09G13G14G20G27G30
  21468140.405    21468136.153   112815298.70010  87908021.801 0        48.000  
        46.000                                                  
  21416020.468    21416016.072   112541931.794 0  87694984.479 0        47.000  
        45.000                                                  
  24510339.743    24510342.030   128802719.901 0 100365762.887 0        35.000  
        40.000                                                  
  23524621.751    23524620.822   123622696.194 0  96329687.889 0        43.000  
        43.000                                                  
  22362876.479                   117517712.503 0                        46.000  
                                                                
  21994870.688    21994867.615   115584375.341 0  90065299.379 0        45.000  
