     2.11           OBSERVATION DATA    M (Mixed)           RINEX VERSION / TYPE
RTCM3TORINEX on                         2022-01-14 03:59    PGM / RUN BY / DATE
RTCM3TORINEX                                                MARKER NAME
                                                            OBSERVER / AGENCY
                                                            REC # / TYPE / VERS
                                                            ANT # / TYPE
         .0000         .0000         .0000                  APPROX POSITION XYZ
         .0000         .0000         .0000                  ANTENNA: DELTA H/E/N
     1     1                                                WAVELENGTH FACT L1/2
     9    C1    C2    L1    L2    S1    S2    C7    L7    S7# / TYPES OF OBSERV
  2022     1    14     3    59   21.0000000     GPS         TIME OF FIRST OBS
                                                            END OF HEADER
 22  1 14  3 59 21.0000000  0  5E04E09E11E12E19
  24097081.669                   126630552.926 0                        49.000  
                  24097079.632    97028608.994          53.000  
  26243964.636                   137913252.05110                        38.000  
                  26243963.868   105673791.007          41.000  
  22672957.957                   119146754.002 0                        46.000  
                  22672953.221    91294267.958          49.000  
  22784944.446                   119736162.523 0                        45.000  
                  22784940.926    91745894.007          50.000  
  24031889.773                   126289072.839 0                        43.000  
                  24031886.914    96766955.675          46.000  
 22  1 14  3 59 22.0000000  0 10G01G03G04G06G09G17G19G21G22G31
  21366994.677    21366992.444   112284629.705 0  87494585.683 0        47.000  
        47.000                                                  
  20295560.073    20295557.089   106653404.924 0  83106554.880 0        50.000  
        49.000                                                  
  20728225.710    20728220.528   108928303.170 0  84879200.060 0        48.000  
        49.000                                                  
  23864716.343    23864713.145   125409241.377 0  97722444.827 0        43.000  
        41.000                                                  
  23089135.006    23089132.147   121334336.268 0  94546236.488 0        45.000  
        45.000                                                  
  22845668.407    22845662.975   120054992.307 0  93549340.852 0        46.000  
        43.000                                                  
  22681951.364                   119194995.11910                        46.000  
                                                                
  23329746.779                   122598531.987 0                        43.000  
                                                                
  21225104.950                   111539271.584 0                        44.000  
                                                                
  22917073.219    22917066.947   120429757.731 0  93841372.983 0        42.000  
        40.000                                                  
 22  1 14  3 59 21.0000000  0  0
 22  1 14  3 59 22.0000000  0  5E04E09E11E12E19
  24096851.480                   126629343.751 0                        49.000  
                  24096849.551    97027682.488          53.000  
  26243463.195                   137910617.58610                        38.000  
                  26243462.516   105671772.386          41.000  
  22672776.121                   119145798.730 0                        46.000  
                  22672771.475    91293535.999          49.000  
  22785326.789                   119738172.770 0                        45.000  
                  22785323.484    91747434.323          50.000  
  24032191.438                   126290657.321 0                        43.000  
                  24032188.365    96768169.770          46.000  
 22  1 14  3 59 23.0000000  0 10G01G03G04G06G09G17G19G21G22G31
  21367522.421    21367520.384   112287403.395 0  87496747.002 0        47.000  
        47.000                                                  
  20295597.598    20295594.542   106653602.081 0  83106708.506 0        50.000  
        49.000                                                  
  20727935.070    20727930.049   108926776.350 0  84878010.331 0        48.000  
        49.000                                                  
  23864082.708    23864079.599   125405911.905 0  97719850.437 0        43.000  
        41.000                                                  
  23088534.732    23088531.873   121331181.628 0  94543778.331 0        45.000  
        45.000                                                  
  22845919.163    22845913.767   120056309.965 0  93550367.594 0        46.000  
        43.000                                                  
  22681982.349                   119195157.55310                        46.000  
                                                                
  23330317.016                   122601528.271 0                        43.000  
                                                                
  21225386.208                   111540749.809 0                        44.000  
                                                                
  22917371.400    22917365.199   120431324.911 0  93842594.174 0        42.000  
        40.000                                                  
 22  1 14  3 59 22.0000000  0  0
 22  1 14  3 59 23.0000000  0  5E04E09E11E12E19
  24096621.506                   126628134.861 0                        49.000  
                  24096619.433    97026756.194          53.000  
  26242961.737                   137907983.19910                        38.000  
                  26242961.272   105669753.837          41.000  
  22672594.393                   119144843.873 0                        46.000  
                  22672589.801    91292804.352          49.000  
  22785709.526                   119740183.366 0                        45.000  
                  22785706.149    91748974.905          50.000  
  24032492.763                   126292242.014 0                        43.000  
                  24032489.976    96769384.006          46.000  
 22  1 14  3 59 24.0000000  0 10G01G03G04G06G09G17G19G21G22G31
  21368050.361    21368048.235   112290177.441 0  87498908.594 0        47.000  
        47.000                                                  
  20295635.194    20295632.085   106653799.534 0  83106862.370 0        50.000  
        49.000                                                  
  20727644.717    20727639.481   108925249.959 0  84876820.928 0        48.000  
        49.000                                                  
  23863449.144    23863446.034   125402582.568 0  97717256.137 0        43.000  
        41.000                                                  
  23087934.494    23087931.653   121328027.154 0  94541320.306 0        45.000  
        45.000                                                  
  22846169.991    22846164.648   120057628.061 0  93551394.686 0        46.000  
        43.000                                                  
  22682013.316                   119195320.61710                        46.000  
                                                                
  23330887.216                   122604524.700 0                        43.000  
                                                                
  21225667.520                   111542228.269 0                        44.000  
                                                                
  22917669.634    22917663.505   120432892.661 0  93843815.792 0        42.000  
        40.000                                                  
 22  1 14  3 59 23.0000000  0  0
 22  1 14  3 59 24.0000000  0  5E04E09E11E12E19
  24096391.514                   126626926.177 0                        49.000  
                  24096389.423    97025830.059          53.000  
  26242460.493                   137905348.86910                        38.000  
                  26242460.046   105667735.311          41.000  
  22672412.755                   119143889.352 0                        46.000  
                  22672408.002    91292072.962          49.000  
  22786092.263                   119742194.246 0                        45.000  
                  22786088.742    91750515.712          50.000  
  24032794.339                   126293826.833 0                        43.000  
                  24032791.569    96770598.350          46.000  
 22  1 14  3 59 25.0000000  0 10G01G03G04G06G09G17G19G21G22G31
  21368578.355    21368576.264   112292952.038 0  87501070.623 0        47.000  
        47.000                                                  
  20295672.862    20295669.806   106653997.474 0  83107016.600 0        50.000  
        49.000                                                  
  20727354.381    20727349.216   108923724.169 0  84875631.998 0        48.000  
        49.000                                                  
  23862815.508    23862812.560   125399253.533 0  97714662.089 0        43.000  
        40.000                                                  
  23087334.220    23087331.486   121324873.062 0  94538862.568 0        45.000  
        45.000                                                  
  22846420.907    22846415.529   120058946.796 0  93552422.268 0        46.000  
        43.000                                                  
  22682044.516                   119195484.49110                        46.000  
                                                                
  23331457.470                   122607521.471 0                        43.000  
                                                                
  21225948.886                   111543707.126 0                        44.000  
                                                                
  22917968.029    22917961.917   120434461.147 0  93845037.966 0        42.000  
        40.000                                                  
 22  1 14  3 59 24.0000000  0  0
 22  1 14  3 59 25.0000000  0  5E04E09E11E12E19
  24096161.504                   126625717.900 0                        49.000  
                  24096159.574    97024904.236          53.000  
  26241959.178                   137902714.72310                        38.000  
                  26241958.713   105665716.955          41.000  
  22672231.277                   119142935.366 0                        46.000  
                  22672226.560    91291341.990          49.000  
  22786474.856                   119744205.602 0                        45.000  
                  22786471.550    91752056.881          50.000  
  24033096.147                   126295411.958 0                        43.000  
                  24033093.127    96771812.929          46.000  
 22  1 14  3 59 26.0000000  0 10G01G03G04G06G09G17G19G21G22G31
  21369106.295    21369104.205   112295726.797 0  87503232.768 0        47.000  
        47.000                                                  
  20295710.530    20295707.456   106654195.497 0  83107170.915 0        50.000  
        49.000                                                  
  20727064.045    20727058.881   108922198.593 0  84874443.249 0        48.000  
        49.000                                                  
  23862181.962    23862179.121   125395924.427 0  97712067.983 0        43.000  
        40.000                                                  
  23086734.017    23086731.176   121321718.953 0  94536404.827 0        45.000  
        45.000                                                  
  22846671.914    22846666.553   120060265.778 0  93553450.039 0        46.000  
        43.000                                                  
  22682075.858                   119195648.80910                        46.000  
                                                                
  23332027.742                   122610518.203 0                        43.000  
                                                                
  21226230.359                   111545186.017 0                        44.000  
                                                                
  22918266.459    22918260.437   120436029.994 0  93846260.465 0        42.000  
        40.000                                                  
 22  1 14  3 59 25.0000000  0  0
 22  1 14  3 59 26.0000000  0  5E04E09E11E12E19
  24095931.690                   126624509.647 0                        49.000  
                  24095929.653    97023978.429          53.000  
  26241457.969                   137900080.42810                        38.000  
                  26241457.290   105663698.449          41.000  
  22672049.638                   119141981.532 0                        46.000  
                  22672045.010    91290611.137          49.000  
  22786857.521                   119746217.055 0                        45.000  
                  22786854.251    91753598.127          50.000  
  24033397.686                   126296997.023 0                        43.000  
                  24033394.774    96773027.459          46.000  
 22  1 14  3 59 27.0000000  0 10G01G03G04G06G09G17G19G21G22G31
  21369634.379    21369632.288   112298502.213 0  87505395.434 0        47.000  
        47.000                                                  
  20295748.305    20295745.249   106654394.115 0  83107325.673 0        50.000  
        49.000                                                  
  20726773.941    20726768.777   108920673.742 0  84873255.049 0        48.000  
        49.000                                                  
  23861548.577    23861545.807   125392595.736 0  97709474.179 0        43.000  
        41.000                                                  
  23086133.993    23086131.027   121318565.310 0  94533947.441 0        45.000  
        45.000                                                  
  22846923.098    22846917.756   120061585.508 0  93554478.388 0        46.000  
        43.000                                                  
  22682107.289                   119195814.05310                        46.000  
                                                                
  23332598.157                   122613515.375 0                        43.000  
                                                                
  21226511.814                   111546665.428 0                        44.000  
                                                                
  22918565.122    22918559.100   120437599.707 0  93847483.632 0        42.000  
        40.000                                                  
 22  1 14  3 59 26.0000000  0  0
 22  1 14  3 59 27.0000000  0  5E04E09E11E12E19
  24095701.752                   126623301.875 0                        49.000  
                  24095699.822    97023052.996          53.000  
  26240956.904                   137897446.42010                        38.000  
                  26240956.064   105661680.203          41.000  
  22671868.232                   119141028.347 0                        46.000  
                  22671863.693    91289880.770          49.000  
  22787240.383                   119748229.092 0                        45.000  
                  22787237.113    91755139.819          50.000  
  24033699.423                   126298582.518 0                        43.000  
                  24033696.564    96774242.319          46.000  
 22  1 14  3 59 28.0000000  0 10G01G03G04G06G09G17G19G21G22G31
  21370162.658    21370160.586   112301278.037 0  87507558.407 0        47.000  
        47.000                                                  
  20295786.170    20295783.114   106654593.073 0  83107480.708 0        50.000  
        49.000                                                  
  20726483.820    20726478.691   108919149.352 0  84872067.217 0        48.000  
        49.000                                                  
  23860915.209    23860912.421   125389267.214 0  97706880.533 0        43.000  
        41.000                                                  
  23085533.880    23085530.860   121315411.919 0  94531490.249 0        45.000  
        45.000                                                  
  22847174.408    22847169.030   120062905.728 0  93555507.154 0        46.000  
        43.000                                                  
  22682138.900                   119195979.97910                        46.000  
                                                                
  23333168.536                   122616512.756 0                        43.000  
                                                                
  21226793.412                   111548145.127 0                        44.000  
                                                                
  22918863.928    22918857.870   120439170.027 0  93848707.258 0        42.000  
        40.000                                                  
 22  1 14  3 59 27.0000000  0  0
 22  1 14  3 59 28.0000000  0  5E04E09E11E12E19
  24095471.992                   126622094.381 0                        49.000  
                  24095469.991    97022127.778          53.000  
  26240455.660                   137894812.51510                        38.000  
                  26240454.981   105659662.021          41.000  
  22671686.736                   119140075.570 0                        46.000  
                  22671682.323    91289150.718          49.000  
  22787623.263                   119750241.466 0                        45.000  
                  22787620.135    91756681.764          50.000  
  24034001.213                   126300168.176 0                        43.000  
                  24033998.211    96775457.308          46.000  
 22  1 14  3 59 29.0000000  0 10G01G03G04G06G09G17G19G21G22G31
  21370690.956    21370688.812   112304054.313 0  87509721.734 0        47.000  
        47.000                                                  
  20295824.141    20295821.086   106654792.422 0  83107636.047 0        50.000  
        49.000                                                  
  20726193.805    20726188.766   108917625.484 0  84870879.795 0        48.000  
        49.000                                                  
  23860281.913    23860279.054   125385938.931 0  97704287.063 0        43.000  
        41.000                                                  
  23084933.803    23084930.908   121312258.787 0  94529033.276 0        45.000  
        45.000                                                  
  22847425.772    22847420.375   120064226.505 0  93556536.325 0        46.000  
        43.000                                                  
  22682170.564                   119196146.63510                        46.000  
                                                                
  23333738.969                   122619510.389 0                        43.000  
                                                                
  21227074.974                   111549625.136 0                        44.000  
                                                                
  22919162.877    22919156.855   120440741.019 0  93849931.403 0        42.000  
        40.000                                                  
 22  1 14  3 59 28.0000000  0  0
 22  1 14  3 59 29.0000000  0  5E04E09E11E12E19
  24095242.429                   126620887.202 0                        49.000  
                  24095240.320    97021202.795          53.000  
  26239954.488                   137892178.75310                        38.000  
                  26239953.576   105657643.921          41.000  
  22671505.759                   119139123.239 0                        46.000  
                  22671501.238    91288421.005          49.000  
  22788006.357                   119752254.240 0                        45.000  
                  22788003.086    91758224.010          50.000  
  24034302.949                   126301754.075 0                        43.000  
                  24034300.036    96776672.478          46.000  
 22  1 14  3 59 30.0000000  0 10G01G03G04G06G09G17G19G21G22G31
  21371219.468    21371217.127   112306830.987 0  87511885.381 0        47.000  
        47.000                                                  
  20295862.041    20295859.075   106654992.111 0  83107791.647 0        50.000  
        49.000                                                  
  20725903.845    20725898.895   108916102.089 0  84869692.727 0        48.000  
        49.000                                                  
  23859648.653    23859645.633   125382610.803 0  97701693.723 0        43.000  
        41.000                                                  
  23084333.868    23084330.884   121309105.892 0  94526576.461 0        45.000  
        45.000                                                  
  22847677.153    22847671.703   120065547.773 0  93557565.877 0        46.000  
        43.000                                                  
  22682202.299                   119196313.98110                        46.000  
                                                                
  23334309.509                   122622508.221 0                        43.000  
                                                                
  21227356.608                   111551105.419 0                        44.000  
                                                                
  22919461.843    22919455.875   120442312.622 0  93851156.022 0        42.000  
        40.000                                                  
 22  1 14  3 59 29.0000000  0  0
 22  1 14  3 59 30.0000000  0  5E04E09E11E12E19
  24095012.561                   126619680.281 0                        49.000  
                  24095010.614    97020278.013          53.000  
  26239453.226                   137889545.06510                        38.000  
                  26239452.350   105655625.882          41.000  
  22671324.513                   119138171.298 0                        46.000  
                  22671319.975    91287691.598          49.000  
  22788389.504                   119754267.333 0                        45.000  
                  22788386.180    91759766.519          50.000  
  24034604.739                   126303340.156 0                        43.000  
                  24034601.826    96777887.775          46.000  
 22  1 14  3 59 31.0000000  0 10G01G03G04G06G09G17G19G21G22G31
  21371747.909    21371745.639   112309608.035 0  87514049.312 0        47.000  
        47.000                                                  
  20295900.120    20295897.029   106655192.112 0  83107947.489 0        50.000  
        49.000                                                  
  20725614.027    20725609.095   108914579.110 0  84868505.999 0        48.000  
        49.000                                                  
  23859015.410    23859012.372   125379282.809 0  97699100.479 0        43.000  
        41.000                                                  
  23083733.862    23083731.003   121305953.191 0  94524119.820 0        45.000  
        45.000                                                  
  22847928.642    22847923.281   120066869.481 0  93558595.779 0        46.000  
        43.000                                                  
  22682234.231                   119196481.94810                        46.000  
                                                                
  23334879.978                   122625506.203 0                        43.000  
                                                                
  21227638.366                   111552585.945 0                        44.000  
                                                                
  22919760.899    22919754.984   120443884.779 0  93852381.097 0        42.000  
        40.000                                                  
 22  1 14  3 59 30.0000000  0  0
 22  1 14  3 59 31.0000000  0  5E04E09E11E12E19
  24094782.837                   126618473.589 0                        49.000  
                  24094781.050    97019353.405          53.000  
  26238951.982                   137886911.36810                        38.000  
                  26238951.214   105653607.878          41.000  
  22671143.411                   119137219.706 0                        46.000  
                  22671138.890    91286962.468          49.000  
  22788772.527                   119756280.743 0                        45.000  
                  22788769.435    91761309.255          50.000  
  24034906.600                   126304926.370 0                        43.000  
                  24034903.652    96779103.183          46.000  
 22  1 14  3 59 32.0000000  0 10G01G03G04G06G09G17G19G21G22G31
  21372276.474    21372274.223   112312385.573 0  87516213.639 0        47.000  
        47.000                                                  
  20295938.288    20295935.161   106655392.531 0  83108103.667 0        50.000  
        49.000                                                  
  20725324.406    20725319.421   108913056.692 0  84867319.692 0        48.000  
        49.000                                                  
  23858382.204    23858379.148   125375955.060 0  97696507.441 0        43.000  
        41.000                                                  
  23083133.892    23083131.104   121302800.787 0  94521663.401 0        45.000  
        45.000                                                  
  22848180.291    22848174.913   120068191.755 0  93559626.137 0        46.000  
        43.000                                                  
  22682266.324                   119196650.69410                        46.000  
                                                                
  23335450.589                   122628504.464 0                        43.000  
                                                                
  21227920.125                   111554066.806 0                        44.000  
                                                                
  22920060.187    22920054.273   120445457.632 0  93853606.690 0        42.000  
        40.000                                                  
 22  1 14  3 59 31.0000000  0  0
 22  1 14  3 59 32.0000000  0  5E04E09E11E12E19
  24094553.417                   126617267.231 0                        49.000  
                  24094551.433    97018429.058          53.000  
  26238450.756                   137884277.86810                        38.000  
                  26238450.112   105651590.001          41.000  
  22670962.362                   119136268.590 0                        46.000  
                  22670957.913    91286233.681          49.000  
  22789155.710                   119758294.558 0                        45.000  
                  22789152.583    91762852.313          50.000  
  24035208.569                   126306512.835 0                        43.000  
                  24035205.496    96780318.793          46.000  
 22  1 14  3 59 33.0000000  0 10G01G03G04G06G09G17G19G21G22G31
  21372805.183    21372802.932   112315163.712 0  87518378.420 0        47.000  
        47.000                                                  
  20295976.618    20295973.401   106655593.488 0  83108260.246 0        50.000  
        49.000                                                  
  20725034.821    20725029.799   108911534.937 0  84866133.909 0        48.000  
        49.000                                                  
  23857749.050    23857745.995   125372627.698 0  97693914.685 0        43.000  
        41.000                                                  
  23082534.100    23082531.312   121299648.822 0  94519207.318 0        45.000  
        45.000                                                  
  22848432.066    22848426.634   120069514.745 0  93560657.027 0        46.000  
        43.000                                                  
  22682298.631                   119196820.31710                        46.000  
                                                                
  23336021.165                   122631503.142 0                        43.000  
                                                                
  21228202.027                   111555548.144 0                        44.000  
                                                                
  22920359.511    22920353.722   120447031.297 0  93854832.925 0        42.000  
        40.000                                                  
 22  1 14  3 59 32.0000000  0  0
 22  1 14  3 59 33.0000000  0  5E04E09E11E12E19
  24094323.871                   126616061.326 0                        49.000  
                  24094321.906    97017505.052          53.000  
  26237949.601                   137881644.62910                        38.000  
                  26237949.101   105649572.311          41.000  
  22670781.492                   119135318.075 0                        46.000  
                  22670777.024    91285505.365          49.000  
  22789538.965                   119760308.916 0                        45.000  
                  22789535.927    91764395.784          50.000  
  24035510.573                   126308099.691 0                        43.000  
                  24035507.482    96781534.694          46.000  
 22  1 14  3 59 34.0000000  0 10G01G03G04G06G09G17G19G21G22G31
  21373333.856    21373331.622   112317942.288 0  87520543.540 0        47.000  
        47.000                                                  
  20296014.893    20296011.730   106655794.818 0  83108417.126 0        50.000  
        49.000                                                  
  20724745.271    20724740.286   108910013.683 0  84864948.517 0        48.000  
        49.000                                                  
  23857115.879    23857112.895   125369300.529 0  97691322.081 0        43.000  
        41.000                                                  
  23081934.362    23081931.467   121296497.119 0  94516751.450 0        45.000  
        45.000                                                  
  22848683.787    22848678.390   120070838.234 0  93561688.317 0        46.000  
        43.000                                                  
  22682331.063                   119196990.64710                        46.000  
                                                                
  23336591.848                   122634502.040 0                        43.000  
                                                                
  21228484.000                   111557029.797 0                        44.000  
                                                                
  22920658.996    22920653.385   120448605.602 0  93856059.652 0        43.000  
        39.000                                                  
 22  1 14  3 59 33.0000000  0  0
 22  1 14  3 59 34.0000000  0  5E04E09E11E12E19
  24094094.344                   126614855.722 0                        49.000  
                  24094092.414    97016581.278          53.000  
  26237448.464                   137879011.49610                        37.000  
                  26237448.018   105647554.719          41.000  
  22670600.657                   119134368.000 0                        46.000  
                  22670596.279    91284777.379          49.000  
  22789922.398                   119762323.638 0                        45.000  
                  22789919.253    91765939.532          50.000  
  24035812.524                   126309686.746 0                        43.000  
                  24035809.397    96782750.745          46.000  
 22  1 14  3 59 35.0000000  0 10G01G03G04G06G09G17G19G21G22G31
  21373862.672    21373860.420   112320721.135 0  87522708.879 0        47.000  
        47.000                                                  
  20296053.222    20296050.113   106655996.347 0  83108574.159 0        50.000  
        49.000                                                  
  20724455.972    20724450.968   108908492.747 0  84863763.376 0        48.000  
        49.000                                                  
  23856482.816    23856479.778   125365973.401 0  97688729.501 0        43.000  
        41.000                                                  
  23081334.570    23081331.747   121293345.489 0  94514295.637 0        45.000  
        45.000                                                  
  22848935.722    22848930.415   120072162.079 0  93562719.879 0        46.000  
        43.000                                                  
  22682363.549                   119197161.52010                        46.000  
                                                                
  23337162.585                   122637501.014 0                        43.000  
                                                                
  21228765.955                   111558511.597 0                        44.000  
                                                                
  22920958.749    22920952.942   120450180.377 0  93857286.742 0        43.000  
        39.000                                                  
 22  1 14  3 59 34.0000000  0  0
 22  1 14  3 59 35.0000000  0  5E04E09E11E12E19
  24093865.013                   126613650.251 0                        49.000  
                  24093863.083    97015657.598          53.000  
  26236947.274                   137876378.28910                        37.000  
                  26236946.845   105645537.067          41.000  
  22670419.858                   119133418.172 0                        46.000  
                  22670415.427    91284049.595          49.000  
  22790305.796                   119764338.560 0                        45.000  
                  22790302.812    91767483.428          50.000  
  24036114.350                   126311273.825 0                        43.000  
                  24036111.491    96783966.827          46.000  
 22  1 14  3 59 36.0000000  0 10G01G03G04G06G09G17G19G21G22G31
  21374391.524    21374389.308   112323500.401 0  87524874.534 0        47.000  
        47.000                                                  
  20296091.640    20296088.549   106656198.225 0  83108731.478 0        50.000  
        49.000                                                  
  20724166.583    20724161.651   108906972.304 0  84862578.615 0        48.000  
        49.000                                                  
  23855849.752    23855846.750   125362646.444 0  97686137.082 0        43.000  
        41.000                                                  
  23080734.975    23080731.955   121290194.115 0  94511840.014 0        45.000  
        45.000                                                  
  22849187.729    22849182.440   120073486.427 0  93563751.830 0        46.000  
        43.000                                                  
  22682396.232                   119197333.07910                        46.000  
                                                                
  23337733.393                   122640500.184 0                        43.000  
                                                                
  21229047.928                   111559993.649 0                        44.000  
                                                                
  22921258.502    22921252.641   120451755.762 0  93858514.333 0        42.000  
        39.000                                                  
 22  1 14  3 59 35.0000000  0  0
 22  1 14  3 59 36.0000000  0  5E04E09E11E12E19
  24093635.682                   126612445.041 0                        49.000  
                  24093633.716    97014734.130          53.000  
  26236446.084                   137873745.19110                        37.000  
                  26236445.941   105643519.503          41.000  
  22670239.167                   119132468.758 0                        46.000  
                  22670234.878    91283322.124          49.000  
  22790688.997                   119766353.842 0                        45.000  
                  22790686.156    91769027.603          50.000  
  24036416.461                   126312861.127 0                        43.000  
                  24036413.567    96785183.060          46.000  
 22  1 14  3 59 37.0000000  0 10G01G03G04G06G09G17G19G21G22G31
  21374920.464    21374918.213   112326279.872 0  87527040.358 0        47.000  
        47.000                                                  
  20296129.970    20296127.003   106656400.245 0  83108888.889 0        50.000  
        49.000                                                  
  20723877.265    20723872.316   108905452.115 0  84861394.048 0        48.000  
        49.000                                                  
  23855216.670    23855213.615   125359319.452 0  97683544.616 0        43.000  
        41.000                                                  
  23080135.255    23080132.235   121287042.761 0  94509384.415 0        45.000  
        45.000                                                  
  22849439.772    22849434.536   120074811.076 0  93564784.035 0        46.000  
        43.000                                                  
  22682428.914                   119197505.12610                        46.000  
                                                                
  23338304.165                   122643499.340 0                        43.000  
                                                                
  21229330.045                   111561475.774 0                        44.000  
                                                                
  22921558.308    22921552.430   120453331.558 0  93859742.224 0        43.000  
        39.000                                                  
 22  1 14  3 59 36.0000000  0  0
 22  1 14  3 59 37.0000000  0  5E04E09E11E12E19
  24093406.369                   126611239.892 0                        49.000  
                  24093404.474    97013810.704          53.000  
  26235944.947                   137871111.94910                        37.000  
                  26235944.715   105641501.811          41.000  
  22670058.636                   119131519.540 0                        46.000  
                  22670054.169    91282594.794          49.000  
  22791072.592                   119768369.242 0                        45.000  
                  22791069.768    91770571.873          50.000  
  24036718.519                   126314448.364 0                        43.000  
                  24036715.589    96786399.273          46.000  
 22  1 14  3 59 38.0000000  0 10G01G03G04G06G09G17G19G21G22G31
  21375449.495    21375447.386   112329059.998 0  87529206.690 0        47.000  
        47.000                                                  
  20296168.567    20296165.618   106656602.859 0  83109046.771 0        50.000  
        49.000                                                  
  20723588.162    20723583.177   108903932.661 0  84860210.065 0        48.000  
        49.000                                                  
  23854583.624    23854580.622   125355992.899 0  97680952.504 0        43.000  
        41.000                                                  
  23079535.589    23079532.694   121283891.903 0  94506929.199 0        45.000  
        45.000                                                  
  22849691.886    22849686.739   120076136.472 0  93565816.820 0        46.000  
        43.000                                                  
  22682461.793                   119197678.10610                        46.000  
                                                                
  23338874.884                   122646498.963 0                        43.000  
                                                                
  21229612.161                   111562958.431 0                        44.000  
                                                                
  22921858.311    22921852.397   120454908.231 0  93860970.796 0        43.000  
        39.000                                                  
 22  1 14  3 59 37.0000000  0  0
 22  1 14  3 59 38.0000000  0  5E04E09E11E12E19
  24093177.198                   126610035.269 0                        49.000  
                  24093175.179    97012887.679          53.000  
  26235443.900                   137868479.03010                        37.000  
                  26235443.649   105639484.395          41.000  
  22669878.141                   119130570.980 0                        46.000  
                  22669873.692    91281867.969          49.000  
  22791456.293                   119770385.246 0                        45.000  
                  22791453.470    91772116.603          50.000  
  24037020.631                   126316036.068 0                        43.000  
                  24037017.808    96787615.814          46.000  
 22  1 14  3 59 39.0000000  0 10G01G03G04G06G09G17G19G21G22G31
  21375978.704    21375976.577   112331840.537 0  87531373.342 0        47.000  
        47.000                                                  
  20296207.128    20296204.233   106656805.815 0  83109204.913 0        50.000  
        49.000                                                  
  20723299.185    20723294.217   108902413.667 0  84859026.433 0        48.000  
        49.000                                                  
  23853950.704    23853947.773   125352666.517 0  97678360.525 0        43.000  
        41.000                                                  
  23078936.011    23078933.224   121280741.256 0  94504474.158 0        45.000  
        45.000                                                  
  22849944.250    22849938.978   120077462.370 0  93566849.979 0        46.000  
        43.000                                                  
  22682494.869                   119197851.76110                        46.000  
                                                                
  23339445.799                   122649498.785 0                        43.000  
                                                                
  21229894.330                   111564441.372 0                        44.000  
                                                                
  22922158.386    22922152.561   120456485.503 0  93862199.843 0        43.000  
        39.000                                                  
 22  1 14  3 59 38.0000000  0  0
 22  1 14  3 59 39.0000000  0  5E04E09E11E12E19
  24092947.867                   126608830.892 0                        49.000  
                  24092946.009    97011964.845          53.000  
  26234942.673                   137865846.19910                        37.000  
                  26234942.781   105637467.029          41.000  
  22669697.735                   119129622.792 0                        46.000  
                  22669693.197    91281141.444          49.000  
  22791840.084                   119772401.587 0                        45.000  
                  22791837.118    91773661.588          50.000  
  24037322.725                   126317623.930 0                        43.000  
                  24037319.919    96788832.492          46.000  
 22  1 14  3 59 40.0000000  0 10G01G03G04G06G09G17G19G21G22G31
  21376508.002    21376505.804   112334621.807 0  87533540.563 0        47.000  
        47.000                                                  
  20296245.868    20296243.027   106657009.448 0  83109363.595 0        50.000  
        49.000                                                  
  20723010.332    20723005.293   108900895.466 0  84857843.424 0        48.000  
        49.000                                                  
  23853317.854    23853314.852   125349340.631 0  97675768.930 0        43.000  
        41.000                                                  
  23078336.416    23078333.700   121277591.187 0  94502019.557 0        45.000  
        45.000                                                  
  22850196.721    22850191.504   120078789.093 0  93567883.796 0        46.000  
        43.000                                                  
  22682528.123                   119198026.43110                        46.000  
                                                                
  23340016.643                   122652499.135 0                        43.000  
                                                                
  21230176.715                   111565924.897 0                        44.000  
                                                                
  22922458.836    22922452.850   120458063.723 0  93863429.634 0        43.000  
        39.000                                                  
 22  1 14  3 59 39.0000000  0  0
 22  1 14  3 59 40.0000000  0  5E04E09E11E12E19
  24092718.804                   126607627.105 0                        49.000  
                  24092716.892    97011042.471          53.000  
  26234441.608                   137863213.78410                        38.000  
                  26234441.787   105635449.970          41.000  
  22669517.419                   119128675.338 0                        46.000  
                  22669512.934    91280415.477          49.000  
  22792223.839                   119774418.586 0                        45.000  
                  22792220.980    91775207.083          50.000  
  24037625.194                   126319212.300 0                        43.000  
                  24037622.192    96790049.562          46.000  
 22  1 14  3 59 41.0000000  0 10G01G03G04G06G09G17G19G21G22G31
  21377037.318    21377035.067   112337403.383 0  87535708.034 0        47.000  
        47.000                                                  
  20296284.644    20296281.749   106657213.313 0  83109522.453 0        50.000  
        49.000                                                  
  20722721.461    20722716.404   108899377.646 0  84856660.709 0        48.000  
        49.000                                                  
  23852684.880    23852682.057   125346014.830 0  97673177.387 0        43.000  
        41.000                                                  
  23077736.982    23077734.266   121274441.241 0  94499565.056 0        45.000  
        45.000                                                  
  22850449.246    22850443.939   120080116.221 0  93568917.923 0        45.000  
        43.000                                                  
  22682561.556                   119198201.67910                        46.000  
                                                                
  23340587.683                   122655499.597 0                        43.000  
                                                                
  21230459.009                   111567408.604 0                        44.000  
                                                                
  22922759.268    22922753.210   120459642.438 0  93864659.800 0        43.000  
        39.000                                                  
 22  1 14  3 59 40.0000000  0  0
 22  1 14  3 59 41.0000000  0  5E04E09E11E12E19
  24092489.902                   126606423.488 0                        49.000  
                  24092487.829    97010120.220          53.000  
  26233940.757                   137860581.33710                        38.000  
                  26233940.757   105633432.914          41.000  
  22669337.156                   119127728.192 0                        46.000  
                  22669332.671    91279689.751          49.000  
  22792607.576                   119776435.832 0                        45.000  
                  22792604.789    91776752.765          50.000  
  24037927.269                   126320800.747 0                        42.000  
                  24037924.303    96791266.689          46.000  
 22  1 14  3 59 42.0000000  0 10G01G03G04G06G09G17G19G21G22G31
  21377566.724    21377564.419   112340185.334 0  87537875.758 0        47.000  
        47.000                                                  
  20296323.616    20296320.614   106657417.483 0  83109681.547 0        50.000  
        49.000                                                  
  20722432.734    20722427.694   108897860.225 0  84855478.296 0        48.000  
        49.000                                                  
  23852051.977    23852049.172   125342689.146 0  97670585.934 0        43.000  
        41.000                                                  
  23077137.530    23077134.760   121271291.478 0  94497110.686 0        45.000  
        45.000                                                  
  22850701.807    22850696.625   120081443.783 0  93569952.390 0        45.000  
        43.000                                                  
  22682595.078                   119198377.54610                        46.000  
                                                                
  23341158.688                   122658500.188 0                        43.000  
                                                                
  21230741.376                   111568892.546 0                        44.000  
                                                                
  22923059.771    22923053.731   120461221.712 0  93865890.398 0        43.000  
        39.000                                                  
 22  1 14  3 59 41.0000000  0  0
 22  1 14  3 59 42.0000000  0  5E04E09E11E12E19
  24092260.875                   126605220.082 0                        49.000  
                  24092258.820    97009198.125          53.000  
  26233439.781                   137857948.88210                        38.000  
                  26233439.906   105631415.856          41.000  
  22669157.019                   119126781.404 0                        46.000  
                  22669152.587    91278964.272          49.000  
  22792991.546                   119778453.365 0                        45.000  
                  22792988.758    91778298.660          50.000  
  24038229.309                   126322389.337 0                        42.000  
                  24038226.575    96792483.907          46.000  
 22  1 14  3 59 43.0000000  0 10G01G03G04G06G09G17G19G21G22G31
  21378096.129    21378093.931   112342967.543 0  87540043.734 0        47.000  
        47.000                                                  
  20296362.463    20296359.479   106657621.876 0  83109840.812 0        50.000  
        49.000                                                  
  20722143.988    20722139.092   108896343.174 0  84854296.179 0        48.000  
        49.000                                                  
  23851419.181    23851416.269   125339363.512 0  97667994.549 0        43.000  
        41.000                                                  
  23076538.203    23076535.344   121268141.829 0  94494656.416 0        45.000  
        45.000                                                  
  22850954.547    22850949.347   120082771.741 0  93570987.144 0        45.000  
        43.000                                                  
  22682628.565                   119198553.97710                        46.000  
                                                                
  23341729.657                   122661500.869 0                        43.000  
                                                                
  21231023.760                   111570376.625 0                        44.000  
                                                                
  22923360.364    22923354.413   120462801.492 0  93867121.398 0        43.000  
        39.000                                                  
 22  1 14  3 59 42.0000000  0  0
 22  1 14  3 59 43.0000000  0  5E04E09E11E12E19
  24092031.812                   126604016.815 0                        49.000  
                  24092029.882    97008276.143          53.000  
  26232938.877                   137855316.44110                        38.000  
                  26232939.109   105629398.762          41.000  
  22668976.881                   119125834.886 0                        46.000  
                  22668972.414    91278239.018          49.000  
  22793375.712                   119780471.118 0                        45.000  
                  22793372.674    91779844.730          50.000  
  24038531.707                   126323977.965 0                        42.000  
                  24038528.919    96793701.177          46.000  
 22  1 14  3 59 44.0000000  0 10G01G03G04G06G09G17G19G21G22G31
  21378625.696    21378623.587   112345750.477 0  87542212.243 0        47.000  
        47.000                                                  
  20296401.400    20296398.452   106657826.891 0  83110000.562 0        50.000  
        49.000                                                  
  20721855.403    20721850.614   108894826.880 0  84853114.653 0        48.000  
        49.000                                                  
  23850786.421    23850783.491   125336038.348 0  97665403.505 0        43.000  
        41.000                                                  
  23075938.894    23075936.160   121264992.702 0  94492202.544 0        45.000  
        45.000                                                  
  22851207.375    22851202.158   120084100.468 0  93572022.520 0        45.000  
        43.000                                                  
  22682662.301                   119198731.39110                        46.000  
                                                                
  23342300.769                   122664502.050 0                        43.000  
                                                                
  21231306.394                   111571861.289 0                        44.000  
                                                                
  22923661.153    22923655.185   120464382.165 0  93868353.089 0        43.000  
        39.000                                                  
 22  1 14  3 59 43.0000000  0  0
 22  1 14  3 59 44.0000000  0  5E04E09E11E12E19
  24091803.053                   126602814.107 0                        49.000  
                  24091800.980    97007354.584          53.000  
  26232438.008                   137852684.36110                        38.000  
                  26232438.062   105627381.978          41.000  
  22668797.101                   119124889.057 0                        46.000  
                  22668792.562    91277514.294          49.000  
  22793759.485                   119782489.493 0                        45.000  
                  22793756.823    91781391.282          50.000  
  24038834.212                   126325567.089 0                        43.000  
                  24038831.245    96794918.813          46.000  
 22  1 14  3 59 45.0000000  0 10G01G03G04G06G09G17G19G21G22G31
  21379155.262    21379153.297   112348533.643 0  87544380.955 0        47.000  
        47.000                                                  
  20296440.301    20296437.406   106658032.094 0  83110160.462 0        50.000  
        49.000                                                  
  20721566.926    20721562.173   108893310.885 0  84851933.363 0        48.000  
        49.000                                                  
  23850153.608    23850150.659   125332713.192 0  97662812.486 0        43.000  
        41.000                                                  
  23075339.638    23075336.851   121261843.654 0  94489748.750 0        45.000  
        45.000                                                  
  22851460.240    22851455.111   120085429.547 0  93573058.173 0        46.000  
        43.000                                                  
  22682696.092                   119198909.33010                        46.000  
                                                                
  23342871.827                   122667503.263 0                        43.000  
                                                                
  21231588.886                   111573346.067 0                        44.000  
                                                                
  22923961.996    22923956.081   120465963.290 0  93869585.148 0        43.000  
        39.000                                                  
 22  1 14  3 59 44.0000000  0  0
 22  1 14  3 59 45.0000000  0  5E04E09E11E12E19
  24091574.186                   126601611.506 0                        49.000  
                  24091572.185    97006433.114          53.000  
  26231937.211                   137850052.16710                        38.000  
                  26231937.175   105625365.092          41.000  
  22668617.071                   119123943.457 0                        46.000  
                  22668612.550    91276789.749          49.000  
  22794143.740                   119784508.062 0                        45.000  
                  22794140.917    91782937.969          50.000  
  24039136.538                   126327156.222 0                        42.000  
                  24039133.804    96796136.451          46.000  
 22  1 14  3 59 46.0000000  0 10G01G03G04G06G09G17G19G21G22G31
  21379685.007    21379682.899   112351317.190 0  87546549.950 0        47.000  
        47.000                                                  
  20296479.434    20296476.664   106658237.611 0  83110320.608 0        50.000  
        49.000                                                  
  20721278.502    20721273.838   108891795.330 0  84850752.411 0        48.000  
        49.000                                                  
  23849520.776    23849518.042   125329388.183 0  97660221.566 0        43.000  
        41.000                                                  
  23074740.436    23074737.559   121258694.789 0  94487295.089 0        45.000  
        45.000                                                  
  22851713.176    22851708.208   120086759.084 0  93574094.172 0        46.000  
        43.000                                                  
  22682730.043                   119199087.91210                        46.000  
                                                                
  23343442.885                   122670504.640 0                        43.000  
                                                                
  21231871.484                   111574831.074 0                        44.000  
                                                                
  22924262.999    22924257.049   120467544.990 0  93870817.632 0        43.000  
        39.000                                                  
 22  1 14  3 59 45.0000000  0  0
 22  1 14  3 59 46.0000000  0  5E04E09E11E12E19
  24091345.302                   126600409.125 0                        49.000  
                  24091343.390    97005511.809          53.000  
  26231436.557                   137847420.02810                        38.000  
                  26231436.253   105623348.257          41.000  
  22668437.237                   119122998.225 0                        46.000  
                  22668432.609    91276065.475          49.000  
  22794527.853                   119786526.916 0                        45.000  
                  22794525.101    91784484.889          50.000  
