     2.11           OBSERVATION DATA    M (Mixed)           RINEX VERSION / TYPE
RTCM3TORINEX on                         2022-01-19 22:59    PGM / RUN BY / DATE
RTCM3TORINEX                                                MARKER NAME
                                                            OBSERVER / AGENCY
                                                            REC # / TYPE / VERS
                                                            ANT # / TYPE
         .0000         .0000         .0000                  APPROX POSITION XYZ
         .0000         .0000         .0000                  ANTENNA: DELTA H/E/N
     1     1                                                WAVELENGTH FACT L1/2
     9    C1    C2    L1    L2    S1    S2    C7    L7    S7# / TYPES OF OBSERV
  2022     1    19    22    59   21.0000000     GPS         TIME OF FIRST OBS
                                                            END OF HEADER
 22  1 19 22 59 21.0000000  0  7E02E04E11E12E19E24E25
  27453869.694                   144271624.817 0                        39.000  
                  27453868.408   110545789.536          44.000  
  26404417.008                   138755559.072 0                        44.000  
                  26404414.757   106319294.655          48.000  
  22909584.955                   120390697.030 0                        46.000  
                  22909579.862    92247403.927          49.000  
  22381118.447                   117614260.537 0                        44.000  
                  22381114.212    90120028.067          49.000  
  24825057.659                   130456610.990 0                        41.000  
                  24825054.961    99960262.851          45.000  
  27545496.201                   144753065.488 0                        41.000  
                  27545494.807   110914688.989          46.000  
  26177434.297                   137563875.322 0                        44.000  
                  26177433.510   105406084.343          48.000  
 22  1 19 22 59 22.0000000  0  8G01G08G10G16G21G23G27G32
  24505025.728    24505025.513   128775524.971 0 100344564.983 0        35.000  
        37.000                                                  
  20804307.006    20804304.576   109326614.086 0  85189570.819 0        50.000  
        49.000                                                  
  20946205.883    20946202.112   110073748.088 0  85770789.396 0        50.000  
        48.000                                                  
  24097788.461                   126634365.411 0                        42.000  
                                                                
  22494260.722                   118207584.049 0                        46.000  
                                                                
  22857551.218    22857545.893   120116467.012 0  93598156.540 0        43.000  
        44.000                                                  
  20367033.842    20367029.750   107028739.772 0  83399803.160 0        50.000  
        49.000                                                  
  23056428.744    23056425.617   121162860.375 0  94412066.724 0        44.000  
        42.000                                                  
 22  1 19 22 59 21.0000000  0  0
 22  1 19 22 59 22.0000000  0  7E02E04E11E12E19E24E25
  27453649.584                   144270468.806 0                        39.000  
                  27453648.333   110544903.761          44.000  
  26403865.856                   138752662.414 0                        44.000  
                  26403863.658   106317075.144          48.000  
  22909321.333                   120389311.627 0                        46.000  
                  22909316.151    92246342.383          49.000  
  22381283.610                   117615128.952 0                        44.000  
                  22381279.482    90120693.473          49.000  
  24824958.790                   130456091.651 0                        42.000  
                  24824956.235    99959864.925          45.000  
  27546057.878                   144756016.721 0                        41.000  
                  27546056.323   110916950.324          46.000  
  26177665.146                   137565088.453 0                        44.000  
                  26177664.360   105407013.885          48.000  
 22  1 19 22 59 23.0000000  0  8G01G08G10G16G21G23G27G32
  24504417.466    24504417.234   128772328.693 0 100342074.368 0        35.000  
        37.000                                                  
  20804072.279    20804069.795   109325380.479 0  85188609.565 0        50.000  
        49.000                                                  
  20946455.459    20946451.689   110075060.148 0  85771811.778 0        50.000  
        48.000                                                  
  24098463.749                   126637914.597 0                        42.000  
                                                                
  22493891.137                   118205641.902 0                        46.000  
                                                                
  22858131.622    22858126.386   120119517.201 0  93600533.309 0        43.000  
        44.000                                                  
  20367243.356    20367239.407   107029841.194 0  83400661.417 0        50.000  
        49.000                                                  
  23055887.420    23055884.239   121160016.020 0  94409850.327 0        44.000  
        42.000                                                  
 22  1 19 22 59 22.0000000  0  0
 22  1 19 22 59 23.0000000  0  7E02E04E11E12E19E24E25
  27453429.723                   144269313.332 0                        39.000  
                  27453428.580   110544018.404          45.000  
  26403314.704                   138749766.013 0                        44.000  
                  26403312.434   106314855.818          48.000  
  22909057.765                   120387926.447 0                        46.000  
                  22909052.476    92245281.011          49.000  
  22381449.167                   117615997.639 0                        44.000  
                  22381444.735    90121359.084          49.000  
  24824860.010                   130455572.917 0                        41.000  
                  24824857.509    99959467.442          45.000  
  27546619.752                   144758968.107 0                        41.000  
                  27546617.965   110919211.784          46.000  
  26177896.246                   137566302.108 0                        44.000  
                  26177895.353   105407943.824          48.000  
 22  1 19 22 59 24.0000000  0  8G01G08G10G16G21G23G27G32
  24503809.312    24503808.936   128769132.263 0 100339583.646 0        35.000  
        37.000                                                  
  20803837.623    20803835.228   109324147.213 0  85187648.573 0        50.000  
        49.000                                                  
  20946705.268    20946701.409   110076372.498 0  85772834.388 0        50.000  
        48.000                                                  
  24099139.126                   126641463.701 0                        42.000  
                                                                
  22493521.481                   118203699.731 0                        46.000  
                                                                
  22858712.043    22858706.772   120122567.425 0  93602910.107 0        43.000  
        44.000                                                  
  20367453.103    20367449.100   107030943.009 0  83401519.970 0        50.000  
        49.000                                                  
  23055346.185    23055343.004   121157171.768 0  94407634.027 0        44.000  
        42.000                                                  
 22  1 19 22 59 23.0000000  0  0
 22  1 19 22 59 24.0000000  0  7E02E04E11E12E19E24E25
  27453209.970                   144268158.119 0                        40.000  
                  27453208.737   110543133.248          45.000  
  26402763.641                   138746869.587 0                        44.000  
                  26402761.247   106312636.473          48.000  
  22908794.233                   120386541.211 0                        46.000  
                  22908788.944    92244219.597          49.000  
  22381614.437                   117616866.303 0                        44.000  
                  22381610.077    90122024.691          49.000  
  24824761.427                   130455054.458 0                        41.000  
                  24824758.889    99959070.186          45.000  
  27547181.446                   144761919.379 0                        41.000  
                  27547179.552   110921473.139          46.000  
  26178127.329                   137567516.007 0                        44.000  
                  26178126.239   105408873.955          48.000  
 22  1 19 22 59 25.0000000  0  8G01G08G10G16G21G23G27G32
  24503201.122    24503200.764   128765936.367 0 100337093.325 0        35.000  
        37.000                                                  
  20803603.110    20803600.662   109322914.929 0  85186688.350 0        50.000  
        49.000                                                  
  20946955.149    20946951.414   110077685.795 0  85773857.737 0        50.000  
        48.000                                                  
  24099814.575                   126645013.342 0                        42.000  
                                                                
  22493151.985                   118201758.189 0                        46.000  
                                                                
  22859292.590    22859287.462   120125618.356 0  93605287.454 0        43.000  
        44.000                                                  
  20367662.921    20367659.025   107032045.851 0  83402379.327 0        50.000  
        49.000                                                  
  23054805.129    23054801.805   121154328.270 0  94405418.328 0        44.000  
        42.000                                                  
 22  1 19 22 59 24.0000000  0  0
 22  1 19 22 59 25.0000000  0  7E02E04E11E12E19E24E25
  27452990.431                   144267003.824 0                        40.000  
                  27452989.055   110542248.779          44.000  
  26402212.596                   138743973.770 0                        44.000  
                  26402210.184   106310417.615          48.000  
  22908530.647                   120385156.571 0                        46.000  
                  22908525.429    92243158.634          49.000  
  22381779.869                   117617735.613 0                        44.000  
                  22381775.401    90122690.788          49.000  
  24824662.951                   130454536.960 0                        42.000  
                  24824660.360    99958673.652          45.000  
  27547742.998                   144764871.164 0                        41.000  
                  27547741.390   110923734.903          46.000  
  26178358.536                   137568730.816 0                        44.000  
                  26178357.428   105409804.780          48.000  
 22  1 19 22 59 26.0000000  0  8G01G08G10G16G21G23G27G32
  24502592.878    24502592.521   128762740.248 0 100334602.875 0        35.000  
        37.000                                                  
  20803368.829    20803366.202   109321682.880 0  85185728.324 0        50.000  
        49.000                                                  
  20947205.118    20947201.437   110078999.287 0  85774881.237 0        51.000  
        48.000                                                  
  24100490.025                   126648562.827 0                        42.000  
                                                                
  22492782.543                   118199816.543 0                        46.000  
                                                                
  22859873.226    22859867.973   120128669.241 0  93607664.771 0        43.000  
        43.000                                                  
  20367872.846    20367868.915   107033148.992 0  83403238.911 0        50.000  
        49.000                                                  
  23054264.019    23054260.749   121151484.815 0  94403202.635 0        44.000  
        42.000                                                  
 22  1 19 22 59 25.0000000  0  0
 22  1 19 22 59 26.0000000  0  7E02E04E11E12E19E24E25
  27452770.893                   144265849.705 0                        40.000  
                  27452769.481   110541364.448          44.000  
  26401661.515                   138741077.845 0                        44.000  
                  26401659.085   106308198.646          48.000  
  22908267.186                   120383771.773 0                        46.000  
                  22908261.861    92242097.557          49.000  
  22381945.104                   117618604.829 0                        44.000  
                  22381940.851    90123356.806          49.000  
  24824564.403                   130454019.660 0                        42.000  
                  24824561.830    99958277.285          45.000  
  27548304.747                   144767822.744 0                        41.000  
                  27548303.031   110925996.501          46.000  
  26178589.618                   137569945.778 0                        44.000  
                  26178588.653   105410735.715          48.000  
 22  1 19 22 59 27.0000000  0  8G01G08G10G16G21G23G27G32
  24501984.652    24501984.313   128759544.202 0 100332112.454 0        35.000  
        37.000                                                  
  20803134.477    20803131.868   109320451.366 0  85184768.695 0        50.000  
        49.000                                                  
  20947455.178    20947451.640   110080313.257 0  85775905.112 0        51.000  
        48.000                                                  
  24101165.420                   126652112.398 0                        42.000  
                                                                
  22492413.119                   118197875.057 0                        46.000  
                                                                
  22860453.630    22860448.716   120131720.380 0  93610042.268 0        43.000  
        44.000                                                  
  20368082.950    20368078.858   107034252.703 0  83404098.952 0        50.000  
        49.000                                                  
  23053722.963    23053719.782   121148641.631 0  94400987.179 0        44.000  
        42.000                                                  
 22  1 19 22 59 26.0000000  0  0
 22  1 19 22 59 27.0000000  0  7E02E04E11E12E19E24E25
  27452551.407                   144264695.995 0                        40.000  
                  27452549.888   110540480.456          44.000  
  26401110.596                   138738182.090 0                        44.000  
                  26401108.058   106305979.814          48.000  
  22908003.850                   120382387.103 0                        46.000  
                  22907998.490    92241036.581          49.000  
  22382110.499                   117619474.215 0                        44.000  
                  22382106.354    90124022.961          49.000  
  24824466.052                   130453502.842 0                        42.000  
                  24824463.568    99957881.279          45.000  
  27548866.245                   144770774.382 0                        41.000  
                  27548864.655   110928258.146          46.000  
  26178820.986                   137571161.162 0                        44.000  
                  26178819.950   105411666.984          48.000  
 22  1 19 22 59 28.0000000  0  8G01G08G10G16G21G23G27G32
  24501376.569    24501376.033   128756348.221 0 100329622.077 0        35.000  
        37.000                                                  
  20802900.196    20802897.605   109319220.415 0  85183809.517 0        50.000  
        49.000                                                  
  20947705.380    20947701.752   110081627.728 0  85776929.370 0        51.000  
        48.000                                                  
  24101840.994                   126655662.089 0                        42.000  
                                                                
  22492043.677                   118195933.769 0                        46.000  
                                                                
  22861034.284    22861029.405   120134771.737 0  93612419.970 0        43.000  
        44.000                                                  
  20368293.107    20368289.051   107035357.021 0  83404959.450 0        50.000  
        49.000                                                  
  23053181.943    23053178.798   121145798.770 0  94398771.962 0        44.000  
        42.000                                                  
 22  1 19 22 59 27.0000000  0  0
 22  1 19 22 59 28.0000000  0  7E02E04E11E12E19E24E25
  27452332.119                   144263542.792 0                        40.000  
                  27452330.457   110539596.820          44.000  
  26400559.479                   138735286.482 0                        44.000  
                  26400557.013   106303761.112          48.000  
  22907740.354                   120381002.587 0                        46.000  
                  22907734.975    92239975.711          49.000  
  22382275.984                   117620343.801 0                        44.000  
                  22382271.821    90124689.267          49.000  
  24824367.969                   130452986.523 0                        42.000  
                  24824365.253    99957485.663          45.000  
  27549428.065                   144773726.106 0                        41.000  
                  27549426.332   110930519.854          46.000  
  26179052.426                   137572377.003 0                        44.000  
                  26179051.318   105412598.607          48.000  
 22  1 19 22 59 29.0000000  0  8G01G08G10G16G21G23G27G32
  24500768.343    24500767.736   128753152.328 0 100327131.785 0        35.000  
        36.000                                                  
  20802666.112    20802663.521   109317990.018 0  85182850.762 0        50.000  
        49.000                                                  
  20947955.778    20947951.901   110082942.722 0  85777954.048 0        51.000  
        48.000                                                  
  24102516.550                   126659211.929 0                        42.000  
                                                                
  22491674.253                   118193992.685 0                        46.000  
                                                                
  22861615.009    22861610.095   120137823.414 0  93614797.888 0        43.000  
        44.000                                                  
  20368503.301    20368499.280   107036461.946 0  83405820.443 0        50.000  
        49.000                                                  
  23052640.940    23052637.867   121142956.264 0  94396557.022 0        44.000  
        42.000                                                  
 22  1 19 22 59 28.0000000  0  0
 22  1 19 22 59 29.0000000  0  7E02E04E11E12E19E24E25
  27452112.830                   144262390.073 0                        40.000  
                  27452111.061   110538713.577          44.000  
  26400008.524                   138732391.100 0                        44.000  
                  26400006.058   106301542.575          48.000  
  22907476.929                   120379618.249 0                        46.000  
                  22907471.425    92238914.989          49.000  
  22382441.576                   117621213.610 0                        44.000  
                  22382437.359    90125355.742          49.000  
  24824269.796                   130452470.735 0                        41.000  
                  24824267.152    99957090.453          45.000  
  27549989.796                   144776677.938 0                        41.000  
                  27549988.062   110932781.645          46.000  
  26179283.865                   137573593.338 0                        44.000  
                  26179282.704   105413530.604          48.000  
 22  1 19 22 59 30.0000000  0  8G01G08G10G16G21G23G27G32
  24500160.189    24500159.528   128749956.344 0 100324641.362 0        35.000  
        36.000                                                  
  20802432.063    20802429.508   109316759.941 0  85181892.258 0        49.000  
        49.000                                                  
  20948206.052    20948202.228   110084258.015 0  85778978.952 0        51.000  
        48.000                                                  
  24103191.982                   126662761.670 0                        42.000  
                                                                
  22491304.829                   118192051.579 0                        46.000  
                                                                
  22862195.806    22862190.767   120140875.105 0  93617175.829 0        43.000  
        44.000                                                  
  20368713.601    20368709.545   107037567.265 0  83406681.723 0        50.000  
        49.000                                                  
  23052099.937    23052096.971   121140113.869 0  94394342.169 0        44.000  
        42.000                                                  
 22  1 19 22 59 29.0000000  0  0
 22  1 19 22 59 30.0000000  0  7E02E04E11E12E19E24E25
  27451893.506                   144261237.615 0                        39.000  
                  27451891.737   110537830.516          44.000  
  26399457.514                   138729495.689 0                        44.000  
                  26399455.138   106299324.017          48.000  
  22907213.575                   120378233.870 0                        46.000  
                  22907208.053    92237854.227          49.000  
  22382607.097                   117622083.406 0                        44.000  
                  22382602.862    90126022.216          49.000  
  24824171.678                   130451955.264 0                        42.000  
                  24824169.051    99956695.472          45.000  
  27550551.508                   144779629.650 0                        41.000  
                  27550549.722   110935043.351          46.000  
  26179515.377                   137574809.916 0                        44.000  
                  26179514.287   105414462.783          48.000  
 22  1 19 22 59 31.0000000  0  8G01G08G10G16G21G23G27G32
  24499551.928    24499551.374   128746760.597 0 100322151.211 0        35.000  
        36.000                                                  
  20802198.104    20802195.531   109315530.592 0  85180934.326 0        50.000  
        49.000                                                  
  20948456.397    20948452.626   110085573.983 0  85780004.374 0        51.000  
        48.000                                                  
  24103867.502                   126666311.721 0                        42.000  
                                                                
  22490935.512                   118190110.844 0                        46.000  
                                                                
  22862776.674    22862771.546   120143927.240 0  93619554.121 0        43.000  
        44.000                                                  
  20368924.170    20368920.078   107038673.358 0  83407543.609 0        50.000  
        49.000                                                  
  23051559.185    23051556.040   121137271.961 0  94392127.714 0        44.000  
        42.000                                                  
 22  1 19 22 59 30.0000000  0  0
 22  1 19 22 59 31.0000000  0  7E02E04E11E12E19E24E25
  27451674.288                   144260085.806 0                        40.000  
                  27451672.555   110536947.972          44.000  
  26398906.487                   138726600.644 0                        44.000  
                  26398904.111   106297105.734          48.000  
  22906950.293                   120376849.814 0                        46.000  
                  22906944.628    92236793.716          49.000  
  22382772.815                   117622953.585 0                        44.000  
                  22382768.454    90126688.974          49.000  
  24824073.612                   130451440.456 0                        42.000  
                  24824071.039    99956300.996          45.000  
  27551113.293                   144782581.611 0                        41.000  
                  27551111.542   110937305.243          46.000  
  26179747.013                   137576027.129 0                        44.000  
                  26179745.851   105415395.452          48.000  
 22  1 19 22 59 32.0000000  0  8G01G08G10G16G21G23G27G32
  24498943.666    24498943.166   128743564.734 0 100319660.918 0        35.000  
        36.000                                                  
  20801964.181    20801961.661   109314301.563 0  85179976.643 0        50.000  
        49.000                                                  
  20948706.831    20948703.043   110086890.236 0  85781030.028 0        51.000  
        48.000                                                  
  24104543.130                   126669861.667 0                        42.000  
                                                                
  22490566.212                   118188170.087 0                        46.000  
                                                                
  22863357.453    22863352.361   120146979.439 0  93621932.457 0        43.000  
        44.000                                                  
  20369134.685    20369130.629   107039779.830 0  83408405.800 0        50.000  
        49.000                                                  
  23051018.308    23051015.198   121134430.183 0  94389913.332 0        44.000  
        42.000                                                  
 22  1 19 22 59 31.0000000  0  0
 22  1 19 22 59 32.0000000  0  7E02E04E11E12E19E24E25
  27451455.357                   144258934.252 0                        40.000  
                  27451453.535   110536065.615          44.000  
  26398355.532                   138723705.570 0                        44.000  
                  26398353.298   106294887.433          48.000  
  22906686.832                   120375465.687 0                        46.000  
                  22906681.221    92235733.158          49.000  
  22382938.353                   117623823.754 0                        44.000  
                  22382934.047    90127355.723          49.000  
  24823975.726                   130450925.942 0                        42.000  
                  24823973.171    99955906.778          45.000  
  27551674.970                   144785533.469 0                        41.000  
                  27551673.254   110939567.055          46.000  
  26179978.559                   137577244.584 0                        44.000  
                  26179977.595   105416328.305          48.000  
 22  1 19 22 59 33.0000000  0  8G01G08G10G16G21G23G27G32
  24498335.601    24498335.047   128740369.313 0 100317170.973 0        35.000  
        36.000                                                  
  20801730.543    20801727.917   109313073.435 0  85179019.662 0        49.000  
        49.000                                                  
  20948957.516    20948953.727   110088207.351 0  85782056.340 0        51.000  
        48.000                                                  
  24105218.686                   126673412.080 0                        42.000  
                                                                
  22490197.128                   118186229.868 0                        46.000  
                                                                
  22863938.375    22863933.157   120150032.233 0  93624311.256 0        43.000  
        44.000                                                  
  20369345.486    20369341.394   107040887.241 0  83409268.715 0        50.000  
        49.000                                                  
  23050477.680    23050474.696   121131589.064 0  94387699.464 0        44.000  
        42.000                                                  
 22  1 19 22 59 32.0000000  0  0
 22  1 19 22 59 33.0000000  0  7E02E04E11E12E19E24E25
  27451236.390                   144257783.529 0                        40.000  
                  27451234.460   110535183.878          44.000  
  26397804.666                   138720811.030 0                        44.000  
                  26397802.414   106292669.525          48.000  
  22906423.425                   120374082.068 0                        46.000  
                  22906418.010    92234672.981          49.000  
  22383104.053                   117624694.470 0                        44.000  
                  22383099.746    90128022.894          49.000  
  24823877.964                   130450412.278 0                        42.000  
                  24823875.373    99955513.191          45.000  
  27552236.665                   144788485.753 0                        41.000  
                  27552235.056   110941829.181          46.000  
  26180210.446                   137578462.850 0                        44.000  
                  26180209.427   105417261.777          48.000  
 22  1 19 22 59 34.0000000  0  8G01G08G10G16G21G23G27G32
  24497727.465    24497727.018   128737173.854 0 100314681.017 0        35.000  
        36.000                                                  
  20801496.942    20801494.404   109311845.752 0  85178063.027 0        50.000  
        49.000                                                  
  20949208.236    20949204.537   110089524.854 0  85783082.980 0        51.000  
        48.000                                                  
  24105894.368                   126676962.498 0                        42.000  
                                                                
  22489827.829                   118184289.731 0                        46.000  
                                                                
  22864519.404    22864514.133   120153085.181 0  93626690.179 0        43.000  
        44.000                                                  
  20369556.269    20369552.159   107041995.157 0  83410132.029 0        50.000  
        49.000                                                  
  23049937.035    23049934.015   121128748.166 0  94385485.796 0        44.000  
        42.000                                                  
 22  1 19 22 59 33.0000000  0  0
 22  1 19 22 59 34.0000000  0  7E02E04E11E12E19E24E25
  27451017.370                   144256633.158 0                        40.000  
                  27451015.654   110534302.438          44.000  
  26397253.799                   138717916.552 0                        44.000  
                  26397251.816   106290451.699          48.000  
  22906160.017                   120372698.494 0                        46.000  
                  22906154.675    92233612.848          49.000  
  22383269.663                   117625565.288 0                        44.000  
                  22383265.446    90128690.140          49.000  
  24823780.257                   130449899.035 0                        42.000  
                  24823777.844    99955119.927          45.000  
  27552798.770                   144791438.008 0                        41.000  
                  27552796.823   110944091.312          46.000  
  26180442.278                   137579681.468 0                        44.000  
                  26180441.278   105418195.532          48.000  
 22  1 19 22 59 35.0000000  0  8G01G08G10G16G21G23G27G32
  24497119.292    24497118.846   128733978.120 0 100312190.839 0        35.000  
        36.000                                                  
  20801263.411    20801260.803   109310618.267 0  85177106.540 0        50.000  
        49.000                                                  
  20949458.903    20949455.239   110090842.506 0  85784109.729 0        51.000  
        48.000                                                  
  24106570.031                   126680512.697 0                        42.000  
                                                                
  22489458.494                   118182349.445 0                        46.000  
                                                                
  22865100.380    22865095.091   120156138.028 0  93629069.023 0        43.000  
        44.000                                                  
  20369767.177    20369763.103   107043103.313 0  83410995.522 0        50.000  
        49.000                                                  
  23049396.372    23049393.352   121125907.239 0  94383272.077 0        44.000  
        42.000                                                  
 22  1 19 22 59 34.0000000  0  0
 22  1 19 22 59 35.0000000  0  7E02E04E11E12E19E24E25
  27450798.492                   144255482.924 0                        40.000  
                  27450796.776   110533421.084          44.000  
  26396703.094                   138715021.936 0                        44.000  
                  26396700.932   106288233.728          48.000  
  22905896.807                   120371314.713 0                        46.000  
                  22905891.392    92232552.547          49.000  
  22383435.398                   117626435.956 0                        44.000  
                  22383431.145    90129357.267          49.000  
  24823682.710                   130449385.935 0                        41.000  
                  24823680.137    99954726.772          45.000  
  27553360.537                   144794389.998 0                        41.000  
                  27553358.678   110946353.231          46.000  
  26180674.308                   137580900.200 0                        44.000  
                  26180673.271   105419129.361          48.000  
 22  1 19 22 59 36.0000000  0  8G01G08G10G16G21G23G27G32
  24496511.192    24496510.745   128730782.429 0 100309700.649 0        35.000  
        36.000                                                  
  20801029.935    20801027.308   109309391.265 0  85176150.437 0        49.000  
        49.000                                                  
  20949709.748    20949706.210   110092160.587 0  85785136.796 0        51.000  
        48.000                                                  
  24107245.534                   126684062.933 0                        42.000  
                                                                
  22489089.284                   118180409.270 0                        46.000  
                                                                
  22865681.373    22865675.995   120159191.058 0  93631448.014 0        43.000  
        44.000                                                  
  20369978.174    20369974.046   107044211.983 0  83411859.419 0        50.000  
        49.000                                                  
  23048855.709    23048852.868   121123066.558 0  94381058.554 0        44.000  
        42.000                                                  
 22  1 19 22 59 35.0000000  0  0
 22  1 19 22 59 36.0000000  0  7E02E04E11E12E19E24E25
  27450579.543                   144254333.081 0                        40.000  
                  27450578.024   110532540.028          44.000  
  26396152.299                   138712127.408 0                        44.000  
                  26396150.048   106286015.849          48.000  
  22905633.399                   120369931.024 0                        46.000  
                  22905628.146    92231492.308          49.000  
  22383601.062                   117627306.728 0                        44.000  
                  22383596.845    90130024.492          49.000  
  24823585.091                   130448873.272 0                        41.000  
                  24823582.536    99954333.957          45.000  
  27553922.482                   144797342.010 0                        41.000  
                  27553920.391   110948615.155          46.000  
  26180906.319                   137582119.305 0                        44.000  
                  26180905.247   105420063.476          48.000  
 22  1 19 22 59 37.0000000  0  8G01G08G10G16G21G23G27G32
  24495903.109    24495902.662   128727587.014 0 100307210.731 0        35.000  
        36.000                                                  
  20800796.565    20800794.010   109308165.062 0  85175194.954 0        49.000  
        49.000                                                  
  20949960.772    20949957.234   110093479.422 0  85786164.455 0        51.000  
        48.000                                                  
  24107921.215                   126687613.546 0                        42.000  
                                                                
  22488720.182                   118178469.526 0                        46.000  
                                                                
  22866262.474    22866256.952   120162244.613 0  93633827.384 0        43.000  
        43.000                                                  
  20370189.315    20370185.187   107045321.512 0  83412723.996 0        51.000  
        49.000                                                  
  23048315.261    23048312.330   121120226.452 0  94378845.492 0        44.000  
        42.000                                                  
 22  1 19 22 59 36.0000000  0  0
 22  1 19 22 59 37.0000000  0  7E02E04E11E12E19E24E25
  27450360.897                   144253183.954 0                        40.000  
                  27450359.182   110531659.528          45.000  
  26395601.504                   138709233.320 0                        44.000  
                  26395599.324   106283798.297          48.000  
  22905370.099                   120368547.746 0                        46.000  
                  22905364.935    92230432.394          49.000  
  22383766.975                   117628177.965 0                        44.000  
                  22383762.687    90130692.066          49.000  
  24823487.651                   130448361.357 0                        41.000  
                  24823485.150    99953941.711          45.000  
  27554484.123                   144800294.332 0                        41.000  
                  27554482.140   110950877.328          46.000  
  26181138.402                   137583339.117 0                        44.000  
                  26181137.491   105420998.140          48.000  
 22  1 19 22 59 38.0000000  0  8G01G08G10G16G21G23G27G32
  24495295.026    24495294.651   128724391.784 0 100304720.955 0        35.000  
        36.000                                                  
  20800563.410    20800560.819   109306939.440 0  85174239.922 0        49.000  
        49.000                                                  
  20950211.850    20950208.312   110094798.815 0  85787192.555 0        51.000  
        48.000                                                  
  24108596.896                   126691164.343 0                        42.000  
                                                                
  22488351.043                   118176530.043 0                        46.000  
                                                                
  22866843.682    22866838.053   120165298.458 0  93636207.009 0        43.000  
        43.000                                                  
  20370400.562    20370396.542   107046431.691 0  83413589.070 0        50.000  
        49.000                                                  
  23047774.830    23047771.989   121117386.713 0  94376632.717 0        44.000  
        42.000                                                  
 22  1 19 22 59 37.0000000  0  0
 22  1 19 22 59 38.0000000  0  7E02E04E11E12E19E24E25
  27450142.449                   144252035.343 0                        40.000  
                  27450140.715   110530779.429          45.000  
  26395050.924                   138706339.466 0                        44.000  
                  26395048.655   106281580.933          48.000  
  22905107.067                   120367164.667 0                        46.000  
                  22905101.635    92229372.636          49.000  
  22383932.979                   117629049.452 0                        44.000  
                  22383928.458    90131359.827          49.000  
  24823390.247                   130447850.006 0                        41.000  
                  24823387.835    99953549.901          45.000  
  27555046.014                   144803246.833 0                        41.000  
                  27555043.852   110953139.621          46.000  
  26181370.574                   137584559.445 0                        44.000  
                  26181369.645   105421933.199          48.000  
 22  1 19 22 59 39.0000000  0  8G01G08G10G16G21G23G27G32
  24494686.961    24494686.586   128721196.472 0 100302231.097 0        35.000  
        36.000                                                  
  20800330.237    20800327.646   109305714.225 0  85173285.207 0        49.000  
        49.000                                                  
  20950462.999    20950459.461   110096118.554 0  85788220.923 0        51.000  
        48.000                                                  
  24109272.578                   126694715.113 0                        42.000  
                                                                
  22487982.012                   118174590.607 0                        46.000  
                                                                
  22867424.711    22867419.297   120168352.438 0  93638586.724 0        43.000  
        43.000                                                  
  20370611.863    20370607.879   107047542.329 0  83414454.498 0        50.000  
        49.000                                                  
  23047234.453    23047231.576   121114547.179 0  94374420.082 0        44.000  
        42.000                                                  
 22  1 19 22 59 38.0000000  0  0
 22  1 19 22 59 39.0000000  0  7E02E04E11E12E19E24E25
  27449923.964                   144250887.085 0                        40.000  
                  27449922.320   110529899.588          45.000  
  26394500.183                   138703445.666 0                        44.000  
                  26394498.003   106279363.606          48.000  
  22904843.910                   120365781.611 0                        46.000  
                  22904838.407    92228312.886          49.000  
  22384098.589                   117629921.004 0                        44.000  
                  22384094.300    90132027.639          49.000  
  24823292.933                   130447339.025 0                        41.000  
                  24823290.520    99953158.367          45.000  
  27555607.888                   144806199.258 0                        41.000  
                  27555605.833   110955401.866          46.000  
  26181602.854                   137585780.094 0                        44.000  
                  26181601.889   105422868.498          48.000  
 22  1 19 22 59 40.0000000  0  8G01G08G10G16G21G23G27G32
  24494078.807    24494078.521   128718001.043 0 100299741.125 0        35.000  
        36.000                                                  
  20800097.154    20800094.581   109304489.322 0  85172330.746 0        49.000  
        49.000                                                  
  20950714.148    20950710.663   110097438.565 0  85789249.508 0        51.000  
        48.000                                                  
  24109948.223                   126698265.755 0                        42.000  
                                                                
  22487612.963                   118172651.107 0                        46.000  
                                                                
  22868005.847    22868000.451   120171406.404 0  93640966.461 0        43.000  
        43.000                                                  
  20370823.236    20370819.251   107048653.306 0  83415320.199 0        50.000  
        49.000                                                  
  23046694.093    23046691.270   121111707.707 0  94372207.509 0        43.000  
        42.000                                                  
 22  1 19 22 59 39.0000000  0  0
 22  1 19 22 59 40.0000000  0  7E02E04E11E12E19E24E25
  27449705.533                   144249739.029 0                        40.000  
                  27449703.818   110529019.910          45.000  
  26393949.495                   138700551.783 0                        44.000  
                  26393947.422   106277146.224          48.000  
  22904580.610                   120364398.450 0                        46.000  
                  22904575.214    92227253.063          49.000  
  22384264.574                   117630792.503 0                        44.000  
                  22384260.196    90132695.411          49.000  
  24823195.725                   130446828.296 0                        41.000  
                  24823193.456    99952767.027          45.000  
  27556169.637                   144809151.501 0                        41.000  
                  27556167.546   110957663.990          46.000  
  26181835.097                   137587000.947 0                        44.000  
                  26181834.150   105423803.956          48.000  
 22  1 19 22 59 41.0000000  0  8G01G08G10G16G21G23G27G32
  24493470.849    24493470.456   128714805.904 0 100297251.445 0        35.000  
        36.000                                                  
  20799864.249    20799861.622   109303265.264 0  85171376.930 0        49.000  
        49.000                                                  
  20950965.529    20950961.920   110098759.352 0  85790278.692 0        51.000  
        48.000                                                  
  24110624.012                   126701816.792 0                        42.000  
                                                                
  22487244.004                   118170712.082 0                        46.000  
                                                                
  22868587.073    22868581.766   120174460.933 0  93643346.599 0        43.000  
        43.000                                                  
  20371034.912    20371030.910   107049765.171 0  83416186.583 0        51.000  
        49.000                                                  
  23046153.859    23046151.107   121108868.848 0  94369995.416 0        44.000  
        42.000                                                  
 22  1 19 22 59 40.0000000  0  0
 22  1 19 22 59 41.0000000  0  7E02E04E11E12E19E24E25
  27449487.102                   144248591.751 0                        40.000  
                  27449485.458   110528140.823          45.000  
  26393399.004                   138697658.388 0                        44.000  
                  26393396.717   106274929.200          48.000  
  22904317.382                   120363015.735 0                        46.000  
                  22904312.110    92226193.580          49.000  
  22384430.524                   117631664.498 0                        44.000  
                  22384426.039    90133363.558          49.000  
  24823098.679                   130446318.371 0                        41.000  
                  24823096.409    99952376.301          45.000  
  27556731.528                   144812104.146 0                        41.000  
                  27556729.437   110959926.400          46.000  
  26182067.681                   137588222.552 0                        44.000  
                  26182066.555   105424739.984          48.000  
 22  1 19 22 59 42.0000000  0  8G01G08G10G16G21G23G27G32
  24492862.963    24492862.355   128711611.008 0 100294761.891 0        35.000  
        36.000                                                  
  20799631.344    20799628.807   109302041.854 0  85170423.621 0        49.000  
        49.000                                                  
  20951217.036    20951213.498   110100080.740 0  85791308.343 0        51.000  
        48.000                                                  
  24111299.765                   126705368.047 0                        42.000  
                                                                
  22486875.044                   118168773.348 0                        46.000  
                                                                
  22869168.513    22869163.099   120177515.799 0  93645727.022 0        43.000  
        43.000                                                  
  20371246.571    20371242.693   107050877.726 0  83417053.511 0        51.000  
        49.000                                                  
  23045613.732    23045610.998   121106030.418 0  94367783.647 0        44.000  
        42.000                                                  
 22  1 19 22 59 41.0000000  0  0
 22  1 19 22 59 42.0000000  0  7E02E04E11E12E19E24E25
  27449268.939                   144247445.021 0                        40.000  
                  27449267.260   110527262.169          45.000  
  26392848.478                   138694765.271 0                        44.000  
                  26392846.244   106272712.387          48.000  
  22904054.367                   120361633.252 0                        46.000  
                  22904049.025    92225134.273          49.000  
  22384596.527                   117632536.777 0                        44.000  
                  22384592.149    90134031.928          49.000  
  24823001.793                   130445809.036 0                        41.000  
                  24822999.470    99951986.038          45.000  
  27557293.473                   144815056.958 0                        41.000  
                  27557291.382   110962188.935          46.000  
  26182300.157                   137589444.712 0                        44.000  
                  26182299.156   105425676.437          48.000  
 22  1 19 22 59 43.0000000  0  8G01G08G10G16G21G23G27G32
  24492255.058    24492254.451   128708415.978 0 100292272.264 0        35.000  
        36.000                                                  
  20799398.511    20799396.009   109300818.788 0  85169470.582 0        49.000  
        49.000                                                  
  20951468.578    20951464.879   110101402.418 0  85792338.225 0        51.000  
        48.000                                                  
  24111975.518                   126708919.220 0                        42.000  
                                                                
  22486506.138                   118166834.605 0                        46.000  
                                                                
  22869749.882    22869744.342   120180570.707 0  93648107.474 0        43.000  
        43.000                                                  
  20371458.194    20371454.459   107051990.666 0  83417920.737 0        51.000  
        49.000                                                  
  23045073.552    23045070.907   121103192.075 0  94365571.956 0        44.000  
        42.000                                                  
 22  1 19 22 59 42.0000000  0  0
 22  1 19 22 59 43.0000000  0  7E02E04E11E12E19E24E25
  27449050.616                   144246298.550 0                        40.000  
                  27449049.150   110526383.722          45.000  
  26392297.969                   138691872.119 0                        44.000  
                  26392295.646   106270495.563          48.000  
  22903791.371                   120360250.710 0                        46.000  
                  22903785.921    92224074.938          49.000  
  22384762.512                   117633409.045 0                        44.000  
                  22384758.063    90134700.292          49.000  
  24822904.835                   130445300.000 0                        41.000  
                  24822902.602    99951596.002          45.000  
  27557855.329                   144818009.635 0                        41.000  
                  27557853.167   110964451.378          46.000  
  26182532.775                   137590667.109 0                        44.000  
                  26182531.900   105426613.088          48.000  
 22  1 19 22 59 44.0000000  0  8G01G08G10G16G21G23G27G32
  24491647.065    24491646.297   128705220.733 0 100289782.451 0        35.000  
        36.000                                                  
  20799165.838    20799163.229   109299596.027 0  85168517.786 0        49.000  
        49.000                                                  
  20951720.192    20951716.421   110102724.352 0  85793368.296 0        51.000  
        48.000                                                  
  24112651.253                   126712470.258 0                        42.000  
                                                                
  22486137.214                   118164895.780 0                        46.000  
                                                                
  22870331.179    22870325.657   120183625.649 0  93650487.946 0        43.000  
        43.000                                                  
  20371670.085    20371666.297   107053103.960 0  83418788.234 0        50.000  
        49.000                                                  
  23044533.389    23044530.744   121100353.830 0  94363360.337 0        43.000  
        42.000                                                  
 22  1 19 22 59 43.0000000  0  0
 22  1 19 22 59 44.0000000  0  7E02E04E11E12E19E24E25
  27448832.399                   144245152.319 0                        40.000  
                  27448830.934   110525505.423          45.000  
  26391747.442                   138688978.906 0                        44.000  
                  26391745.030   106268278.688          48.000  
  22903528.250                   120358868.083 0                        46.000  
                  22903522.853    92223015.509          49.000  
  22384928.551                   117634281.272 0                        44.000  
                  22384924.030    90135368.619          49.000  
  24822808.039                   130444791.228 0                        41.000  
                  24822805.787    99951206.153          45.000  
  27558417.220                   144820962.160 0                        41.000  
                  27558414.915   110966713.702          46.000  
  26182765.377                   137591889.712 0                        44.000  
                  26182764.501   105427549.890          48.000  
 22  1 19 22 59 45.0000000  0  8G01G08G10G16G21G23G27G32
  24491039.054    24491038.178   128702025.465 0 100287292.655 0        35.000  
        36.000                                                  
  20798933.005    20798930.611   109298373.653 0  85167565.285 0        49.000  
        49.000                                                  
  20951971.823    20951968.071   110104046.609 0  85794398.630 0        51.000  
        48.000                                                  
  24113327.041                   126716021.251 0                        42.000  
                                                                
  22485768.201                   118162956.998 0                        46.000  
                                                                
  22870912.565    22870907.115   120186680.657 0  93652868.467 0        43.000  
        43.000                                                  
  20371882.065    20371878.098   107054217.674 0  83419656.059 0        50.000  
        49.000                                                  
  23043993.334    23043990.653   121097515.737 0  94361148.826 0        43.000  
        42.000                                                  
 22  1 19 22 59 44.0000000  0  0
 22  1 19 22 59 45.0000000  0  7E02E04E11E12E19E24E25
  27448614.397                   144244006.367 0                        40.000  
                  27448612.842   110524627.374          45.000  
  26391196.826                   138686085.713 0                        44.000  
                  26391194.574   106266061.814          48.000  
  22903265.057                   120357485.441 0                        46.000  
                  22903259.786    92221956.083          49.000  
  22385094.429                   117635153.522 0                        44.000  
                  22385090.016    90136036.975          49.000  
  24822711.153                   130444282.779 0                        41.000  
                  24822709.027    99950816.580          45.000  
  27558979.165                   144823914.602 0                        41.000  
                  27558976.789   110968975.959          46.000  
  26182998.210                   137593112.614 0                        44.000  
                  26182997.174   105428486.912          48.000  
 22  1 19 22 59 46.0000000  0  8G01G08G10G16G21G23G27G32
  24490431.078    24490430.185   128698830.558 0 100284803.083 0        35.000  
        36.000                                                  
  20798700.600    20798698.277   109297152.133 0  85166613.467 0        49.000  
        49.000                                                  
  20952223.562    20952219.863   110105369.675 0  85795429.589 0        51.000  
        48.000                                                  
  24114002.883                   126719572.662 0                        42.000  
                                                                
  22485399.420                   118161018.696 0                        46.000  
                                                                
  22871494.113    22871488.609   120189736.242 0  93655249.440 0        43.000  
        43.000                                                  
  20372094.099    20372090.257   107055332.289 0  83420524.590 0        50.000  
        49.000                                                  
  23043453.367    23043450.759   121094678.263 0  94358937.817 0        43.000  
        42.000                                                  
 22  1 19 22 59 45.0000000  0  0
 22  1 19 22 59 46.0000000  0  7E02E04E11E12E19E24E25
  27448396.591                   144242861.231 0                        40.000  
                  27448395.001   110523749.916          45.000  
  26390646.371                   138683192.998 0                        44.000  
                  26390644.191   106263845.328          48.000  
  22903002.132                   120356103.266 0                        46.000  
                  22902996.754    92220897.016          49.000  
  22385260.415                   117636026.300 0                        44.000  
                  22385256.126    90136705.712          49.000  
