     2.11           OBSERVATION DATA    M (Mixed)           RINEX VERSION / TYPE
RTCM3TORINEX on                         2022-01-14 10:59    PGM / RUN BY / DATE
RTCM3TORINEX                                                MARKER NAME
                                                            OBSERVER / AGENCY
                                                            REC # / TYPE / VERS
                                                            ANT # / TYPE
         .0000         .0000         .0000                  APPROX POSITION XYZ
         .0000         .0000         .0000                  ANTENNA: DELTA H/E/N
     1     1                                                WAVELENGTH FACT L1/2
     9    C1    C2    L1    L2    S1    S2    C7    L7    S7# / TYPES OF OBSERV
  2022     1    14    10    59   21.0010000     GPS         TIME OF FIRST OBS
                                                            END OF HEADER
 22  1 14 10 59 21.0010000  0  5E03E05E09E24E25
  25884922.858                   136026221.662 0                        45.000  
                  25884923.037   104227896.852          48.000  
  23387659.496                   122902999.143 0                        49.000  
                  23387659.729    94172433.275          54.000  
  23717528.290                   124636451.084 0                        44.000  
                  23717529.505    95500657.209          50.000  
  23639767.609                   124227864.082 0                        49.000  
                  23639766.179    95187597.394          53.000  
  25717983.030                   135148952.346 0                        45.000  
                  25717985.210   103555711.521          50.000  
 22  1 14 10 59 22.0010000  0 11G05G07G13G14G15G17G19G20G23G24G30
  22815116.005    22815112.324   119894222.047 0  93423714.008 0        46.000  
        44.000                                                  
  24294180.155    24294177.707   127666746.505 0  99480548.605 0        38.000  
        37.000                                                  
  20115052.242                   105705924.129 0                        49.000  
                                                                
  20585576.406    20585571.778   108178027.673 0  84294547.468 0        48.000  
        50.000                                                  
  21273141.279    21273137.741   111791151.783 0  87109975.721 0        48.000  
        46.000                                                  
  23277607.043    23277603.148   122324355.159 0  95318105.626 0        43.000  
        40.000                                                  
  24922327.025                   130966926.125 0                        28.000  
                                                                
  24180630.395                   127070005.551 0                        41.000  
                                                                
  24700344.745    24700340.170   129800612.064 0 101143334.940 0        42.000  
        41.000                                                  
  24272617.248    24272618.231   127553473.57910  99392324.813 0        38.000  
        38.000                                                  
  22259653.495    22259651.565   116975269.231 0  91149551.115 0        45.000  
        45.000                                                  
 22  1 14 10 59 21.0000000  0  0
 22  1 14 10 59 22.0010000  0  5E03E05E09E24E25
  25884481.975                   136023903.735 0                        45.000  
                  25884482.029   104226120.788          48.000  
  23387685.996                   122903138.028 0                        49.000  
                  23387686.211    94172539.689          54.000  
  23718001.426                   124638937.923 0                        44.000  
                  23718002.605    95502562.703          50.000  
  23639775.364                   124227904.375 0                        49.000  
                  23639773.899    95187628.268          53.000  
  25717517.827                   135146507.651 0                        45.000  
                  25717519.882   103553838.324          50.000  
 22  1 14 10 59 23.0010000  0 11G05G07G13G14G15G17G19G20G23G24G30
  22815656.400    22815652.773   119897062.212 0  93425927.121 0        46.000  
        44.000                                                  
  24294701.127    24294698.750   127669484.251 0  99482681.905 0        38.000  
        37.000                                                  
  20114953.319                   105705404.191 0                        49.000  
                                                                
  20585728.865    20585724.219   108178828.696 0  84295171.641 0        48.000  
        50.000                                                  
  21272742.300    21272738.655   111789054.953 0  87108341.825 0        48.000  
        46.000                                                  
  23277094.488    23277090.575   122321661.711 0  95316006.849 0        43.000  
        40.000                                                  
  24921652.058                   130963388.512 0                        27.000  
                                                                
  24181291.352                   127073479.093 0                        41.000  
                                                                
  24699889.549    24699885.136   129798220.793 0 101141471.596 0        42.000  
        41.000                                                  
  24272003.679    24272004.626   127550249.38110  99389812.480 0        38.000  
        38.000                                                  
  22260093.198    22260091.215   116977579.334 0  91151351.184 0        45.000  
        44.000                                                  
 22  1 14 10 59 22.0000000  0  0
 22  1 14 10 59 23.0010000  0  5E03E05E09E24E25
  25884040.771                   136021585.612 0                        45.000  
                  25884040.968   104224344.557          48.000  
  23387712.371                   122903276.924 0                        49.000  
                  23387712.639    94172646.116          54.000  
  23718474.598                   124641424.619 0                        44.000  
                  23718475.938    95504468.084          50.000  
  23639783.030                   124227944.638 0                        49.000  
                  23639781.529    95187659.119          53.000  
  25717052.643                   135144062.810 0                        45.000  
                  25717054.698   103551965.004          50.000  
 22  1 14 10 59 24.0010000  0 11G05G07G13G14G15G17G19G20G23G24G30
  22816197.027    22816193.454   119899903.187 0  93428140.881 0        46.000  
        44.000                                                  
  24295222.223    24295219.829   127672222.517 0  99484815.612 0        38.000  
        37.000                                                  
  20114854.557                   105704885.231 0                        49.000  
                                                                
  20585881.520    20585876.677   108179630.762 0  84295796.628 0        48.000  
        50.000                                                  
  21272343.463    21272339.782   111786959.073 0  87106708.683 0        48.000  
        46.000                                                  
  23276582.094    23276578.198   122318969.035 0  95313908.671 0        43.000  
        40.000                                                  
  24920977.217                   130959851.155 0                        27.000  
                                                                
  24181952.488                   127076953.101 0                        41.000  
                                                                
  24699434.693    24699430.244   129795830.453 0 101139609.001 0        42.000  
        41.000                                                  
  24271390.218    24271391.147   127547025.78910  99387300.577 0        37.000  
        38.000                                                  
  22260532.937    22260530.954   116979890.095 0  91153151.779 0        45.000  
        44.000                                                  
 22  1 14 10 59 23.0000000  0  0
 22  1 14 10 59 24.0010000  0  5E03E05E09E24E25
  25883599.817                   136019268.149 0                        45.000  
                  25883599.943   104222568.843          48.000  
  23387738.799                   122903416.680 0                        49.000  
                  23387739.174    94172753.204          54.000  
  23718947.823                   124643912.001 0                        44.000  
                  23718949.288    95506374.009          50.000  
  23639790.946                   124227985.741 0                        49.000  
                  23639789.266    95187690.625          53.000  
  25716587.262                   135141618.655 0                        45.000  
                  25716589.621   103550092.217          50.000  
 22  1 14 10 59 25.0010000  0 11G05G07G13G14G15G17G19G20G23G24G30
  22816737.762    22816734.206   119902744.695 0  93430355.032 0        46.000  
        44.000                                                  
  24295743.355    24295740.925   127674961.032 0  99486949.515 0        38.000  
        37.000                                                  
  20114755.938                   105704366.973 0                        49.000  
                                                                
  20586034.425    20586029.404   108180433.572 0  84296422.201 0        48.000  
        50.000                                                  
  21271944.698    21271941.106   111784863.850 0  87105076.038 0        48.000  
        46.000                                                  
  23276069.789    23276065.911   122316276.802 0  95311810.815 0        43.000  
        40.000                                                  
  24920301.107                   130956314.077 0                        27.000  
                                                                
  24182613.552                   127080427.327 0                        41.000  
                                                                
  24698979.963    24698975.567   129793440.762 0 101137746.899 0        42.000  
        41.000                                                  
  24270776.756    24270777.739   127543802.38910  99384788.847 0        38.000  
        38.000                                                  
  22260972.837    22260970.728   116982201.208 0  91154952.653 0        45.000  
        45.000                                                  
 22  1 14 10 59 24.0000000  0  0
 22  1 14 10 59 25.0010000  0  5E03E05E09E24E25
  25883158.810                   136016951.041 0                        45.000  
                  25883158.989   104220793.394          48.000  
  23387765.674                   122903557.002 0                        48.000  
                  23387765.942    94172860.728          54.000  
  23719421.191                   124646399.809 0                        44.000  
                  23719422.549    95508280.247          50.000  
  23639798.880                   124228027.393 0                        49.000  
                  23639797.200    95187722.533          53.000  
  25716122.293                   135139174.896 0                        45.000  
                  25716124.455   103548219.736          50.000  
 22  1 14 10 59 26.0010000  0 11G05G07G13G14G15G17G19G20G23G24G30
  22817278.657    22817275.137   119905586.829 0  93432569.686 0        46.000  
        44.000                                                  
  24296264.613    24296262.200   127677699.923 0  99489083.725 0        38.000  
        37.000                                                  
  20114657.497                   105703849.527 0                        49.000  
                                                                
  20586187.366    20586182.363   108181237.261 0  84297048.450 0        48.000  
        49.000                                                  
  21271546.201    21271542.484   111782769.414 0  87103444.009 0        48.000  
        46.000                                                  
  23275557.555    23275553.821   122313585.114 0  95309713.415 0        43.000  
        40.000                                                  
  24919627.945                   130952777.168 0                        27.000  
                                                                
  24183274.778                   127083901.825 0                        41.000  
                                                                
  24698525.500    24698520.979   129791051.822 0 101135885.398 0        42.000  
        41.000                                                  
  24270163.384    24270164.403   127540579.39010  99382277.424 0        38.000  
        38.000                                                  
  22261412.700    22261410.592   116984512.834 0  91156753.916 0        45.000  
        45.000                                                  
 22  1 14 10 59 25.0000000  0  0
 22  1 14 10 59 26.0010000  0  5E03E05E09E24E25
  25882718.088                   136014634.432 0                        45.000  
                  25882718.124   104219018.334          48.000  
  23387792.353                   122903698.023 0                        48.000  
                  23387792.799    94172968.781          54.000  
  23719894.881                   124648888.151 0                        44.000  
                  23719896.114    95510186.903          50.000  
  23639806.796                   124228069.707 0                        49.000  
                  23639805.330    95187754.961          53.000  
  25715657.519                   135136731.668 0                        45.000  
                  25715659.556   103546347.650          50.000  
 22  1 14 10 59 27.0010000  0 10G05G07G13G14G15G17G20G23G24G30
  22817819.463    22817816.015   119908428.956 0  93434784.324 0        46.000  
        44.000                                                  
  24296785.709    24296783.332   127680438.497 0  99491217.683 0        38.000  
        37.000                                                  
  20114559.110                   105703332.221 0                        49.000  
                                                                
  20586340.235    20586335.321   108182041.145 0  84297674.860 0        48.000  
        49.000                                                  
  21271147.597    21271143.916   111780675.078 0  87101812.057 0        48.000  
        46.000                                                  
  23275045.268    23275041.570   122310893.359 0  95307615.944 0        43.000  
        40.000                                                  
  24183935.878                   127087376.010 0                        41.000  
                                                                
  24698070.769    24698066.391   129788662.981 0 101134023.966 0        42.000  
        41.000                                                  
  24269549.887    24269550.995   127537356.07710  99379765.773 0        38.000  
        38.000                                                  
  22261852.457    22261850.545   116986824.258 0  91158555.028 0        45.000  
        45.000                                                  
 22  1 14 10 59 26.0000000  0  0
 22  1 14 10 59 27.0010000  0  5E03E05E09E24E25
  25882277.206                   136012317.635 0                        45.000  
                  25882277.295   104217243.117          48.000  
  23387819.138                   122903839.061 0                        48.000  
                  23387819.549    94173076.856          54.000  
  23720368.321                   124651376.355 0                        44.000  
                  23720369.661    95512093.447          50.000  
  23639814.765                   124228112.019 0                        49.000  
                  23639813.407    95187787.381          53.000  
  25715192.496                   135134288.267 0                        45.000  
                  25715194.622   103544475.452          50.000  
 22  1 14 10 59 28.0010000  0 10G05G07G13G14G15G17G20G23G24G30
  22818360.323    22818356.874   119911271.199 0  93436999.052 0        46.000  
        44.000                                                  
  24297306.752    24297304.500   127683176.939 0  99493351.509 0        38.000  
        37.000                                                  
  20114460.688                   105702815.233 0                        49.000  
                                                                
  20586493.266    20586488.280   108182845.395 0  84298301.546 0        48.000  
        49.000                                                  
  21270749.135    21270745.365   111778581.026 0  87100180.337 0        48.000  
        46.000                                                  
  23274533.089    23274529.336   122308201.660 0  95305518.493 0        43.000  
        40.000                                                  
  24184597.032                   127090849.971 0                        41.000  
                                                                
  24697616.163    24697611.839   129786274.413 0 101132162.740 0        42.000  
        41.000                                                  
  24268936.444    24268937.516   127534132.63310  99377254.023 0        38.000  
        38.000                                                  
  22262292.285    22262290.320   116989135.670 0  91160356.128 0        45.000  
        45.000                                                  
 22  1 14 10 59 27.0000000  0  0
 22  1 14 10 59 28.0010000  0  5E03E05E09E24E25
  25881836.324                   136010000.785 0                        45.000  
                  25881836.377   104215467.882          48.000  
  23387846.138                   122903980.291 0                        48.000  
                  23387846.442    94173185.064          54.000  
  23720841.796                   124653864.582 0                        44.000  
                  23720843.101    95514000.006          50.000  
  23639822.985                   124228154.487 0                        49.000  
                  23639821.413    95187819.928          53.000  
  25714727.365                   135131844.899 0                        45.000  
                  25714729.742   103542603.256          50.000  
 22  1 14 10 59 29.0010000  0 10G05G07G13G14G15G17G20G23G24G30
  22818901.254    22818897.823   119914113.907 0  93439214.154 0        46.000  
        44.000                                                  
  24297827.938    24297825.597   127685915.572 0  99495485.529 0        38.000  
        37.000                                                  
  20114362.355                   105702298.882 0                        49.000  
                                                                
  20586646.546    20586641.221   108183650.346 0  84298928.783 0        48.000  
        49.000                                                  
  21270350.817    21270346.975   111776487.570 0  87098549.068 0        48.000  
        46.000                                                  
  23274020.909    23274017.317   122305510.349 0  95303421.362 0        43.000  
        40.000                                                  
  24185258.150                   127094324.082 0                        41.000  
                                                                
  24697161.861    24697157.429   129783886.421 0 101130301.960 0        42.000  
        41.000                                                  
  24268323.089    24268324.144   127530909.41710  99374742.385 0        38.000  
        38.000                                                  
  22262732.203    22262730.273   116991447.411 0  91162157.476 0        45.000  
        45.000                                                  
 22  1 14 10 59 28.0000000  0  0
 22  1 14 10 59 29.0010000  0  5E03E05E09E24E25
  25881395.459                   136007684.276 0                        45.000  
                  25881395.674   104213692.892          48.000  
  23387873.013                   122904122.022 0                        48.000  
                  23387873.424    94173293.665          54.000  
  23721315.236                   124656353.156 0                        44.000  
                  23721316.594    95515906.838          50.000  
  23639831.241                   124228197.447 0                        49.000  
                  23639829.597    95187852.841          53.000  
  25714262.592                   135129401.877 0                        45.000  
                  25714264.825   103540731.332          50.000  
 22  1 14 10 59 30.0010000  0 10G05G07G13G14G15G17G20G23G24G30
  22819442.221    22819438.683   119916956.827 0  93441429.412 0        46.000  
        44.000                                                  
  24298349.016    24298346.765   127688654.181 0  99497619.467 0        38.000  
        37.000                                                  
  20114264.254                   105701782.924 0                        49.000  
                                                                
  20586799.809    20586794.412   108184455.735 0  84299556.356 0        48.000  
        49.000                                                  
  21269952.427    21269948.710   111774394.466 0  87096918.073 0        48.000  
        46.000                                                  
  23273508.801    23273505.137   122302819.160 0  95301324.357 0        43.000  
        40.000                                                  
  24185919.268                   127097798.076 0                        41.000  
                                                                
  24696707.452    24696703.020   129781498.766 0 101128441.450 0        42.000  
        41.000                                                  
  24267709.699    24267710.718   127527686.09610  99372230.745 0        38.000  
        38.000                                                  
  22263172.049    22263170.226   116993759.208 0  91163958.876 0        45.000  
        45.000                                                  
 22  1 14 10 59 29.0000000  0  0
 22  1 14 10 59 30.0010000  0  5E03E05E09E24E25
  25880954.863                   136005367.810 0                        45.000  
                  25880954.827   104211917.934          48.000  
  23387899.924                   122904264.028 0                        48.000  
                  23387900.496    94173402.473          54.000  
  23721788.569                   124658841.853 0                        44.000  
                  23721790.195    95517813.757          50.000  
  23639839.371                   124228240.654 0                        49.000  
                  23639837.852    95187885.945          53.000  
  25713797.640                   135126958.931 0                        45.000  
                  25713799.999   103538859.478          50.000  
 22  1 14 10 59 31.0010000  0 10G05G07G13G14G15G17G20G23G24G30
  22819983.384    22819979.810   119919800.531 0  93443645.287 0        46.000  
        44.000                                                  
  24298870.291    24298868.076   127691393.265 0  99499753.798 0        38.000  
        37.000                                                  
  20114166.314                   105701267.922 0                        49.000  
                                                                
  20586953.214    20586947.818   108185262.148 0  84300184.735 0        48.000  
        49.000                                                  
  21269554.430    21269550.553   111772302.295 0  87095287.817 0        48.000  
        46.000                                                  
  23272996.942    23272993.279   122300128.732 0  95299227.901 0        43.000  
        40.000                                                  
  24186580.422                   127101272.531 0                        41.000  
                                                                
  24696253.239    24696248.790   129779112.023 0 101126581.675 0        42.000  
        41.000                                                  
  24267096.560    24267097.453   127524463.31710  99369719.477 0        37.000  
        38.000                                                  
  22263612.073    22263610.179   116996071.638 0  91165760.772 0        45.000  
        45.000                                                  
 22  1 14 10 59 30.0000000  0  0
 22  1 14 10 59 31.0010000  0  5E03E05E09E24E25
  25880513.819                   136003051.982 0                        45.000  
                  25880514.070   104210143.473          48.000  
  23387927.157                   122904406.874 0                        48.000  
                  23387927.621    94173511.929          53.000  
  23722262.330                   124661331.222 0                        44.000  
                  23722263.885    95519721.193          50.000  
  23639847.894                   124228284.676 0                        49.000  
                  23639846.215    95187919.679          53.000  
  25713332.956                   135124516.663 0                        45.000  
                  25713335.064   103536988.129          50.000  
 22  1 14 10 59 32.0010000  0 10G05G07G13G14G15G17G20G23G24G30
  22820524.690    22820521.027   119922644.634 0  93445861.484 0        46.000  
        44.000                                                  
  24299391.584    24299389.208   127694132.473 0  99501888.261 0        38.000  
        37.000                                                  
  20114068.409                   105700753.496 0                        49.000  
                                                                
  20587106.799    20587101.349   108186069.180 0  84300813.595 0        48.000  
        49.000                                                  
  21269156.344    21269152.538   111770210.644 0  87093657.959 0        48.000  
        46.000                                                  
  23272485.031    23272481.314   122297438.611 0  95297131.692 0        43.000  
        40.000                                                  
  24187241.611                   127104747.038 0                        41.000  
                                                                
  24695799.151    24695794.630   129776725.800 0 101124722.265 0        42.000  
        41.000                                                  
  24266483.295    24266484.153   127521240.64710  99367208.320 0        37.000  
        38.000                                                  
  22264052.080    22264050.311   116998384.321 0  91167562.869 0        45.000  
        45.000                                                  
 22  1 14 10 59 31.0000000  0  0
 22  1 14 10 59 32.0010000  0  5E03E05E09E24E25
  25880073.366                   136000736.379 0                        45.000  
                  25880073.366   104208369.184          48.000  
  23387954.407                   122904550.152 0                        48.000  
                  23387954.889    94173621.715          53.000  
  23722736.145                   124663820.866 0                        43.000  
                  23722737.753    95521628.847          50.000  
  23639856.472                   124228329.098 0                        49.000  
                  23639854.613    95187953.721          53.000  
  25712868.272                   135122074.659 0                        45.000  
                  25712870.381   103535116.993          50.000  
 22  1 14 10 59 33.0010000  0 10G05G07G13G14G15G17G20G23G24G30
  22821065.979    22821062.334   119925488.821 0  93448077.712 0        46.000  
        44.000                                                  
  24299912.752    24299910.447   127696871.470 0  99504022.561 0        38.000  
        37.000                                                  
  20113970.523                   105700239.313 0                        49.000  
                                                                
  20587260.490    20587254.986   108186876.523 0  84301442.696 0        48.000  
        49.000                                                  
  21268758.383    21268754.613   111768119.207 0  87092028.270 0        48.000  
        46.000                                                  
  23271973.047    23271969.348   122294748.485 0  95295035.510 0        43.000  
        40.000                                                  
  24187902.712                   127108221.304 0                        41.000  
                                                                
  24695345.064    24695340.614   129774339.765 0 101122863.019 0        42.000  
        41.000                                                  
  24265870.066    24265870.816   127518017.78910  99364697.027 0        37.000  
        38.000                                                  
  22264492.176    22264490.407   117000696.934 0  91169364.900 0        45.000  
        45.000                                                  
 22  1 14 10 59 32.0000000  0  0
 22  1 14 10 59 33.0010000  0  5E03E05E09E24E25
  25879632.841                   135998420.698 0                        45.000  
                  25879632.734   104206594.828          48.000  
  23387981.711                   122904693.567 0                        48.000  
                  23387982.175    94173731.600          54.000  
  23723209.728                   124666310.476 0                        44.000  
                  23723211.479    95523536.472          50.000  
  23639864.799                   124228373.634 0                        49.000  
                  23639863.208    95187987.839          53.000  
  25712403.445                   135119632.623 0                        45.000  
                  25712405.697   103533245.822          50.000  
 22  1 14 10 59 34.0010000  0 10G05G07G13G14G15G17G20G23G24G30
  22821607.196    22821603.658   119928333.109 0  93450294.044 0        46.000  
        44.000                                                  
  24300433.938    24300431.579   127699610.337 0  99506156.713 0        38.000  
        37.000                                                  
  20113872.654                   105699725.435 0                        49.000  
                                                                
  20587414.146    20587408.589   108187684.204 0  84302072.055 0        48.000  
        49.000                                                  
  21268360.512    21268356.634   111766028.025 0  87090398.785 0        48.000  
        46.000                                                  
  23271461.189    23271457.383   122292058.412 0  95292939.340 0        43.000  
        40.000                                                  
  24188563.740                   127111695.360 0                        41.000  
                                                                
  24694890.994    24694886.491   129771953.982 0 101121003.979 0        42.000  
        41.000                                                  
  24265256.801    24265257.444   127514794.77010  99362185.579 0        38.000  
        38.000                                                  
  22264932.219    22264930.504   117003009.508 0  91171166.906 0        45.000  
        45.000                                                  
 22  1 14 10 59 33.0000000  0  0
 22  1 14 10 59 34.0010000  0  5E03E05E09E24E25
  25879192.012                   135996104.978 0                        45.000  
                  25879192.119   104204820.450          48.000  
  23388009.086                   122904837.144 0                        48.000  
                  23388009.426    94173841.616          54.000  
  23723683.686                   124668800.109 0                        43.000  
                  23723685.222    95525444.107          50.000  
  23639873.411                   124228418.311 0                        49.000  
                  23639871.571    95188022.070          53.000  
  25711938.886                   135117190.578 0                        45.000  
                  25711940.977   103531374.645          50.000  
 22  1 14 10 59 35.0010000  0 10G05G07G13G14G15G17G20G23G24G30
  22822148.609    22822145.053   119931177.998 0  93452510.848 0        46.000  
        44.000                                                  
  24300955.267    24300952.855   127702349.498 0  99508291.138 0        38.000  
        37.000                                                  
  20113774.946                   105699212.320 0                        49.000  
                                                                
  20587568.016    20587562.423   108188492.720 0  84302702.068 0        48.000  
        49.000                                                  
  21267962.604    21267958.798   111763937.588 0  87088769.869 0        48.000  
        46.000                                                  
  23270949.385    23270945.579   122289368.881 0  95290843.588 0        43.000  
        40.000                                                  
  24189224.823                   127115169.667 0                        41.000  
                                                                
  24694437.157    24694432.600   129769568.924 0 101119145.485 0        42.000  
        41.000                                                  
  24264643.679    24264644.144   127511572.08310  99359674.371 0        38.000  
        38.000                                                  
  22265372.369    22265370.600   117005322.516 0  91172969.262 0        45.000  
        45.000                                                  
 22  1 14 10 59 34.0000000  0  0
 22  1 14 10 59 35.0010000  0  5E03E05E09E24E25
  25878751.362                   135993789.698 0                        45.000  
                  25878751.576   104203046.400          48.000  
  23388036.515                   122904981.366 0                        48.000  
                  23388036.980    94173952.124          54.000  
  23724157.626                   124671290.223 0                        43.000  
                  23724159.037    95527352.114          50.000  
  23639882.132                   124228463.604 0                        49.000  
                  23639880.273    95188056.780          53.000  
  25711474.184                   135114749.002 0                        45.000  
                  25711476.239   103529503.831          50.000  
 22  1 14 10 59 36.0010000  0 10G05G07G13G14G15G17G20G23G24G30
  22822690.166    22822686.574   119934023.195 0  93454727.884 0        46.000  
        44.000                                                  
  24301476.739    24301474.058   127705088.735 0  99510425.593 0        38.000  
        37.000                                                  
  20113677.346                   105698699.690 0                        49.000  
                                                                
  20587721.904    20587716.418   108189301.768 0  84303332.495 0        48.000  
        49.000                                                  
  21267565.054    21267560.980   111761847.592 0  87087141.305 0        48.000  
        46.000                                                  
  23270437.652    23270433.917   122286679.565 0  95288748.029 0        43.000  
        40.000                                                  
  24189885.941                   127118643.966 0                        41.000  
                                                                
  24693983.373    24693978.834   129767184.297 0 101117287.330 0        42.000  
        41.000                                                  
  24264030.575    24264030.879   127508349.43010  99357163.227 0        38.000  
        38.000                                                  
  22265812.679    22265810.803   117007635.710 0  91174771.727 0        45.000  
        45.000                                                  
 22  1 14 10 59 35.0000000  0  0
 22  1 14 10 59 36.0010000  0  5E03E05E09E24E25
  25878310.587                   135991474.571 0                        45.000  
                  25878310.926   104201272.471          49.000  
  23388063.926                   122905125.946 0                        48.000  
                  23388064.534    94174062.904          54.000  
  23724631.405                   124673780.543 0                        44.000  
                  23724632.888    95529260.272          50.000  
  23639890.798                   124228509.229 0                        49.000  
                  23639888.815    95188091.735          53.000  
  25711009.429                   135112307.617 0                        45.000  
                  25711011.734   103527633.160          50.000  
 22  1 14 10 59 37.0010000  0 11G05G07G13G14G15G17G19G20G23G24G30
  22823231.722    22823228.149   119936868.806 0  93456945.225 0        46.000  
        44.000                                                  
  24301998.032    24301995.333   127707828.058 0  99512560.141 0        38.000  
        37.000                                                  
  20113579.888                   105698187.643 0                        49.000  
                                                                
  20587875.917    20587870.592   108190111.459 0  84303963.425 0        48.000  
        49.000                                                  
  21267167.272    21267163.323   111759758.147 0  87085513.157 0        48.000  
        46.000                                                  
  23269925.883    23269922.237   122283990.592 0  95286652.734 0        43.000  
        40.000                                                  
  24912226.238                   130915248.238 0                        27.000  
                                                                
  24190547.148                   127122118.342 0                        41.000  
                                                                
  24693529.625    24693525.193   129764800.205 0 101115429.598 0        42.000  
        41.000                                                  
  24263417.292    24263417.560   127505126.90710  99354652.209 0        38.000  
        38.000                                                  
  22266252.936    22266250.989   117009949.147 0  91176574.419 0        45.000  
        45.000                                                  
 22  1 14 10 59 36.0000000  0  0
 22  1 14 10 59 37.0010000  0  5E03E05E09E24E25
  25877870.258                   135989159.693 0                        45.000  
                  25877870.419   104199498.740          49.000  
  23388091.605                   122905270.984 0                        48.000  
                  23388092.105    94174174.046          54.000  
  23725105.381                   124676271.153 0                        43.000  
                  23725107.007    95531168.666          50.000  
  23639899.464                   124228555.297 0                        49.000  
                  23639897.713    95188127.038          53.000  
  25710545.031                   135109866.514 0                        45.000  
                  25710547.140   103525762.718          50.000  
 22  1 14 10 59 38.0010000  0 11G05G07G13G14G15G17G19G20G23G24G30
  22823773.332    22823769.741   119939714.704 0  93459162.811 0        46.000  
        44.000                                                  
  24302519.360    24302516.573   127710567.450 0  99514694.714 0        39.000  
        37.000                                                  
  20113482.520                   105697676.072 0                        49.000  
                                                                
  20588030.037    20588024.766   108190921.678 0  84304594.769 0        48.000  
        49.000                                                  
  21266769.811    21266765.737   111757669.131 0  87083885.368 0        48.000  
        46.000                                                  
  23269414.203    23269410.504   122281301.859 0  95284557.602 0        43.000  
        40.000                                                  
  24911554.345                   130911710.343 0                        28.000  
                                                                
  24191208.267                   127125592.682 0                        41.000  
                                                                
  24693076.037    24693071.588   129762416.532 0 101113572.197 0        41.000  
        41.000                                                  
  24262804.152    24262804.367   127501904.43410  99352141.170 0        38.000  
        38.000                                                  
  22266693.193    22266691.299   117012262.727 0  91178377.202 0        45.000  
        45.000                                                  
 22  1 14 10 59 37.0000000  0  0
 22  1 14 10 59 38.0010000  0  5E03E05E09E24E25
  25877429.805                   135986844.956 0                        45.000  
                  25877429.948   104197725.113          48.000  
  23388119.249                   122905416.380 0                        48.000  
                  23388119.767    94174285.446          54.000  
  23725579.339                   124678761.948 0                        43.000  
                  23725580.929    95533077.202          50.000  
  23639908.453                   124228601.664 0                        49.000  
                  23639906.451    95188162.568          53.000  
  25710080.633                   135107425.596 0                        45.000  
                  25710082.616   103523892.404          50.000  
 22  1 14 10 59 39.0010000  0 11G05G07G13G14G15G17G19G20G23G24G30
  22824314.907    22824311.333   119942561.184 0  93461380.854 0        46.000  
        44.000                                                  
  24303040.653    24303037.848   127713307.145 0  99516829.523 0        39.000  
        37.000                                                  
  20113385.419                   105697165.270 0                        49.000  
                                                                
  20588184.408    20588178.994   108191732.709 0  84305226.747 0        48.000  
        49.000                                                  
  21266372.386    21266368.437   111755580.845 0  87082258.130 0        48.000  
        46.000                                                  
  23268902.685    23268898.878   122278613.643 0  95282462.888 0        43.000  
        40.000                                                  
  24910881.755                   130908172.584 0                        28.000  
                                                                
  24191869.438                   127129067.274 0                        41.000  
                                                                
  24692622.468    24692618.161   129760033.557 0 101111715.343 0        41.000  
        41.000                                                  
  24262191.084    24262191.298   127498682.26910  99349630.401 0        38.000  
        38.000                                                  
  22267133.504    22267131.663   117014576.760 0  91180180.345 0        45.000  
        45.000                                                  
 22  1 14 10 59 38.0000000  0  0
 22  1 14 10 59 39.0010000  0  5E03E05E09E24E25
  25876989.387                   135984530.656 0                        45.000  
                  25876989.709   104195951.821          49.000  
  23388147.017                   122905562.413 0                        48.000  
                  23388147.553    94174397.344          54.000  
  23726053.458                   124681253.233 0                        43.000  
                  23726054.959    95534986.109          50.000  
  23639917.351                   124228648.677 0                        49.000  
                  23639915.493    95188198.596          53.000  
  25709616.163                   135104985.144 0                        45.000  
                  25709618.308   103522022.452          50.000  
 22  1 14 10 59 40.0010000  0 11G05G07G13G14G15G17G19G20G23G24G30
  22824856.624    22824852.997   119945408.019 0  93463599.164 0        46.000  
        44.000                                                  
  24303562.036    24303559.230   127716046.919 0  99518964.430 0        39.000  
        37.000                                                  
  20113288.301                   105696654.996 0                        49.000  
                                                                
  20588338.868    20588333.400   108192544.328 0  84305859.170 0        48.000  
        49.000                                                  
  21265975.086    21265971.137   111753493.050 0  87080631.274 0        48.000  
        46.000                                                  
  23268391.148    23268387.342   122275925.709 0  95280368.378 0        43.000  
        40.000                                                  
  24910207.074                   130904634.822 0                        28.000  
                                                                
  24192530.574                   127132541.884 0                        41.000  
                                                                
  24692168.952    24692164.753   129757651.064 0 101109858.857 0        41.000  
        41.000                                                  
  24261578.051    24261578.212   127495460.17410  99347119.678 0        38.000  
        38.000                                                  
  22267573.814    22267572.099   117016890.969 0  91181983.638 0        45.000  
        45.000                                                  
 22  1 14 10 59 39.0000000  0  0
 22  1 14 10 59 40.0010000  0  5E03E05E09E24E25
  25876548.880                   135982216.535 0                        45.000  
                  25876549.291   104194178.666          49.000  
  23388175.018                   122905708.830 0                        48.000  
                  23388175.411    94174509.534          54.000  
  23726527.648                   124683744.756 0                        43.000  
                  23726529.167    95536895.191          50.000  
  23639926.197                   124228696.048 0                        49.000  
                  23639924.445    95188234.888          53.000  
  25709151.801                   135102544.907 0                        45.000  
                  25709153.928   103520152.671          50.000  
 22  1 14 10 59 41.0010000  0 11G05G07G13G14G15G17G19G20G23G24G30
  22825398.359    22825394.696   119948254.712 0  93465817.369 0        46.000  
        44.000                                                  
  24304083.257    24304080.505   127718786.259 0  99521098.981 0        39.000  
        37.000                                                  
  20113191.183                   105696144.751 0                        49.000  
                                                                
  20588493.256    20588487.913   108193356.017 0  84306491.666 0        48.000  
        49.000                                                  
  21265577.733    21265573.927   111751405.243 0  87079004.421 0        48.000  
        46.000                                                  
  23267879.647    23267875.877   122273237.540 0  95278273.717 0        43.000  
        40.000                                                  
  24909531.911                   130901096.449 0                        28.000  
                                                                
  24193191.728                   127136016.042 0                        41.000  
                                                                
  24691715.597    24691711.380   129755268.547 0 101108002.362 0        41.000  
        41.000                                                  
  24260964.751    24260965.037   127492237.65310  99344608.649 0        38.000  
        38.000                                                  
  22268014.018    22268012.410   117019204.905 0  91183786.703 0        45.000  
        45.000                                                  
 22  1 14 10 59 40.0000000  0  0
 22  1 14 10 59 41.0010000  0  5E03E05E09E24E25
  25876108.283                   135979902.118 0                        45.000  
                  25876108.748   104192405.283          49.000  
  23388202.733                   122905855.165 0                        48.000  
                  23388203.287    94174621.658          54.000  
  23727001.856                   124686236.009 0                        44.000  
                  23727003.214    95538804.079          50.000  
  23639935.506                   124228743.298 0                        49.000  
                  23639933.523    95188271.095          53.000  
  25708687.403                   135100104.420 0                        45.000  
                  25708689.422   103518282.687          50.000  
 22  1 14 10 59 42.0010000  0 11G05G07G13G14G15G17G19G20G23G24G30
  22825940.202    22825936.610   119951101.923 0  93468035.977 0        46.000  
        44.000                                                  
  24304604.568    24304601.798   127721525.852 0  99523233.728 0        39.000  
        37.000                                                  
  20113094.244                   105695635.207 0                        49.000  
                                                                
  20588647.859    20588642.516   108194168.469 0  84307124.736 0        48.000  
        49.000                                                  
  21265180.522    21265176.734   111749318.096 0  87077378.065 0        48.000  
        46.000                                                  
  23267368.182    23267364.358   122270549.829 0  95276179.394 0        43.000  
        40.000                                                  
  24908859.553                   130897558.332 0                        28.000  
                                                                
  24193852.936                   127139490.370 0                        41.000  
                                                                
  24691262.367    24691258.043   129752886.691 0 101106146.360 0        41.000  
        41.000                                                  
  24260351.540    24260351.915   127489015.38810  99342097.786 0        38.000  
        38.000                                                  
  22268454.400    22268452.792   117021519.204 0  91185590.058 0        45.000  
        45.000                                                  
 22  1 14 10 59 41.0000000  0  0
 22  1 14 10 59 42.0010000  0  5E03E05E09E24E25
  25875668.008                   135977588.053 0                        45.000  
                  25875668.544   104190632.173          49.000  
  23388230.769                   122906002.073 0                        48.000  
                  23388231.162    94174734.224          54.000  
  23727475.886                   124688727.690 0                        44.000  
                  23727477.333    95540713.285          50.000  
  23639944.477                   124228791.089 0                        49.000  
                  23639942.636    95188307.714          53.000  
  25708223.094                   135097664.318 0                        45.000  
                  25708225.114   103516413.003          50.000  
 22  1 14 10 59 43.0010000  0 11G05G07G13G14G15G17G19G20G23G24G30
  22826482.169    22826478.506   119953949.573 0  93470254.918 0        46.000  
        44.000                                                  
  24305125.986    24305123.091   127724265.620 0  99525368.597 0        39.000  
        37.000                                                  
  20112997.447                   105695126.257 0                        49.000  
                                                                
  20588802.497    20588797.315   108194981.581 0  84307758.333 0        48.000  
        49.000                                                  
  21264783.419    21264779.649   111747231.515 0  87075752.158 0        48.000  
        46.000                                                  
  23266856.824    23266853.000   122267862.488 0  95274085.369 0        43.000  
        40.000                                                  
  24908187.338                   130894020.150 0                        28.000  
                                                                
  24194514.054                   127142964.810 0                        41.000  
                                                                
  24690809.227    24690804.902   129750505.377 0 101104290.823 0        41.000  
        41.000                                                  
  24259738.596    24259738.739   127485793.30310  99339587.097 0        38.000  
        38.000                                                  
  22268894.853    22268893.174   117023833.795 0  91187393.628 0        45.000  
        45.000                                                  
 22  1 14 10 59 42.0000000  0  0
 22  1 14 10 59 43.0010000  0  5E03E05E09E24E25
  25875227.841                   135975274.288 0                        45.000  
                  25875228.216   104188859.290          49.000  
  23388258.734                   122906149.458 0                        48.000  
                  23388259.288    94174847.158          54.000  
  23727950.183                   124691219.697 0                        44.000  
                  23727951.613    95542622.745          50.000  
  23639953.625                   124228839.346 0                        49.000  
                  23639951.767    95188344.688          53.000  
  25707758.947                   135095224.541 0                        45.000  
                  25707760.841   103514543.568          50.000  
 22  1 14 10 59 44.0010000  0 11G05G07G13G14G15G17G19G20G23G24G30
  22827024.172    22827020.527   119956797.898 0  93472474.390 0        46.000  
        44.000                                                  
  24305647.440    24305644.492   127727005.787 0  99527503.801 0        39.000  
        37.000                                                  
  20112900.776                   105694618.174 0                        49.000  
                                                                
  20588957.350    20588952.186   108195795.597 0  84308392.640 0        48.000  
        49.000                                                  
  21264386.495    21264382.814   111745145.753 0  87074126.901 0        48.000  
        46.000                                                  
  23266345.502    23266341.660   122265175.765 0  95271991.794 0        43.000  
        40.000                                                  
  24907517.339                   130890482.294 0                        28.000  
                                                                
  24195175.315                   127146439.599 0                        41.000  
                                                                
  24690356.158    24690351.887   129748124.891 0 101102435.874 0        41.000  
        41.000                                                  
  24259125.528    24259125.671   127482571.62410  99337076.692 0        38.000  
        38.000                                                  
  22269335.450    22269333.770   117026148.910 0  91189197.611 0        45.000  
        45.000                                                  
 22  1 14 10 59 43.0000000  0  0
 22  1 14 10 59 44.0010000  0  5E03E05E09E24E25
  25874787.405                   135972961.044 0                        45.000  
                  25874787.995   104187086.796          49.000  
  23388286.967                   122906297.583 0                        48.000  
                  23388287.468    94174960.654          54.000  
  23728424.498                   124693712.276 0                        44.000  
                  23728425.910    95544532.634          50.000  
  23639962.935                   124228888.307 0                        49.000  
                  23639961.059    95188382.206          53.000  
  25707294.834                   135092785.325 0                        45.000  
                  25707296.728   103512674.563          50.000  
 22  1 14 10 59 45.0010000  0 11G05G07G13G14G15G17G19G20G23G24G30
  22827566.265    22827562.620   119959646.602 0  93474694.176 0        46.000  
        44.000                                                  
  24306168.894    24306165.963   127729746.054 0  99529639.076 0        39.000  
        37.000                                                  
  20112804.265                   105694110.650 0                        49.000  
                                                                
  20589112.293    20589107.182   108196610.232 0  84309027.418 0        48.000  
        49.000                                                  
  21263989.713    21263985.871   111743060.520 0  87072502.039 0        48.000  
        46.000                                                  
  23265834.234    23265830.446   122262489.348 0  95269898.505 0        43.000  
        40.000                                                  
  24906844.606                   130886944.350 0                        28.000  
                                                                
  24195836.594                   127149914.414 0                        41.000  
                                                                
  24689903.249    24689898.997   129745744.883 0 101100581.345 0        41.000  
        41.000                                                  
  24258512.370    24258512.728   127479350.03110  99334566.387 0        38.000  
        38.000                                                  
  22269775.993    22269774.438   117028464.257 0  91191001.773 0        45.000  
        45.000                                                  
 22  1 14 10 59 44.0000000  0  0
 22  1 14 10 59 45.0010000  0  5E03E05E09E24E25
  25874347.148                   135970648.018 0                        45.000  
                  25874347.702   104185314.488          49.000  
  23388315.272                   122906446.128 0                        48.000  
                  23388315.718    94175074.478          54.000  
  23728899.100                   124696205.107 0                        44.000  
                  23728900.243    95546442.735          50.000  
  23639972.531                   124228937.670 0                        49.000  
                  23639970.530    95188420.030          53.000  
  25706830.669                   135090346.355 0                        45.000  
                  25706832.581   103510805.744          50.000  
 22  1 14 10 59 46.0010000  0 11G05G07G13G14G15G17G19G20G23G24G30
  22828108.322    22828104.730   119962495.133 0  93476913.782 0        46.000  
