     2.11           OBSERVATION DATA    M (Mixed)           RINEX VERSION / TYPE
RTCM3TORINEX on                         2022-01-15 03:59    PGM / RUN BY / DATE
RTCM3TORINEX                                                MARKER NAME
                                                            OBSERVER / AGENCY
                                                            REC # / TYPE / VERS
                                                            ANT # / TYPE
         .0000         .0000         .0000                  APPROX POSITION XYZ
         .0000         .0000         .0000                  ANTENNA: DELTA H/E/N
     1     1                                                WAVELENGTH FACT L1/2
     9    C1    C2    L1    L2    S1    S2    C7    L7    S7# / TYPES OF OBSERV
  2022     1    15     3    59   20.0000000     GPS         TIME OF FIRST OBS
                                                            END OF HEADER
 22  1 15  3 59 20.0000000  0  5E02E07E08E13E26
  28184082.207                   148108020.858 0                        35.000  
                  28184082.690   113485366.516          44.000  
  23464581.727                   123307969.549 0                        49.000  
                  23464581.459    94482736.388          53.000  
  24230364.889                   127330854.394 0                        42.000  
                  24230361.762    97565608.881          46.000  
  26295175.290                   138182102.448 0                        42.000  
                  26295173.664   105879795.377          45.000  
  23800919.893                   125074697.663 0                        48.000  
                  23800917.981    95836449.060          53.000  
 22  1 15  3 59 21.0000000  0 10G01G03G04G06G09G17G19G21G22G31
  21498644.347    21498640.916   112975882.971 0  88033159.762 0        47.000  
        47.000                                                  
  20307144.471    20307141.594   106714733.232 0  83154343.487 0        49.000  
        49.000                                                  
  20659580.447    20659575.640   108566778.699 0  84597496.840 0        48.000  
        49.000                                                  
  23710005.252    23710002.268   124596671.631 0  97088255.248 0        43.000  
        42.000                                                  
  22941950.009    22941945.863   120560427.296 0  93943198.236 0        45.000  
        45.000                                                  
  22909876.560    22909871.074   120392600.078 0  93812419.910 0        45.000  
        43.000                                                  
  22693348.370                   119253965.554 0                        46.000  
                                                                
  23473487.416                   123354372.892 0                        43.000  
                                                                
  21296395.758                   111913954.840 0                        45.000  
                                                                
  22993961.731    22993953.636   120834466.334 0  94156730.611 0        43.000  
        39.000                                                  
 22  1 15  3 59 20.0000000  0  0
 22  1 15  3 59 21.0000000  0  5E02E07E08E13E26
  28183781.829                   148106442.652 0                        35.000  
                  28183782.383   113484157.258          44.000  
  23464653.882                   123308347.929 0                        49.000  
                  23464653.382    94483026.313          53.000  
  24230815.974                   127333224.680 0                        42.000  
                  24230812.794    97567425.079          46.000  
  26295754.282                   138185145.697 0                        42.000  
                  26295752.746   105882127.229          45.000  
  23801089.202                   125075586.941 0                        48.000  
                  23801087.147    95837130.451          53.000  
 22  1 15  3 59 22.0000000  0 10G01G03G04G06G09G17G19G21G22G31
  21499191.978    21499188.601   112978761.046 0  88035402.427 0        47.000  
        47.000                                                  
  20307199.007    20307196.184   106715020.027 0  83154566.973 0        49.000  
        49.000                                                  
  20659313.180    20659308.498   108565374.301 0  84596402.506 0        48.000  
        49.000                                                  
  23709381.624    23709378.604   124593393.925 0  97085701.178 0        43.000  
        42.000                                                  
  22941362.064    22941357.954   120557337.662 0  93940790.723 0        45.000  
        45.000                                                  
  22910151.046    22910145.435   120394042.427 0  93813543.811 0        45.000  
        43.000                                                  
  22693412.020                   119254300.193 0                        46.000  
                                                                
  23474068.016                   123357423.852 0                        43.000  
                                                                
  21296691.169                   111915507.457 0                        45.000  
                                                                
  22994289.217    22994281.193   120836187.814 0  94158072.051 0        43.000  
        39.000                                                  
 22  1 15  3 59 21.0000000  0  0
 22  1 15  3 59 22.0000000  0  5E02E07E08E13E26
  28183481.612                   148104864.656 0                        35.000  
                  28183482.112   113482948.135          44.000  
  23464725.930                   123308726.417 0                        49.000  
                  23464725.394    94483316.318          53.000  
  24231267.078                   127335594.881 0                        42.000  
                  24231263.844    97569241.211          46.000  
  26296333.382                   138188188.949 0                        42.000  
                  26296331.881   105884459.055          45.000  
  23801258.457                   125076476.490 0                        48.000  
                  23801256.420    95837812.055          53.000  
 22  1 15  3 59 23.0000000  0 10G01G03G04G06G09G17G19G21G22G31
  21499739.628    21499736.376   112981639.508 0  88037645.378 0        47.000  
        47.000                                                  
  20307253.722    20307250.863   106715307.137 0  83154790.702 0        49.000  
        49.000                                                  
  20659045.966    20659041.320   108563970.338 0  84595308.506 0        48.000  
        49.000                                                  
  23708757.905    23708754.903   124590116.369 0  97083147.259 0        43.000  
        42.000                                                  
  22940774.173    22940770.117   120554248.251 0  93938383.401 0        45.000  
        45.000                                                  
  22910425.568    22910419.957   120395485.216 0  93814668.069 0        45.000  
        43.000                                                  
  22693475.758                   119254635.465 0                        46.000  
                                                                
  23474648.670                   123360474.977 0                        43.000  
                                                                
  21296986.722                   111917060.317 0                        45.000  
                                                                
  22994616.952    22994608.840   120837909.866 0  94159413.902 0        43.000  
        39.000                                                  
 22  1 15  3 59 22.0000000  0  0
 22  1 15  3 59 23.0000000  0  5E02E07E08E13E26
  28183181.394                   148103286.906 0                        35.000  
                  28183181.841   113481739.234          44.000  
  23464798.085                   123309105.137 0                        49.000  
                  23464797.549    94483606.513          53.000  
  24231718.003                   127337965.117 0                        42.000  
                  24231714.840    97571057.362          46.000  
  26296912.534                   138191232.292 0                        42.000  
                  26296910.855   105886790.974          45.000  
  23801427.909                   125077366.441 0                        48.000  
                  23801425.801    95838493.970          53.000  
 22  1 15  3 59 24.0000000  0 10G01G03G04G06G09G17G19G21G22G31
  21500287.421    21500284.169   112984518.205 0  88039888.509 0        46.000  
        47.000                                                  
  20307308.437    20307305.560   106715594.452 0  83155014.577 0        49.000  
        49.000                                                  
  20658778.985    20658774.161   108562566.709 0  84594214.763 0        48.000  
        49.000                                                  
  23708134.330    23708131.257   124586838.863 0  97080593.353 0        43.000  
        42.000                                                  
  22940186.372    22940182.137   120551158.932 0  93935976.127 0        45.000  
        45.000                                                  
  22910700.179    22910694.532   120396928.343 0  93815792.572 0        45.000  
        43.000                                                  
  22693539.569                   119254971.269 0                        46.000  
                                                                
  23475229.360                   123363526.120 0                        43.000  
                                                                
  21297282.258                   111918613.304 0                        45.000  
                                                                
  22994944.742    22994936.629   120839632.354 0  94160756.095 0        43.000  
        39.000                                                  
 22  1 15  3 59 23.0000000  0  0
 22  1 15  3 59 24.0000000  0  5E02E07E08E13E26
  28182881.141                   148101709.343 0                        35.000  
                  28182881.623   113480530.457          44.000  
  23464870.008                   123309483.977 0                        49.000  
                  23464869.579    94483896.787          53.000  
  24232168.928                   127340335.227 0                        42.000  
                  24232165.908    97572873.424          46.000  
  26297491.741                   138194275.620 0                        42.000  
                  26297490.026   105889122.882          45.000  
  23801597.147                   125078256.664 0                        48.000  
                  23801595.253    95839176.085          53.000  
 22  1 15  3 59 25.0000000  0 10G01G03G04G06G09G17G19G21G22G31
  21500835.250    21500832.158   112987397.359 0  88042132.008 0        46.000  
        47.000                                                  
  20307363.170    20307360.239   106715882.171 0  83155238.769 0        49.000  
        49.000                                                  
  20658512.040    20658507.162   108561163.603 0  84593121.438 0        48.000  
        49.000                                                  
  23707510.647    23707507.699   124583561.627 0  97078039.663 0        43.000  
        42.000                                                  
  22939598.463    22939594.264   120548069.905 0  93933569.099 0        45.000  
        45.000                                                  
  22910974.915    22910969.215   120398372.027 0  93816917.512 0        45.000  
        43.000                                                  
  22693603.611                   119255307.806 0                        46.000  
                                                                
  23475810.049                   123366577.521 0                        43.000  
                                                                
  21297577.829                   111920166.619 0                        45.000  
                                                                
  22995272.549    22995264.526   120841355.510 0  94162098.813 0        43.000  
        39.000                                                  
 22  1 15  3 59 24.0000000  0  0
 22  1 15  3 59 25.0000000  0  5E02E07E08E13E26
  28182581.138                   148100132.192 0                        35.000  
                  28182581.442   113479321.968          44.000  
  23464942.270                   123309863.131 0                        49.000  
                  23464941.895    94484187.307          53.000  
  24232620.013                   127342705.489 0                        42.000  
                  24232616.904    97574689.584          46.000  
  26298070.822                   138197319.148 0                        42.000  
                  26298069.214   105891454.926          45.000  
  23801766.813                   125079147.387 0                        48.000  
                  23801764.812    95839858.584          53.000  
 22  1 15  3 59 26.0000000  0 10G01G03G04G06G09G17G19G21G22G31
  21501383.346    21501380.219   112990277.330 0  88044376.130 0        46.000  
        47.000                                                  
  20307418.117    20307415.169   106716170.675 0  83155463.582 0        49.000  
        49.000                                                  
  20658245.202    20658240.341   108559761.415 0  84592028.821 0        48.000  
        49.000                                                  
  23706887.197    23706884.142   124580285.013 0  97075486.455 0        43.000  
        42.000                                                  
  22939010.751    22939006.587   120544981.569 0  93931162.605 0        45.000  
        45.000                                                  
  22911249.848    22911244.022   120399816.621 0  93818043.178 0        45.000  
        43.000                                                  
  22693667.886                   119255645.461 0                        46.000  
                                                                
  23476390.846                   123369629.535 0                        43.000  
                                                                
  21297873.597                   111921720.644 0                        45.000  
                                                                
  22995600.624    22995592.601   120843079.698 0  94163442.345 0        43.000  
        39.000                                                  
 22  1 15  3 59 25.0000000  0  0
 22  1 15  3 59 26.0000000  0  5E02E07E08E13E26
  28182281.349                   148098555.803 0                        35.000  
                  28182281.510   113478114.072          44.000  
  23465014.533                   123310242.984 0                        49.000  
                  23465013.997    94484478.370          53.000  
  24233071.170                   127345076.210 0                        42.000  
                  24233068.133    97576506.114          46.000  
  26298650.243                   138200363.239 0                        42.000  
                  26298648.456   105893787.421          45.000  
  23801936.354                   125080038.960 0                        48.000  
                  23801934.389    95840541.738          53.000  
 22  1 15  3 59 27.0000000  0 10G01G03G04G06G09G17G19G21G22G31
  21501931.461    21501928.387   112993158.042 0  88046620.850 0        46.000  
        47.000                                                  
  20307473.243    20307470.241   106716459.862 0  83155688.922 0        49.000  
        49.000                                                  
  20657978.649    20657973.735   108558360.051 0  84590936.848 0        48.000  
        49.000                                                  
  23706263.693    23706260.745   124577008.936 0  97072933.675 0        43.000  
        42.000                                                  
  22938423.110    22938419.000   120541893.813 0  93928756.561 0        45.000  
        45.000                                                  
  22911524.870    22911519.009   120401262.048 0  93819169.487 0        45.000  
        43.000                                                  
  22693732.250                   119255984.132 0                        46.000  
                                                                
  23476971.750                   123372682.104 0                        43.000  
                                                                
  21298169.312                   111923275.291 0                        45.000  
                                                                
  22995928.878    22995920.855   120844804.836 0  94164786.598 0        43.000  
        39.000                                                  
 22  1 15  3 59 26.0000000  0  0
 22  1 15  3 59 27.0000000  0  5E02E07E08E13E26
  28181981.471                   148096980.031 0                        35.000  
                  28181981.704   113476906.687          44.000  
  23465087.027                   123310623.464 0                        49.000  
                  23465086.348    94484769.905          53.000  
  24233522.452                   127347447.344 0                        42.000  
                  24233519.325    97578322.964          46.000  
  26299229.593                   138203407.811 0                        42.000  
                  26299227.895   105896120.291          45.000  
  23802106.450                   125080931.305 0                        48.000  
                  23802104.216    95841225.485          53.000  
 22  1 15  3 59 28.0000000  0 10G01G03G04G06G09G17G19G21G22G31
  21502479.629    21502476.501   112996038.473 0  88048865.342 0        46.000  
        47.000                                                  
  20307528.101    20307525.063   106716748.714 0  83155913.995 0        49.000  
        49.000                                                  
  20657711.972    20657707.112   108556958.471 0  84589844.709 0        48.000  
        49.000                                                  
  23705640.243    23705637.259   124573732.378 0  97070380.519 0        43.000  
        42.000                                                  
  22937835.416    22937831.395   120538805.629 0  93926350.184 0        45.000  
        45.000                                                  
  22911799.838    22911793.995   120402707.272 0  93820295.632 0        45.000  
        43.000                                                  
  22693796.686                   119256322.799 0                        46.000  
                                                                
  23477552.511                   123375734.171 0                        43.000  
                                                                
  21298465.062                   111924829.533 0                        45.000  
                                                                
  22996257.168    22996249.163   120846529.878 0  94166130.800 0        43.000  
        39.000                                                  
 22  1 15  3 59 27.0000000  0  0
 22  1 15  3 59 28.0000000  0  5E02E07E08E13E26
  28181681.540                   148095403.912 0                        35.000  
                  28181681.772   113475699.011          44.000  
  23465159.182                   123311003.516 0                        49.000  
                  23465158.700    94485061.109          53.000  
  24233973.520                   127349817.847 0                        42.000  
                  24233970.393    97580139.335          46.000  
  26299808.799                   138206451.870 0                        42.000  
                  26299807.137   105898452.733          45.000  
  23802276.170                   125081823.404 0                        48.000  
                  23802273.990    95841909.044          53.000  
 22  1 15  3 59 29.0000000  0 10G01G03G04G06G09G17G19G21G22G31
  21503027.904    21503024.723   112998919.233 0  88051110.096 0        46.000  
        47.000                                                  
  20307583.138    20307580.207   106717037.851 0  83156139.299 0        49.000  
        49.000                                                  
  20657445.313    20657440.524   108555557.304 0  84588752.898 0        48.000  
        49.000                                                  
  23705016.722    23705013.773   124570455.955 0  97067827.449 0        43.000  
        42.000                                                  
  22937247.882    22937243.683   120535717.623 0  93923943.948 0        45.000  
        45.000                                                  
  22912074.896    22912069.142   120404152.917 0  93821422.099 0        45.000  
        43.000                                                  
  22693861.175                   119256662.083 0                        46.000  
                                                                
  23478133.326                   123378786.349 0                        43.000  
                                                                
  21298760.830                   111926383.993 0                        45.000  
                                                                
  22996585.493    22996577.506   120848255.457 0  94167475.395 0        43.000  
        39.000                                                  
 22  1 15  3 59 28.0000000  0  0
 22  1 15  3 59 29.0000000  0  5E02E07E08E13E26
  28181381.590                   148093828.101 0                        35.000  
                  28181381.966   113474491.538          44.000  
  23465231.516                   123311383.780 0                        49.000  
                  23465231.052    94485352.484          53.000  
  24234424.642                   127352188.353 0                        42.000  
                  24234421.443    97581955.681          46.000  
  26300387.988                   138209495.979 0                        42.000  
                  26300386.487   105900785.244          45.000  
  23802445.979                   125082715.870 0                        48.000  
                  23802443.745    95842592.876          53.000  
 22  1 15  3 59 30.0000000  0 10G01G03G04G06G09G17G19G21G22G31
  21503576.179    21503572.963   113001800.360 0  88053355.119 0        46.000  
        47.000                                                  
  20307638.174    20307635.297   106717327.317 0  83156364.859 0        49.000  
        49.000                                                  
  20657178.850    20657173.954   108554156.601 0  84587661.445 0        48.000  
        49.000                                                  
  23704393.236    23704390.430   124567179.717 0  97065274.536 0        43.000  
        42.000                                                  
  22936660.313    22936656.007   120532629.850 0  93921537.900 0        45.000  
        45.000                                                  
  22912350.133    22912344.290   120405599.025 0  93822548.936 0        45.000  
        43.000                                                  
  22693925.951                   119257002.033 0                        46.000  
                                                                
  23478714.194                   123381838.716 0                        43.000  
                                                                
  21299056.652                   111927938.708 0                        45.000  
                                                                
  22996913.944    22996906.046   120849981.638 0  94168820.469 0        43.000  
        39.000                                                  
 22  1 15  3 59 29.0000000  0  0
 22  1 15  3 59 30.0000000  0  5E02E07E08E13E26
  28181081.784                   148092252.543 0                        35.000  
                  28181082.231   113473284.315          44.000  
  23465303.921                   123311764.293 0                        49.000  
                  23465303.618    94485644.048          53.000  
  24234875.959                   127354558.888 0                        42.000  
                  24234872.475    97583772.074          46.000  
  26300967.320                   138212540.222 0                        42.000  
                  26300965.729   105903117.837          45.000  
  23802615.985                   125083608.749 0                        48.000  
                  23802613.751    95843277.031          53.000  
 22  1 15  3 59 31.0000000  0 10G01G03G04G06G09G17G19G21G22G31
  21504124.633    21504121.470   113004682.311 0  88055600.793 0        46.000  
        47.000                                                  
  20307693.515    20307690.584   106717617.581 0  83156591.034 0        49.000  
        49.000                                                  
  20656912.476    20656907.527   108552756.816 0  84586570.699 0        48.000  
        49.000                                                  
  23703769.946    23703767.212   124563904.133 0  97062722.119 0        43.000  
        42.000                                                  
  22936072.976    22936068.616   120529542.763 0  93919132.358 0        45.000  
        45.000                                                  
  22912625.494    22912619.651   120407046.036 0  93823676.466 0        45.000  
        43.000                                                  
  22693990.762                   119257343.087 0                        46.000  
                                                                
  23479295.170                   123384891.704 0                        44.000  
                                                                
  21299352.617                   111929494.144 0                        45.000  
                                                                
  22997242.662    22997234.800   120851708.833 0  94170166.342 0        43.000  
        39.000                                                  
 22  1 15  3 59 30.0000000  0  0
 22  1 15  3 59 31.0000000  0  5E02E07E08E13E26
  28180782.085                   148090677.748 0                        35.000  
                  28180782.424   113472077.669          44.000  
  23465376.630                   123312145.507 0                        49.000  
                  23465376.077    94485936.143          53.000  
  24235327.277                   127356929.932 0                        42.000  
                  24235323.704    97585588.841          46.000  
  26301546.615                   138215585.041 0                        42.000  
                  26301545.025   105905450.873          45.000  
  23802785.830                   125084502.491 0                        48.000  
                  23802783.846    95843961.848          53.000  
 22  1 15  3 59 32.0000000  0 10G01G03G04G06G09G17G19G21G22G31
  21504673.105    21504670.067   113007564.773 0  88057846.871 0        46.000  
        47.000                                                  
  20307748.873    20307745.871   106717908.279 0  83156817.554 0        49.000  
        49.000                                                  
  20656646.174    20656641.189   108551357.606 0  84585480.404 0        48.000  
        49.000                                                  
  23703146.710    23703143.976   124560628.837 0  97060169.945 0        43.000  
        42.000                                                  
  22935485.639    22935481.297   120526456.023 0  93916727.117 0        45.000  
        45.000                                                  
  22912900.874    22912895.192   120408493.617 0  93824804.454 0        45.000  
        43.000                                                  
  22694055.769                   119257684.932 0                        46.000  
                                                                
  23479876.270                   123387944.992 0                        44.000  
                                                                
  21299648.670                   111931049.948 0                        45.000  
                                                                
  22997571.506    22997563.626   120853436.719 0  94171512.740 0        43.000  
        39.000                                                  
 22  1 15  3 59 31.0000000  0  0
 22  1 15  3 59 32.0000000  0  5E02E07E08E13E26
  28180482.546                   148089103.402 0                        35.000  
                  28180482.743   113470871.348          44.000  
  23465449.214                   123312527.079 0                        49.000  
                  23465448.661    94486228.521          53.000  
  24235778.184                   127359301.104 0                        42.000  
                  24235774.932    97587405.720          46.000  
  26302125.893                   138218630.095 0                        42.000  
                  26302124.660   105907784.105          45.000  
  23802956.211                   125085396.761 0                        48.000  
                  23802953.995    95844647.068          53.000  
 22  1 15  3 59 33.0000000  0 10G01G03G04G06G09G17G19G21G22G31
  21505221.684    21505218.521   113010447.422 0  88060093.089 0        47.000  
        47.000                                                  
  20307804.249    20307801.158   106718199.127 0  83157044.194 0        49.000  
        49.000                                                  
  20656379.890    20656374.958   108549958.676 0  84584390.326 0        48.000  
        49.000                                                  
  23702523.403    23702520.830   124557353.511 0  97057617.756 0        43.000  
        42.000                                                  
  22934898.320    22934893.942   120523369.321 0  93914321.899 0        45.000  
        45.000                                                  
  22913176.414    22913170.661   120409941.489 0  93825932.658 0        45.000  
        43.000                                                  
  22694120.884                   119258027.256 0                        46.000  
                                                                
  23480457.353                   123390998.253 0                        43.000  
                                                                
  21299944.689                   111932605.831 0                        45.000  
                                                                
  22997900.385    22997892.469   120855165.027 0  94172859.478 0        43.000  
        39.000                                                  
 22  1 15  3 59 32.0000000  0  0
 22  1 15  3 59 33.0000000  0  5E02E07E08E13E26
  28180182.919                   148087529.170 0                        35.000  
                  28180183.115   113469665.116          44.000  
  23465521.834                   123312908.728 0                        49.000  
                  23465521.316    94486520.953          53.000  
  24236229.341                   127361672.156 0                        42.000  
                  24236226.089    97589222.507          46.000  
  26302705.404                   138221675.075 0                        42.000  
                  26302704.046   105910117.272          45.000  
  23803126.503                   125086291.263 0                        48.000  
                  23803124.198    95845332.464          53.000  
 22  1 15  3 59 34.0000000  0 10G01G03G04G06G09G17G19G21G22G31
  21505770.370    21505767.100   113013330.377 0  88062339.548 0        46.000  
        47.000                                                  
  20307859.625    20307856.516   106718490.224 0  83157271.018 0        49.000  
        49.000                                                  
  20656113.838    20656108.817   108548560.112 0  84583300.540 0        48.000  
        49.000                                                  
  23701900.203    23701897.630   124554078.317 0  97055065.637 0        43.000  
        42.000                                                  
  22934310.948    22934306.570   120520282.777 0  93911916.791 0        46.000  
        45.000                                                  
  22913452.008    22913446.237   120411389.730 0  93827061.172 0        45.000  
        43.000                                                  
  22694186.159                   119258370.167 0                        46.000  
                                                                
  23481038.347                   123394051.608 0                        43.000  
                                                                
  21300240.778                   111934161.892 0                        45.000  
                                                                
  22998229.408    22998221.510   120856893.822 0  94174206.614 0        43.000  
        39.000                                                  
 22  1 15  3 59 33.0000000  0  0
 22  1 15  3 59 34.0000000  0  5E02E07E08E13E26
  28179883.201                   148085955.161 0                        35.000  
                  28179883.523   113468459.068          43.000  
  23465594.561                   123313290.549 0                        49.000  
                  23465593.971    94486813.515          53.000  
  24236680.659                   127364043.164 0                        42.000  
                  24236677.193    97591039.255          46.000  
  26303285.003                   138224720.111 0                        42.000  
                  26303283.431   105912450.475          45.000  
  23803296.652                   125087186.100 0                        48.000  
                  23803294.525    95846018.118          53.000  
 22  1 15  3 59 35.0000000  0 10G01G03G04G06G09G17G19G21G22G31
  21506319.146    21506315.786   113016213.933 0  88064586.475 0        46.000  
        47.000                                                  
  20307915.037    20307912.017   106718781.882 0  83157498.282 0        49.000  
        49.000                                                  
  20655847.804    20655842.890   108547162.234 0  84582211.290 0        48.000  
        49.000                                                  
  23701277.057    23701274.484   124550803.508 0  97052513.849 0        43.000  
        42.000                                                  
  22933723.664    22933719.233   120517196.682 0  93909512.044 0        46.000  
        45.000                                                  
  22913727.799    22913721.902   120412838.646 0  93828190.195 0        45.000  
        43.000                                                  
  22694251.578                   119258713.955 0                        46.000  
                                                                
  23481619.429                   123397105.368 0                        43.000  
                                                                
  21300536.958                   111935718.432 0                        45.000  
                                                                
  22998558.519    22998550.621   120858623.441 0  94175554.342 0        43.000  
        39.000                                                  
 22  1 15  3 59 34.0000000  0  0
 22  1 15  3 59 35.0000000  0  5E02E07E08E13E26
  28179583.895                   148084381.669 0                        35.000  
                  28179584.110   113467253.403          44.000  
  23465667.359                   123313672.832 0                        49.000  
                  23465666.663    94487106.433          53.000  
  24237131.941                   127366414.433 0                        42.000  
                  24237128.493    97592856.197          46.000  
  26303864.442                   138227765.488 0                        42.000  
                  26303862.923   105914783.956          45.000  
  23803467.176                   125088081.567 0                        48.000  
                  23803464.924    95846704.259          53.000  
 22  1 15  3 59 36.0000000  0 10G01G03G04G06G09G17G19G21G22G31
  21506867.885    21506864.508   113019097.880 0  88066833.706 0        46.000  
        47.000                                                  
  20307970.663    20307967.590   106719073.889 0  83157725.822 0        49.000  
        49.000                                                  
  20655581.949    20655576.910   108545764.841 0  84581122.409 0        48.000  
        49.000                                                  
  23700653.821    23700651.426   124547528.922 0  97049962.237 0        43.000  
        42.000                                                  
  22933136.435    22933132.021   120514110.831 0  93907107.489 0        45.000  
        45.000                                                  
  22914003.679    22913997.746   120414288.058 0  93829319.612 0        45.000  
        43.000                                                  
  22694317.139                   119259058.427 0                        46.000  
                                                                
  23482200.548                   123400159.313 0                        43.000  
                                                                
  21300833.154                   111937275.257 0                        45.000  
                                                                
  22998887.738    22998879.804   120860353.639 0  94176902.571 0        43.000  
        39.000                                                  
 22  1 15  3 59 35.0000000  0  0
 22  1 15  3 59 36.0000000  0  5E02E07E08E13E26
  28179284.410                   148082808.540 0                        35.000  
                  28179284.714   113466048.003          44.000  
  23465739.997                   123314055.390 0                        49.000  
                  23465739.532    94487399.562          53.000  
  24237583.063                   127368785.775 0                        42.000  
                  24237579.739    97594673.191          46.000  
  26304444.060                   138230810.987 0                        42.000  
                  26304442.469   105917117.525          45.000  
  23803637.593                   125088977.475 0                        48.000  
                  23803635.430    95847390.723          53.000  
 22  1 15  3 59 37.0000000  0 10G01G03G04G06G09G17G19G21G22G31
  21507416.804    21507413.284   113021982.087 0  88069081.143 0        46.000  
        47.000                                                  
  20308026.325    20308023.216   106719366.110 0  83157953.524 0        49.000  
        49.000                                                  
  20655316.004    20655311.055   108544367.782 0  84580033.799 0        48.000  
        49.000                                                  
  23700030.710    23700028.262   124544254.388 0  97047410.648 0        43.000  
        42.000                                                  
  22932549.241    22932544.791   120511025.094 0  93904703.014 0        45.000  
        45.000                                                  
  22914279.612    22914273.697   120415737.805 0  93830449.271 0        46.000  
        43.000                                                  
  22694382.772                   119259403.433 0                        46.000  
                                                                
  23482781.684                   123403213.305 0                        43.000  
                                                                
  21301129.530                   111938832.214 0                        45.000  
                                                                
  22999217.046    22999209.202   120862084.298 0  94178251.145 0        43.000  
        39.000                                                  
 22  1 15  3 59 36.0000000  0  0
 22  1 15  3 59 37.0000000  0  5E02E07E08E13E26
  28178984.872                   148081235.541 0                        35.000  
                  28178985.355   113464842.743          44.000  
  23465813.010                   123314438.080 0                        49.000  
                  23465812.349    94487692.797          53.000  
  24238034.309                   127371157.009 0                        42.000  
                  24238031.129    97596490.122          46.000  
  26305023.445                   138233856.519 0                        42.000  
                  26305021.890   105919451.106          45.000  
  23803808.260                   125089873.670 0                        48.000  
                  23803806.026    95848077.425          53.000  
 22  1 15  3 59 38.0000000  0 10G01G03G04G06G09G17G19G21G22G31
  21507965.633    21507962.345   113024866.694 0  88071328.879 0        46.000  
        47.000                                                  
  20308081.969    20308078.914   106719658.663 0  83158181.492 0        49.000  
        49.000                                                  
  20655050.238    20655045.253   108542971.205 0  84578945.550 0        48.000  
        49.000                                                  
  23699407.653    23699405.151   124540980.049 0  97044859.212 0        43.000  
        42.000                                                  
  22931962.172    22931957.687   120507939.606 0  93902298.743 0        45.000  
        45.000                                                  
  22914555.671    22914549.595   120417188.024 0  93831579.312 0        46.000  
        43.000                                                  
  22694448.637                   119259749.138 0                        46.000  
                                                                
  23483362.892                   123406267.494 0                        44.000  
                                                                
  21301425.870                   111940389.467 0                        45.000  
                                                                
  22999546.390    22999538.671   120863815.558 0  94179600.165 0        43.000  
        39.000                                                  
 22  1 15  3 59 37.0000000  0  0
 22  1 15  3 59 38.0000000  0  5E02E07E08E13E26
  28178685.655                   148079662.917 0                        35.000  
                  28178686.245   113463637.728          44.000  
  23465885.844                   123314821.031 0                        49.000  
                  23465885.219    94487986.222          53.000  
  24238485.824                   127373528.313 0                        42.000  
                  24238482.339    97598307.093          46.000  
  26305603.062                   138236902.166 0                        42.000  
                  26305601.686   105921784.778          45.000  
  23803978.766                   125090770.291 0                        48.000  
                  23803976.586    95848764.444          53.000  
 22  1 15  3 59 39.0000000  0 10G01G03G04G06G09G17G19G21G22G31
  21508514.802    21508511.407   113027752.143 0  88073577.281 0        46.000  
        47.000                                                  
  20308137.828    20308134.790   106719952.040 0  83158410.089 0        49.000  
        49.000                                                  
  20654784.651    20654779.755   108541575.558 0  84577858.038 0        48.000  
        49.000                                                  
  23698784.685    23698782.255   124537706.390 0  97042308.316 0        43.000  
        42.000                                                  
  22931375.121    22931370.618   120504854.823 0  93899895.006 0        45.000  
        45.000                                                  
  22914831.961    22914825.725   120418639.200 0  93832710.089 0        45.000  
        43.000                                                  
  22694514.681                   119260095.981 0                        46.000  
                                                                
  23483944.154                   123409322.319 0                        43.000  
                                                                
  21301722.317                   111941947.436 0                        45.000  
                                                                
  22999875.913    22999868.319   120865547.859 0  94180950.026 0        43.000  
        39.000                                                  
 22  1 15  3 59 38.0000000  0  0
 22  1 15  3 59 39.0000000  0  5E02E07E08E13E26
  28178386.671                   148078091.048 0                        35.000  
                  28178386.957   113462433.312          44.000  
  23465959.071                   123315204.716 0                        49.000  
                  23465958.142    94488280.213          53.000  
  24238936.945                   127375900.143 0                        42.000  
                  24238933.568    97600124.464          46.000  
  26306182.698                   138239948.417 0                        42.000  
                  26306181.268   105924118.923          45.000  
  23804149.915                   125091667.801 0                        48.000  
                  23804147.360    95849452.144          53.000  
 22  1 15  3 59 40.0000000  0 10G01G03G04G06G09G17G19G21G22G31
  21509063.935    21509060.522   113030637.853 0  88075825.902 0        46.000  
        47.000                                                  
  20308193.722    20308190.577   106720245.637 0  83158638.866 0        49.000  
        49.000                                                  
  20654519.260    20654514.293   108540180.263 0  84576770.797 0        48.000  
        49.000                                                  
  23698161.735    23698159.234   124534432.778 0  97039757.452 0        43.000  
        42.000                                                  
  22930788.213    22930783.585   120501770.160 0  93897491.384 0        45.000  
        45.000                                                  
  22915108.199    22915102.016   120420090.728 0  93833841.149 0        46.000  
        43.000                                                  
  22694580.797                   119260443.361 0                        46.000  
                                                                
  23484525.486                   123412377.221 0                        44.000  
                                                                
  21302018.871                   111943505.560 0                        45.000  
                                                                
  23000205.650    23000198.109   120867280.651 0  94182300.252 0        43.000  
        39.000                                                  
 22  1 15  3 59 39.0000000  0  0
 22  1 15  3 59 40.0000000  0  5E02E07E08E13E26
  28178087.454                   148076519.395 0                        34.000  
                  28178087.936   113461229.053          44.000  
  23466032.013                   123315588.533 0                        49.000  
                  23466031.155    94488574.311          53.000  
  24239388.192                   127378271.873 0                        42.000  
                  24239384.975    97601941.768          46.000  
  26306762.422                   138242994.674 0                        42.000  
                  26306760.904   105926453.066          45.000  
  23804320.690                   125092565.607 0                        48.000  
                  23804318.259    95850140.078          53.000  
 22  1 15  3 59 41.0000000  0 10G01G03G04G06G09G17G19G21G22G31
  21509613.068    21509609.690   113033523.655 0  88078074.569 0        46.000  
        47.000                                                  
  20308249.509    20308246.400   106720539.255 0  83158867.659 0        49.000  
        49.000                                                  
  20654253.762    20654248.777   108538785.115 0  84575683.668 0        48.000  
        49.000                                                  
  23697538.768    23697536.212   124531159.043 0  97037206.496 0        43.000  
        42.000                                                  
  22930201.269    22930196.552   120498685.418 0  93895087.676 0        46.000  
        45.000                                                  
  22915384.472    22915378.343   120421542.414 0  93834972.347 0        45.000  
        43.000                                                  
  22694647.001                   119260791.102 0                        46.000  
                                                                
  23485106.891                   123415431.982 0                        44.000  
                                                                
  21302315.283                   111945063.632 0                        45.000  
                                                                
  23000535.459    23000527.847   120869013.722 0  94183650.692 0        43.000  
        39.000                                                  
 22  1 15  3 59 40.0000000  0  0
 22  1 15  3 59 41.0000000  0  5E02E07E08E13E26
  28177788.362                   148074947.716 0                        34.000  
                  28177788.863   113460024.808          44.000  
  23466104.954                   123315972.295 0                        49.000  
                  23466104.221    94488868.361          53.000  
  24239839.509                   127380643.362 0                        42.000  
                  24239836.275    97603758.876          46.000  
  26307341.951                   138246040.763 0                        42.000  
                  26307340.575   105928787.080          45.000  
  23804491.482                   125093463.534 0                        48.000  
                  23804489.141    95850828.099          53.000  
 22  1 15  3 59 42.0000000  0 10G01G03G04G06G09G17G19G21G22G31
  21510162.254    21510158.984   113036410.216 0  88080323.842 0        46.000  
        47.000                                                  
  20308305.529    20308302.384   106720833.601 0  83159097.026 0        49.000  
        49.000                                                  
  20653988.425    20653983.458   108537390.838 0  84574597.219 0        48.000  
        49.000                                                  
  23696915.907    23696913.298   124527885.909 0  97034656.005 0        43.000  
        42.000                                                  
  22929614.397    22929609.715   120495601.298 0  93892684.481 0        46.000  
        45.000                                                  
  22915660.977    22915654.705   120422994.975 0  93836104.211 0        45.000  
        43.000                                                  
  22694713.421                   119261139.908 0                        46.000  
                                                                
  23485688.242                   123418487.318 0                        44.000  
                                                                
  21302611.891                   111946622.364 0                        45.000  
                                                                
  23000865.464    23000857.870   120870747.767 0  94185001.884 0        43.000  
        39.000                                                  
 22  1 15  3 59 41.0000000  0  0
 22  1 15  3 59 42.0000000  0  5E02E07E08E13E26
  28177489.556                   148073376.789 0                        35.000  
                  28177490.003   113458821.090          44.000  
  23466178.235                   123316356.707 0                        49.000  
                  23466177.395    94489162.912          53.000  
  24240290.845                   127383015.279 0                        42.000  
                  24240287.611    97605576.320          46.000  
  26307921.890                   138249087.348 0                        42.000  
                  26307920.335   105931121.497          45.000  
  23804662.506                   125094362.270 0                        48.000  
                  23804660.094    95851516.746          53.000  
 22  1 15  3 59 43.0000000  0 10G01G03G04G06G09G17G19G21G22G31
  21510711.548    21510708.331   113039296.927 0  88082573.214 0        46.000  
        47.000                                                  
  20308361.548    20308358.385   106721128.044 0  83159326.455 0        49.000  
        49.000                                                  
  20653723.160    20653718.174   108535996.772 0  84573510.927 0        48.000  
        49.000                                                  
  23696293.011    23696290.545   124524612.711 0  97032105.470 0        43.000  
        42.000                                                  
  22929027.471    22929022.860   120492517.187 0  93890281.264 0        46.000  
        45.000                                                  
  22915937.411    22915931.246   120424447.770 0  93837236.248 0        45.000  
        43.000                                                  
  22694779.893                   119261489.131 0                        46.000  
                                                                
  23486269.664                   123421542.572 0                        44.000  
                                                                
  21302908.481                   111948181.111 0                        45.000  
                                                                
  23001195.415    23001187.982   120872482.146 0  94186353.332 0        43.000  
        39.000                                                  
 22  1 15  3 59 42.0000000  0  0
 22  1 15  3 59 43.0000000  0  5E02E07E08E13E26
  28177190.751                   148071805.891 0                        35.000  
                  28177190.911   113457617.422          44.000  
  23466251.498                   123316741.129 0                        49.000  
                  23466250.533    94489457.464          53.000  
  24240742.092                   127385386.986 0                        42.000  
                  24240738.911    97607393.606          46.000  
  26308501.579                   138252133.843 0                        42.000  
                  26308500.113   105933455.801          45.000  
  23804833.709                   125095261.180 0                        48.000  
                  23804831.118    95852205.512          53.000  
 22  1 15  3 59 44.0000000  0 10G01G03G04G06G09G17G19G21G22G31
  21511260.967    21511257.786   113042184.025 0  88084822.914 0        46.000  
        47.000                                                  
  20308417.657    20308414.655   106721422.833 0  83159556.163 0        49.000  
        49.000                                                  
  20653458.037    20653452.926   108534603.191 0  84572425.022 0        48.000  
        49.000                                                  
  23695670.097    23695667.845   124521339.718 0  97029555.093 0        43.000  
        42.000                                                  
  22928440.652    22928436.006   120489433.323 0  93887878.237 0        46.000  
        45.000                                                  
  22916213.952    22916207.858   120425901.053 0  93838368.669 0        45.000  
        43.000                                                  
  22694846.384                   119261839.022 0                        46.000  
                                                                
  23486851.050                   123424598.028 0                        44.000  
                                                                
  21303205.214                   111949740.142 0                        45.000  
                                                                
  23001525.528    23001518.201   120874217.136 0  94187705.279 0        43.000  
        39.000                                                  
 22  1 15  3 59 43.0000000  0  0
 22  1 15  3 59 44.0000000  0  5E02E07E08E13E26
  28176892.016                   148070235.339 0                        35.000  
                  28176892.088   113456414.010          44.000  
  23466324.511                   123317125.823 0                        49.000  
                  23466323.796    94489752.232          53.000  
  24241193.517                   127387758.774 0                        42.000  
                  24241190.300    97609210.955          46.000  
  26309081.285                   138255180.461 0                        42.000  
                  26309079.784   105935790.227          45.000  
  23805004.609                   125096160.515 0                        48.000  
                  23805002.357    95852894.617          53.000  
 22  1 15  3 59 45.0000000  0 10G01G03G04G06G09G17G19G21G22G31
  21511810.457    21511807.259   113045071.510 0  88087072.896 0        47.000  
        47.000                                                  
  20308473.873    20308470.906   106721717.962 0  83159786.136 0        49.000  
        49.000                                                  
  20653192.950    20653187.732   108533210.068 0  84571339.478 0        48.000  
        49.000                                                  
  23695047.254    23695045.003   124518066.907 0  97027004.862 0        43.000  
        42.000                                                  
  22927853.833    22927849.116   120486349.690 0  93885475.410 0        46.000  
        45.000                                                  
  22916490.582    22916484.507   120427354.808 0  93839501.472 0        45.000  
        43.000                                                  
  22694913.178                   119262189.595 0                        46.000  
                                                                
  23487432.508                   123427653.654 0                        44.000  
                                                                
  21303501.929                   111951299.429 0                        45.000  
                                                                
  23001855.837    23001848.475   120875952.709 0  94189057.679 0        43.000  
        39.000                                                  
 22  1 15  3 59 44.0000000  0  0
 22  1 15  3 59 45.0000000  0  5E02E07E08E13E26
  28176593.175                   148068665.086 0                        35.000  
                  28176593.228   113455210.842          44.000  
  23466397.792                   123317510.776 0                        49.000  
                  23466396.987    94490047.196          53.000  
  24241644.781                   127390130.598 0                        42.000  
                  24241641.654    97611028.326          46.000  
  26309660.832                   138258227.207 0                        42.000  
                  26309659.599   105938124.752          45.000  
